[{"type":"country","code":"US","name":"United States","weight":2612909,"searchable":true,"cases":null,"capital":{"code":"WAS","type":"city"},"index_strings":["states","united","us","united states"]},{"type":"country","code":"IN","name":"India","weight":706384,"searchable":true,"cases":null,"capital":{"code":"DEL","type":"city"},"index_strings":["in","india"]},{"type":"country","code":"TH","name":"Thailand","weight":526706,"searchable":true,"cases":null,"capital":{"code":"BKK","type":"city"},"index_strings":["th","thailand"]},{"type":"country","code":"TR","name":"Turkey","weight":349092,"searchable":true,"cases":null,"capital":{"code":"ANK","type":"city"},"index_strings":["tr","turkey"]},{"type":"country","code":"ES","name":"Spain","weight":317612,"searchable":true,"cases":null,"capital":{"code":"MAD","type":"city"},"index_strings":["es","spain"]},{"type":"city","code":"BKK","name":"Bangkok","en_name":"Bangkok","coordinates":{"lat":13.7234186,"lon":100.4762319},"weight":291242,"searchable":true,"timezone":"Asia/Bangkok","state_code":null,"country_name":"Thailand","country_code":"TH","main_airport_name":null,"cases":null,"index_strings":["bkk","bangkok","th","thailand"]},{"type":"airport","code":"BKK","name":"Suvarnabhumi Airport","coordinates":{"lat":13.693062,"lon":100.752045},"weight":284358,"searchable":true,"timezone":"Asia/Bangkok","en_city_name":"Bangkok","city_name":"Bangkok","city_code":"BKK","state_code":null,"country_name":"Thailand","country_code":"TH","cases":null,"city_cases":null,"country_cases":null,"index_strings":["bkk","suvarnabhumi airport","bangkok","th","thailand"]},{"type":"country","code":"DE","name":"Germany","weight":253349,"searchable":true,"cases":null,"capital":{"code":"BER","type":"city"},"index_strings":["de","germany"]},{"type":"country","code":"MX","name":"Mexico","weight":231274,"searchable":true,"cases":null,"capital":{"code":"MEX","type":"city"},"index_strings":["mx","mexico"]},{"type":"city","code":"IST","name":"Istanbul","en_name":"Istanbul","coordinates":{"lat":40.976665,"lon":28.815277},"weight":229169,"searchable":true,"timezone":"Europe/Istanbul","state_code":null,"country_name":"Turkey","country_code":"TR","main_airport_name":null,"cases":null,"index_strings":["ist","istanbul","tr","turkey"]},{"type":"country","code":"AE","name":"United Arab Emirates","weight":226515,"searchable":true,"cases":null,"capital":{"code":"AUH","type":"city"},"index_strings":["arab","emirates","united","ae","united arab emirates"]},{"type":"city","code":"LAX","name":"Los Angeles","en_name":"Los Angeles","coordinates":{"lat":34.0522342,"lon":-118.2436849},"weight":221118,"searchable":true,"timezone":"America/Los_Angeles","state_code":"CA","country_name":"United States","country_code":"US","main_airport_name":null,"cases":null,"index_strings":["lax","los angeles","us","united states"]},{"type":"airport","code":"LAX","name":"Los Angeles International Airport","coordinates":{"lat":33.943398,"lon":-118.40828},"weight":221099,"searchable":true,"timezone":"America/Los_Angeles","en_city_name":"Los Angeles","city_name":"Los Angeles","city_code":"LAX","state_code":"CA","country_name":"United States","country_code":"US","cases":null,"city_cases":null,"country_cases":null,"index_strings":["lax","los angeles international airport","los angeles","us","united states"]},{"type":"country","code":"AU","name":"Australia","weight":182199,"searchable":true,"cases":null,"capital":{"code":"CBR","type":"city"},"index_strings":["au","australia"]},{"type":"city","code":"DXB","name":"Dubai","en_name":"Dubai","coordinates":{"lat":25.2644444,"lon":55.3116667},"weight":181494,"searchable":true,"timezone":"Asia/Dubai","state_code":null,"country_name":"United Arab Emirates","country_code":"AE","main_airport_name":null,"cases":null,"index_strings":["dxb","dubai","ae","united arab emirates"]},{"type":"airport","code":"DXB","name":"Dubai Airport","coordinates":{"lat":25.248665,"lon":55.352917},"weight":179949,"searchable":true,"timezone":"Asia/Dubai","en_city_name":"Dubai","city_name":"Dubai","city_code":"DXB","state_code":null,"country_name":"United Arab Emirates","country_code":"AE","cases":null,"city_cases":null,"country_cases":null,"index_strings":["dxb","dubai airport","dubai","ae","united arab emirates"]},{"type":"country","code":"CN","name":"China","weight":169824,"searchable":true,"cases":null,"capital":{"code":"BJS","type":"city"},"index_strings":["cn","china"]},{"type":"city","code":"LAS","name":"Las Vegas","en_name":"Las Vegas","coordinates":{"lat":36.114646,"lon":-115.172816},"weight":165463,"searchable":true,"timezone":"America/Los_Angeles","state_code":"NV","country_name":"United States","country_code":"US","main_airport_name":null,"cases":null,"index_strings":["las","las vegas","us","united states"]},{"type":"airport","code":"LAS","name":"McCarran International Airport","coordinates":{"lat":36.086945,"lon":-115.1486},"weight":165426,"searchable":true,"timezone":"America/Los_Angeles","en_city_name":"Las Vegas","city_name":"Las Vegas","city_code":"LAS","state_code":"NV","country_name":"United States","country_code":"US","cases":null,"city_cases":null,"country_cases":null,"index_strings":["las","mccarran international airport","las vegas","us","united states"]},{"type":"country","code":"SA","name":"Saudi Arabia","weight":162077,"searchable":true,"cases":null,"capital":{"code":"RUH","type":"city"},"index_strings":["arabia","saudi","sa","saudi arabia"]},{"type":"country","code":"PH","name":"Philippines","weight":155720,"searchable":true,"cases":null,"capital":{"code":"MNL","type":"city"},"index_strings":["ph","philippines"]},{"type":"country","code":"IT","name":"Italy","weight":150744,"searchable":true,"cases":null,"capital":{"code":"ROM","type":"city"},"index_strings":["it","italy"]},{"type":"city","code":"MIA","name":"Miami","en_name":"Miami","coordinates":{"lat":25.7889689,"lon":-80.2264393},"weight":144108,"searchable":true,"timezone":"America/New_York","state_code":"FL","country_name":"United States","country_code":"US","main_airport_name":null,"cases":null,"index_strings":["mia","miami","us","united states"]},{"type":"airport","code":"MIA","name":"Miami International Airport","coordinates":{"lat":25.796,"lon":-80.27824},"weight":144092,"searchable":true,"timezone":"America/New_York","en_city_name":"Miami","city_name":"Miami","city_code":"MIA","state_code":"FL","country_name":"United States","country_code":"US","cases":null,"city_cases":null,"country_cases":null,"index_strings":["mia","miami international airport","miami","us","united states"]},{"type":"city","code":"ORL","name":"Orlando","en_name":"Orlando","coordinates":{"lat":28.533611,"lon":-81.386667},"weight":139261,"searchable":true,"timezone":"America/New_York","state_code":"FL","country_name":"United States","country_code":"US","main_airport_name":null,"cases":null,"index_strings":["orl","orlando","us","united states"]},{"type":"country","code":"EG","name":"Egypt","weight":135317,"searchable":true,"cases":null,"capital":{"code":"CAI","type":"city"},"index_strings":["eg","egypt"]},{"type":"country","code":"RU","name":"Russia","weight":128972,"searchable":true,"cases":null,"capital":{"code":"MOW","type":"city"},"index_strings":["ru","russia"]},{"type":"city","code":"DEL","name":"Delhi","en_name":"Delhi","coordinates":{"lat":28.556555,"lon":77.10079},"weight":121454,"searchable":true,"timezone":"Asia/Kolkata","state_code":null,"country_name":"India","country_code":"IN","main_airport_name":"Indira Gandhi International Airport","cases":null,"index_strings":["indira gandhi international airport","del","delhi","in","india"]},{"type":"airport","code":"DEL","name":"Indira Gandhi International Airport","coordinates":{"lat":28.556555,"lon":77.10079},"weight":121452,"searchable":false,"timezone":"Asia/Kolkata","en_city_name":"Delhi","city_name":"Delhi","city_code":"DEL","state_code":null,"country_name":"India","country_code":"IN","cases":null,"city_cases":null,"country_cases":null,"index_strings":["del","indira gandhi international airport","delhi","in","india"]},{"type":"country","code":"PK","name":"Pakistan","weight":119153,"searchable":true,"cases":null,"capital":{"code":"ISB","type":"city"},"index_strings":["pk","pakistan"]},{"type":"city","code":"CHI","name":"Chicago","en_name":"Chicago","coordinates":{"lat":41.8781136,"lon":-87.6297982},"weight":114728,"searchable":true,"timezone":"America/Chicago","state_code":"IL","country_name":"United States","country_code":"US","main_airport_name":null,"cases":null,"index_strings":["chi","chicago","us","united states"]},{"type":"country","code":"BR","name":"Brazil","weight":113813,"searchable":true,"cases":null,"capital":{"code":"BSB","type":"city"},"index_strings":["br","brazil"]},{"type":"country","code":"GR","name":"Greece","weight":112361,"searchable":true,"cases":null,"capital":{"code":"ATH","type":"city"},"index_strings":["gr","greece"]},{"type":"country","code":"MY","name":"Malaysia","weight":109083,"searchable":true,"cases":null,"capital":{"code":"KUL","type":"city"},"index_strings":["my","malaysia"]},{"type":"city","code":"MNL","name":"Manila","en_name":"Manila","coordinates":{"lat":14.5995124,"lon":120.9842195},"weight":102980,"searchable":true,"timezone":"Asia/Manila","state_code":null,"country_name":"Philippines","country_code":"PH","main_airport_name":"Ninoy Aquino International Airport","cases":null,"index_strings":["ninoy aquino international airport","mnl","manila","ph","philippines"]},{"type":"airport","code":"MNL","name":"Ninoy Aquino International Airport","coordinates":{"lat":14.509602,"lon":121.01251},"weight":102975,"searchable":false,"timezone":"Asia/Manila","en_city_name":"Manila","city_name":"Manila","city_code":"MNL","state_code":null,"country_name":"Philippines","country_code":"PH","cases":null,"city_cases":null,"country_cases":null,"index_strings":["mnl","ninoy aquino international airport","manila","ph","philippines"]},{"type":"city","code":"SFO","name":"San Francisco","en_name":"San Francisco","coordinates":{"lat":37.7749295,"lon":-122.4194155},"weight":102825,"searchable":true,"timezone":"America/Los_Angeles","state_code":"CA","country_name":"United States","country_code":"US","main_airport_name":"San Francisco International Airport","cases":null,"index_strings":["san francisco international airport","sfo","san francisco","us","united states"]},{"type":"airport","code":"SFO","name":"San Francisco International Airport","coordinates":{"lat":37.615215,"lon":-122.38988},"weight":102818,"searchable":false,"timezone":"America/Los_Angeles","en_city_name":"San Francisco","city_name":"San Francisco","city_code":"SFO","state_code":"CA","country_name":"United States","country_code":"US","cases":null,"city_cases":null,"country_cases":null,"index_strings":["sfo","san francisco international airport","san francisco","us","united states"]},{"type":"city","code":"BCN","name":"Barcelona","en_name":"Barcelona","coordinates":{"lat":41.387917,"lon":2.1699187},"weight":100949,"searchable":true,"timezone":"Europe/Madrid","state_code":null,"country_name":"Spain","country_code":"ES","main_airport_name":"Barcelona-El Prat Airport","cases":null,"index_strings":["barcelona-el prat airport","bcn","barcelona","es","spain"]},{"type":"airport","code":"BCN","name":"Barcelona-El Prat Airport","coordinates":{"lat":41.30303,"lon":2.07593},"weight":100934,"searchable":false,"timezone":"Europe/Madrid","en_city_name":"Barcelona","city_name":"Barcelona","city_code":"BCN","state_code":null,"country_name":"Spain","country_code":"ES","cases":null,"city_cases":null,"country_cases":null,"index_strings":["bcn","barcelona-el prat airport","barcelona","es","spain"]},{"type":"country","code":"CA","name":"Canada","weight":99711,"searchable":true,"cases":null,"capital":{"code":"YOW","type":"city"},"index_strings":["ca","canada"]},{"type":"country","code":"NL","name":"Netherlands","weight":99093,"searchable":true,"cases":null,"capital":{"code":"AMS","type":"city"},"index_strings":["голландия","nl","netherlands"]},{"type":"country","code":"GB","name":"United Kingdom","weight":98782,"searchable":true,"cases":null,"capital":{"code":"LON","type":"city"},"index_strings":["kingdom","united","англия","gb","united kingdom"]},{"type":"city","code":"CAI","name":"Cairo","en_name":"Cairo","coordinates":{"lat":30.120106,"lon":31.40647},"weight":90067,"searchable":true,"timezone":"Africa/Cairo","state_code":null,"country_name":"Egypt","country_code":"EG","main_airport_name":"Cairo International Airport","cases":null,"index_strings":["cairo international airport","cai","cairo","eg","egypt"]},{"type":"airport","code":"CAI","name":"Cairo International Airport","coordinates":{"lat":30.120106,"lon":31.40647},"weight":90065,"searchable":false,"timezone":"Africa/Cairo","en_city_name":"Cairo","city_name":"Cairo","city_code":"CAI","state_code":null,"country_name":"Egypt","country_code":"EG","cases":null,"city_cases":null,"country_cases":null,"index_strings":["cai","cairo international airport","cairo","eg","egypt"]},{"type":"city","code":"AMS","name":"Amsterdam","en_name":"Amsterdam","coordinates":{"lat":52.3730556,"lon":4.8922222},"weight":90035,"searchable":true,"timezone":"Europe/Amsterdam","state_code":null,"country_name":"Netherlands","country_code":"NL","main_airport_name":"Amsterdam Airport Schiphol","cases":null,"index_strings":["amsterdam airport schiphol","евровидение","eurovision","little big","littlebig","ams","amsterdam","nl","netherlands"]},{"type":"airport","code":"AMS","name":"Amsterdam Airport Schiphol","coordinates":{"lat":52.30907,"lon":4.763385},"weight":89987,"searchable":false,"timezone":"Europe/Amsterdam","en_city_name":"Amsterdam","city_name":"Amsterdam","city_code":"AMS","state_code":null,"country_name":"Netherlands","country_code":"NL","cases":null,"city_cases":null,"country_cases":null,"index_strings":["ams","amsterdam airport schiphol","amsterdam","nl","netherlands"]},{"type":"country","code":"MA","name":"Morocco","weight":89866,"searchable":true,"cases":null,"capital":{"code":"RBA","type":"city"},"index_strings":["ma","morocco"]},{"type":"country","code":"UA","name":"Ukraine","weight":83517,"searchable":true,"cases":null,"capital":{"code":"IEV","type":"city"},"index_strings":["ua","ukraine"]},{"type":"city","code":"BOM","name":"Mumbai","en_name":"Mumbai","coordinates":{"lat":19.095509,"lon":72.87497},"weight":82666,"searchable":true,"timezone":"Asia/Kolkata","state_code":null,"country_name":"India","country_code":"IN","main_airport_name":"Chhatrapati Shivaji International Airport","cases":null,"index_strings":["chhatrapati shivaji international airport","бомбей","bombay","bom","mumbai","in","india"]},{"type":"airport","code":"BOM","name":"Chhatrapati Shivaji International Airport","coordinates":{"lat":19.095509,"lon":72.87497},"weight":82666,"searchable":false,"timezone":"Asia/Kolkata","en_city_name":"Mumbai","city_name":"Mumbai","city_code":"BOM","state_code":null,"country_name":"India","country_code":"IN","cases":null,"city_cases":null,"country_cases":null,"index_strings":["bom","chhatrapati shivaji international airport","mumbai","in","india"]},{"type":"country","code":"SG","name":"Singapore","weight":82655,"searchable":true,"cases":null,"capital":{"code":"SIN","type":"city"},"index_strings":["sg","singapore"]},{"type":"city","code":"SIN","name":"Singapore","en_name":"Singapore","coordinates":{"lat":1.2894365,"lon":103.8499802},"weight":82650,"searchable":true,"timezone":"Asia/Singapore","state_code":null,"country_name":"Singapore","country_code":"SG","main_airport_name":"Changi International Airport","cases":null,"index_strings":["changi international airport","sin","singapore","sg"]},{"type":"airport","code":"SIN","name":"Changi International Airport","coordinates":{"lat":1.361173,"lon":103.990204},"weight":82616,"searchable":false,"timezone":"Asia/Singapore","en_city_name":"Singapore","city_name":"Singapore","city_code":"SIN","state_code":null,"country_name":"Singapore","country_code":"SG","cases":null,"city_cases":null,"country_cases":null,"index_strings":["sin","changi international airport","singapore","sg"]},{"type":"country","code":"FR","name":"France","weight":81055,"searchable":true,"cases":null,"capital":{"code":"PAR","type":"city"},"index_strings":["fr","france"]},{"type":"city","code":"FLL","name":"Fort Lauderdale","en_name":"Fort Lauderdale","coordinates":{"lat":26.1223084,"lon":-80.1433786},"weight":79071,"searchable":true,"timezone":"America/New_York","state_code":"FL","country_name":"United States","country_code":"US","main_airport_name":null,"cases":null,"index_strings":["miami","майами","迈阿密","fll","fort lauderdale","us","united states"]},{"type":"airport","code":"FLL","name":"Fort Lauderdale-Hollywood International Airport","coordinates":{"lat":26.071491,"lon":-80.144905},"weight":79046,"searchable":true,"timezone":"America/New_York","en_city_name":"Fort Lauderdale","city_name":"Fort Lauderdale","city_code":"FLL","state_code":"FL","country_name":"United States","country_code":"US","cases":null,"city_cases":null,"country_cases":null,"index_strings":["fll","fort lauderdale-hollywood international airport","fort lauderdale","us","united states"]},{"type":"city","code":"KUL","name":"Kuala Lumpur","en_name":"Kuala Lumpur","coordinates":{"lat":3.139003,"lon":101.686855},"weight":78676,"searchable":true,"timezone":"Asia/Kuala_Lumpur","state_code":null,"country_name":"Malaysia","country_code":"MY","main_airport_name":null,"cases":null,"index_strings":["kul","kuala lumpur","my","malaysia"]},{"type":"airport","code":"KUL","name":"Kuala Lumpur International Airport","coordinates":{"lat":2.755672,"lon":101.70539},"weight":77026,"searchable":true,"timezone":"Asia/Kuala_Lumpur","en_city_name":"Kuala Lumpur","city_name":"Kuala Lumpur","city_code":"KUL","state_code":null,"country_name":"Malaysia","country_code":"MY","cases":null,"city_cases":null,"country_cases":null,"index_strings":["kul","kuala lumpur international airport","kuala lumpur","my","malaysia"]},{"type":"country","code":"HK","name":"Hong Kong","weight":76901,"searchable":false,"cases":null,"capital":{"code":"HKG","type":"city"},"index_strings":["hong","kong","hk","hong kong"]},{"type":"city","code":"HKG","name":"Hong Kong","en_name":"Hong Kong","coordinates":{"lat":22.2478599,"lon":114.2033843},"weight":76895,"searchable":true,"timezone":"Asia/Hong_Kong","state_code":null,"country_name":"Hong Kong","country_code":"HK","main_airport_name":null,"cases":null,"index_strings":["hkg","hong kong","hk"]},{"type":"airport","code":"HKG","name":"Hong Kong International Airport","coordinates":{"lat":22.315248,"lon":113.93649},"weight":76885,"searchable":true,"timezone":"Asia/Hong_Kong","en_city_name":"Hong Kong","city_name":"Hong Kong","city_code":"HKG","state_code":null,"country_name":"Hong Kong","country_code":"HK","cases":null,"city_cases":null,"country_cases":null,"index_strings":["hkg","hong kong international airport","hong kong","hk"]},{"type":"airport","code":"DFW","name":"Dallas/Fort Worth International Airport","coordinates":{"lat":32.89746,"lon":-97.036125},"weight":74759,"searchable":true,"timezone":"America/Chicago","en_city_name":"Dallas","city_name":"Dallas","city_code":"DFW","state_code":"TX","country_name":"United States","country_code":"US","cases":null,"city_cases":null,"country_cases":null,"index_strings":["dfw","dallas/fort worth international airport","dallas","us","united states"]},{"type":"city","code":"DFW","name":"Dallas","en_name":"Dallas","coordinates":{"lat":32.802955,"lon":-96.769923},"weight":74649,"searchable":true,"timezone":"America/Chicago","state_code":"TX","country_name":"United States","country_code":"US","main_airport_name":null,"cases":null,"index_strings":["dfw","dallas","us","united states"]},{"type":"city","code":"ATL","name":"Atlanta","en_name":"Atlanta","coordinates":{"lat":33.7489954,"lon":-84.3879824},"weight":73171,"searchable":true,"timezone":"America/New_York","state_code":"GA","country_name":"United States","country_code":"US","main_airport_name":null,"cases":null,"index_strings":["atl","atlanta","us","united states"]},{"type":"airport","code":"ATL","name":"Hartsfield-Jackson Atlanta International Airport","coordinates":{"lat":33.640068,"lon":-84.44403},"weight":73160,"searchable":true,"timezone":"America/New_York","en_city_name":"Atlanta","city_name":"Atlanta","city_code":"ATL","state_code":"GA","country_name":"United States","country_code":"US","cases":null,"city_cases":null,"country_cases":null,"index_strings":["atl","hartsfield-jackson atlanta international airport","atlanta","us","united states"]},{"type":"country","code":"DO","name":"Dominican Republic","weight":70667,"searchable":true,"cases":null,"capital":{"code":"PUJ","type":"city"},"index_strings":["dominican","republic","do","dominican republic"]},{"type":"country","code":"ID","name":"Indonesia","weight":70452,"searchable":true,"cases":null,"capital":{"code":"JKT","type":"city"},"index_strings":["id","indonesia"]},{"type":"city","code":"MAD","name":"Madrid","en_name":"Madrid","coordinates":{"lat":40.4166909,"lon":-3.7003454},"weight":67143,"searchable":true,"timezone":"Europe/Madrid","state_code":null,"country_name":"Spain","country_code":"ES","main_airport_name":null,"cases":null,"index_strings":["mad","madrid","es","spain"]},{"type":"airport","code":"MAD","name":"Adolfo Suarez Madrid-Barajas Airport","coordinates":{"lat":40.46515,"lon":-3.570209},"weight":67120,"searchable":true,"timezone":"Europe/Madrid","en_city_name":"Madrid","city_name":"Madrid","city_code":"MAD","state_code":null,"country_name":"Spain","country_code":"ES","cases":null,"city_cases":null,"country_cases":null,"index_strings":["mad","adolfo suarez madrid-barajas airport","madrid","es","spain"]},{"type":"city","code":"BOS","name":"Boston","en_name":"Boston","coordinates":{"lat":42.3584308,"lon":-71.0597732},"weight":66721,"searchable":true,"timezone":"America/New_York","state_code":"MA","country_name":"United States","country_code":"US","main_airport_name":null,"cases":null,"index_strings":["bos","boston","us","united states"]},{"type":"airport","code":"BOS","name":"Logan International Airport","coordinates":{"lat":42.36646,"lon":-71.02018},"weight":66712,"searchable":true,"timezone":"America/New_York","en_city_name":"Boston","city_name":"Boston","city_code":"BOS","state_code":"MA","country_name":"United States","country_code":"US","cases":null,"city_cases":null,"country_cases":null,"index_strings":["bos","logan international airport","boston","us","united states"]},{"type":"country","code":"PT","name":"Portugal","weight":66625,"searchable":true,"cases":null,"capital":{"code":"LIS","type":"city"},"index_strings":["pt","portugal"]},{"type":"country","code":"VN","name":"Vietnam","weight":62773,"searchable":true,"cases":null,"capital":{"code":"HAN","type":"city"},"index_strings":["vn","vietnam"]},{"type":"city","code":"CUN","name":"Cancun","en_name":"Cancun","coordinates":{"lat":21.040457,"lon":-86.874435},"weight":61623,"searchable":true,"timezone":"America/Cancun","state_code":null,"country_name":"Mexico","country_code":"MX","main_airport_name":"Cancun International Airport","cases":null,"index_strings":["cancun international airport","cun","cancun","mx","mexico"]},{"type":"airport","code":"CUN","name":"Cancun International Airport","coordinates":{"lat":21.040457,"lon":-86.874435},"weight":61622,"searchable":false,"timezone":"America/Cancun","en_city_name":"Cancun","city_name":"Cancun","city_code":"CUN","state_code":null,"country_name":"Mexico","country_code":"MX","cases":null,"city_cases":null,"country_cases":null,"index_strings":["cun","cancun international airport","cancun","mx","mexico"]},{"type":"city","code":"FRA","name":"Frankfurt","en_name":"Frankfurt","coordinates":{"lat":50.050735,"lon":8.570773},"weight":60753,"searchable":true,"timezone":"Europe/Berlin","state_code":null,"country_name":"Germany","country_code":"DE","main_airport_name":null,"cases":null,"index_strings":["fra","frankfurt","de","germany"]},{"type":"city","code":"SEA","name":"Seattle","en_name":"Seattle","coordinates":{"lat":47.6062095,"lon":-122.3320708},"weight":60466,"searchable":true,"timezone":"America/Los_Angeles","state_code":"WA","country_name":"United States","country_code":"US","main_airport_name":null,"cases":null,"index_strings":["tacoma","такома","塔科马","sea","seattle","us","united states"]},{"type":"airport","code":"FRA","name":"Frankfurt Airport","coordinates":{"lat":50.050735,"lon":8.570773},"weight":60459,"searchable":true,"timezone":"Europe/Berlin","en_city_name":"Frankfurt","city_name":"Frankfurt","city_code":"FRA","state_code":null,"country_name":"Germany","country_code":"DE","cases":null,"city_cases":null,"country_cases":null,"index_strings":["fra","frankfurt airport","frankfurt","de","germany"]},{"type":"airport","code":"SEA","name":"Seattle-Tacoma International Airport","coordinates":{"lat":47.44384,"lon":-122.301735},"weight":60354,"searchable":true,"timezone":"America/Los_Angeles","en_city_name":"Seattle","city_name":"Seattle","city_code":"SEA","state_code":"WA","country_name":"United States","country_code":"US","cases":null,"city_cases":null,"country_cases":null,"index_strings":["sea","seattle-tacoma international airport","seattle","us","united states"]},{"type":"city","code":"HOU","name":"Houston","en_name":"Houston","coordinates":{"lat":29.762778,"lon":-95.383056},"weight":59656,"searchable":true,"timezone":"America/Chicago","state_code":"TX","country_name":"United States","country_code":"US","main_airport_name":null,"cases":null,"index_strings":["hou","houston","us","united states"]},{"type":"city","code":"DEN","name":"Denver","en_name":"Denver","coordinates":{"lat":39.7391536,"lon":-104.9847034},"weight":59415,"searchable":true,"timezone":"America/Denver","state_code":"CO","country_name":"United States","country_code":"US","main_airport_name":null,"cases":null,"index_strings":["den","denver","us","united states"]},{"type":"airport","code":"DEN","name":"Denver International Airport","coordinates":{"lat":39.84939,"lon":-104.672844},"weight":59349,"searchable":true,"timezone":"America/Denver","en_city_name":"Denver","city_name":"Denver","city_code":"DEN","state_code":"CO","country_name":"United States","country_code":"US","cases":null,"city_cases":null,"country_cases":null,"index_strings":["den","denver international airport","denver","us","united states"]},{"type":"city","code":"SYD","name":"Sydney","en_name":"Sydney","coordinates":{"lat":-33.8689009,"lon":151.2070914},"weight":59303,"searchable":true,"timezone":"Australia/Sydney","state_code":"NS","country_name":"Australia","country_code":"AU","main_airport_name":"Sydney (Kingsford Smith) Airport","cases":null,"index_strings":["sydney (kingsford smith) airport","syd","sydney","au","australia"]},{"type":"airport","code":"SYD","name":"Sydney (Kingsford Smith) Airport","coordinates":{"lat":-33.932922,"lon":151.1799},"weight":59276,"searchable":false,"timezone":"Australia/Sydney","en_city_name":"Sydney","city_name":"Sydney","city_code":"SYD","state_code":"NS","country_name":"Australia","country_code":"AU","cases":null,"city_cases":null,"country_cases":null,"index_strings":["syd","sydney (kingsford smith) airport","sydney","au","australia"]},{"type":"city","code":"JED","name":"Jeddah","en_name":"Jeddah","coordinates":{"lat":21.670233,"lon":39.150578},"weight":59193,"searchable":true,"timezone":"Asia/Riyadh","state_code":null,"country_name":"Saudi Arabia","country_code":"SA","main_airport_name":"King Abdulaziz International Airport","cases":null,"index_strings":["king abdulaziz international airport","jed","jeddah","sa","saudi arabia"]},{"type":"airport","code":"JED","name":"King Abdulaziz International Airport","coordinates":{"lat":21.670233,"lon":39.150578},"weight":59192,"searchable":false,"timezone":"Asia/Riyadh","en_city_name":"Jeddah","city_name":"Jeddah","city_code":"JED","state_code":null,"country_name":"Saudi Arabia","country_code":"SA","cases":null,"city_cases":null,"country_cases":null,"index_strings":["jed","king abdulaziz international airport","jeddah","sa","saudi arabia"]},{"type":"country","code":"PR","name":"Puerto Rico","weight":58480,"searchable":true,"cases":null,"capital":{"code":"SJU","type":"city"},"index_strings":["puerto","rico","pr","puerto rico"]},{"type":"country","code":"IR","name":"Iran","weight":58130,"searchable":true,"cases":null,"capital":{"code":"THR","type":"city"},"index_strings":["ir","iran"]},{"type":"city","code":"HNL","name":"Honolulu","en_name":"Honolulu","coordinates":{"lat":21.3069444,"lon":-157.8583333},"weight":57312,"searchable":true,"timezone":"Pacific/Honolulu","state_code":"HI","country_name":"United States","country_code":"US","main_airport_name":"Honolulu International Airport","cases":null,"index_strings":["honolulu international airport","hnl","honolulu","us","united states"]},{"type":"airport","code":"HNL","name":"Honolulu International Airport","coordinates":{"lat":21.325832,"lon":-157.92166},"weight":57311,"searchable":false,"timezone":"Pacific/Honolulu","en_city_name":"Honolulu","city_name":"Honolulu","city_code":"HNL","state_code":"HI","country_name":"United States","country_code":"US","cases":null,"city_cases":null,"country_cases":null,"index_strings":["hnl","honolulu international airport","honolulu","us","united states"]},{"type":"airport","code":"HOU","name":"William P. Hobby Airport","coordinates":{"lat":29.654512,"lon":-95.277016},"weight":57284,"searchable":true,"timezone":"America/Chicago","en_city_name":"Houston","city_name":"Houston","city_code":"HOU","state_code":"TX","country_name":"United States","country_code":"US","cases":null,"city_cases":null,"country_cases":null,"index_strings":["hou","william p. hobby airport","houston","us","united states"]},{"type":"city","code":"HKT","name":"Phuket","en_name":"Phuket","coordinates":{"lat":8.107619,"lon":98.306435},"weight":56507,"searchable":true,"timezone":"Asia/Bangkok","state_code":null,"country_name":"Thailand","country_code":"TH","main_airport_name":"Phuket International Airport","cases":null,"index_strings":["phuket international airport","hkt","phuket","th","thailand"]},{"type":"airport","code":"HKT","name":"Phuket International Airport","coordinates":{"lat":8.107619,"lon":98.306435},"weight":56501,"searchable":false,"timezone":"Asia/Bangkok","en_city_name":"Phuket","city_name":"Phuket","city_code":"HKT","state_code":null,"country_name":"Thailand","country_code":"TH","cases":null,"city_cases":null,"country_cases":null,"index_strings":["hkt","phuket international airport","phuket","th","thailand"]},{"type":"country","code":"PL","name":"Poland","weight":53999,"searchable":true,"cases":null,"capital":{"code":"WAW","type":"city"},"index_strings":["pl","poland"]},{"type":"city","code":"BER","name":"Berlin","en_name":"Berlin","coordinates":{"lat":52.5234051,"lon":13.4113999},"weight":53650,"searchable":true,"timezone":"Europe/Berlin","state_code":null,"country_name":"Germany","country_code":"DE","main_airport_name":null,"cases":null,"index_strings":["ber","berlin","de","germany"]},{"type":"city","code":"SJU","name":"San Juan","en_name":"San Juan","coordinates":{"lat":18.4663338,"lon":-66.1057217},"weight":52777,"searchable":true,"timezone":"America/Puerto_Rico","state_code":null,"country_name":"Puerto Rico","country_code":"PR","main_airport_name":"Luis Munoz Marin International Airport","cases":null,"index_strings":["luis munoz marin international airport","sju","san juan","pr","puerto rico"]},{"type":"airport","code":"SJU","name":"Luis Munoz Marin International Airport","coordinates":{"lat":18.437403,"lon":-66.004684},"weight":52758,"searchable":false,"timezone":"America/Puerto_Rico","en_city_name":"San Juan","city_name":"San Juan","city_code":"SJU","state_code":null,"country_name":"Puerto Rico","country_code":"PR","cases":null,"city_cases":null,"country_cases":null,"index_strings":["sju","luis munoz marin international airport","san juan","pr","puerto rico"]},{"type":"city","code":"ATH","name":"Athens","en_name":"Athens","coordinates":{"lat":37.93635,"lon":23.946486},"weight":52725,"searchable":true,"timezone":"Europe/Athens","state_code":null,"country_name":"Greece","country_code":"GR","main_airport_name":"Eleftherios Venizelos International Airport","cases":null,"index_strings":["eleftherios venizelos international airport","ath","athens","gr","greece"]},{"type":"airport","code":"ATH","name":"Eleftherios Venizelos International Airport","coordinates":{"lat":37.93635,"lon":23.946486},"weight":52723,"searchable":false,"timezone":"Europe/Athens","en_city_name":"Athens","city_name":"Athens","city_code":"ATH","state_code":null,"country_name":"Greece","country_code":"GR","cases":null,"city_cases":null,"country_cases":null,"index_strings":["ath","eleftherios venizelos international airport","athens","gr","greece"]},{"type":"country","code":"JP","name":"Japan","weight":52132,"searchable":true,"cases":null,"capital":{"code":"TYO","type":"city"},"index_strings":["jp","japan"]},{"type":"city","code":"SAN","name":"San Diego","en_name":"San Diego","coordinates":{"lat":32.7153292,"lon":-117.1572551},"weight":52030,"searchable":true,"timezone":"America/Los_Angeles","state_code":"CA","country_name":"United States","country_code":"US","main_airport_name":null,"cases":null,"index_strings":["san","san diego","us","united states"]},{"type":"country","code":"TW","name":"Taiwan","weight":52010,"searchable":true,"cases":null,"capital":{"code":"TPE","type":"city"},"index_strings":["tw","taiwan"]},{"type":"airport","code":"SAN","name":"San Diego International Airport","coordinates":{"lat":32.731937,"lon":-117.19731},"weight":51932,"searchable":true,"timezone":"America/Los_Angeles","en_city_name":"San Diego","city_name":"San Diego","city_code":"SAN","state_code":"CA","country_name":"United States","country_code":"US","cases":null,"city_cases":null,"country_cases":null,"index_strings":["san","san diego international airport","san diego","us","united states"]},{"type":"city","code":"IEV","name":"Kyiv","en_name":"Kyiv","coordinates":{"lat":50.45,"lon":30.5},"weight":50769,"searchable":true,"timezone":"Europe/Kiev","state_code":null,"country_name":"Ukraine","country_code":"UA","main_airport_name":null,"cases":null,"index_strings":["iev","kyiv","ua","ukraine"]},{"type":"city","code":"TPA","name":"Tampa","en_name":"Tampa","coordinates":{"lat":27.949436,"lon":-82.4651441},"weight":50209,"searchable":true,"timezone":"America/New_York","state_code":"FL","country_name":"United States","country_code":"US","main_airport_name":null,"cases":null,"index_strings":["tpa","tampa","us","united states"]},{"type":"airport","code":"TPA","name":"Tampa International Airport","coordinates":{"lat":27.97987,"lon":-82.535416},"weight":49883,"searchable":true,"timezone":"America/New_York","en_city_name":"Tampa","city_name":"Tampa","city_code":"TPA","state_code":"FL","country_name":"United States","country_code":"US","cases":null,"city_cases":null,"country_cases":null,"index_strings":["tpa","tampa international airport","tampa","us","united states"]},{"type":"city","code":"CNX","name":"Chiang Mai","en_name":"Chiang Mai","coordinates":{"lat":18.769573,"lon":98.96841},"weight":49287,"searchable":true,"timezone":"Asia/Bangkok","state_code":null,"country_name":"Thailand","country_code":"TH","main_airport_name":"Chiang Mai International Airport","cases":null,"index_strings":["chiang mai international airport","cnx","chiang mai","th","thailand"]},{"type":"airport","code":"CNX","name":"Chiang Mai International Airport","coordinates":{"lat":18.769573,"lon":98.96841},"weight":49282,"searchable":false,"timezone":"Asia/Bangkok","en_city_name":"Chiang Mai","city_name":"Chiang Mai","city_code":"CNX","state_code":null,"country_name":"Thailand","country_code":"TH","cases":null,"city_cases":null,"country_cases":null,"index_strings":["cnx","chiang mai international airport","chiang mai","th","thailand"]},{"type":"city","code":"MAA","name":"Chennai","en_name":"Chennai","coordinates":{"lat":12.982267,"lon":80.16378},"weight":48098,"searchable":true,"timezone":"Asia/Kolkata","state_code":null,"country_name":"India","country_code":"IN","main_airport_name":"Chennai Airport","cases":null,"index_strings":["chennai airport","maa","chennai","in","india"]},{"type":"airport","code":"MAA","name":"Chennai Airport","coordinates":{"lat":12.982267,"lon":80.16378},"weight":48097,"searchable":false,"timezone":"Asia/Kolkata","en_city_name":"Chennai","city_name":"Chennai","city_code":"MAA","state_code":null,"country_name":"India","country_code":"IN","cases":null,"city_cases":null,"country_cases":null,"index_strings":["maa","chennai airport","chennai","in","india"]},{"type":"country","code":"CH","name":"Switzerland","weight":47775,"searchable":true,"cases":null,"capital":{"code":"BRN","type":"city"},"index_strings":["ch","switzerland"]},{"type":"city","code":"MUC","name":"Munich","en_name":"Munich","coordinates":{"lat":48.1391265,"lon":11.5801863},"weight":47700,"searchable":true,"timezone":"Europe/Berlin","state_code":null,"country_name":"Germany","country_code":"DE","main_airport_name":null,"cases":null,"index_strings":["muc","munich","de","germany"]},{"type":"airport","code":"MUC","name":"Franz Josef Strauss Airport","coordinates":{"lat":48.353004,"lon":11.790143},"weight":47627,"searchable":true,"timezone":"Europe/Berlin","en_city_name":"Munich","city_name":"Munich","city_code":"MUC","state_code":null,"country_name":"Germany","country_code":"DE","cases":null,"city_cases":null,"country_cases":null,"index_strings":["muc","franz josef strauss airport","munich","de","germany"]},{"type":"city","code":"RUH","name":"Riyadh","en_name":"Riyadh","coordinates":{"lat":24.95929,"lon":46.702877},"weight":46860,"searchable":true,"timezone":"Asia/Riyadh","state_code":null,"country_name":"Saudi Arabia","country_code":"SA","main_airport_name":"King Khaled International Airport","cases":null,"index_strings":["king khaled international airport","ruh","riyadh","sa","saudi arabia"]},{"type":"airport","code":"RUH","name":"King Khaled International Airport","coordinates":{"lat":24.95929,"lon":46.702877},"weight":46860,"searchable":false,"timezone":"Asia/Riyadh","en_city_name":"Riyadh","city_name":"Riyadh","city_code":"RUH","state_code":null,"country_name":"Saudi Arabia","country_code":"SA","cases":null,"city_cases":null,"country_cases":null,"index_strings":["ruh","king khaled international airport","riyadh","sa","saudi arabia"]},{"type":"country","code":"IE","name":"Ireland","weight":46719,"searchable":true,"cases":null,"capital":{"code":"DUB","type":"city"},"index_strings":["ie","ireland"]},{"type":"city","code":"PHX","name":"Phoenix","en_name":"Phoenix","coordinates":{"lat":33.4483771,"lon":-112.0740373},"weight":46327,"searchable":true,"timezone":"America/Phoenix","state_code":"AZ","country_name":"United States","country_code":"US","main_airport_name":null,"cases":null,"index_strings":["phx","phoenix","us","united states"]},{"type":"country","code":"LB","name":"Lebanon","weight":46219,"searchable":true,"cases":null,"capital":null,"index_strings":["lb","lebanon"]},{"type":"city","code":"BEY","name":"Beirut","en_name":"Beirut","coordinates":{"lat":33.826073,"lon":35.49308},"weight":46199,"searchable":true,"timezone":"Asia/Beirut","state_code":null,"country_name":"Lebanon","country_code":"LB","main_airport_name":"Beirut-Rafic Hariri International Airport","cases":null,"index_strings":["beirut-rafic hariri international airport","bey","beirut","lb","lebanon"]},{"type":"airport","code":"BEY","name":"Beirut-Rafic Hariri International Airport","coordinates":{"lat":33.826073,"lon":35.49308},"weight":46199,"searchable":false,"timezone":"Asia/Beirut","en_city_name":"Beirut","city_name":"Beirut","city_code":"BEY","state_code":null,"country_name":"Lebanon","country_code":"LB","cases":null,"city_cases":null,"country_cases":null,"index_strings":["bey","beirut-rafic hariri international airport","beirut","lb","lebanon"]},{"type":"country","code":"CO","name":"Colombia","weight":45829,"searchable":true,"cases":null,"capital":{"code":"BOG","type":"city"},"index_strings":["co","colombia"]},{"type":"city","code":"TPE","name":"Taipei","en_name":"Taipei","coordinates":{"lat":25.091075,"lon":121.5598345},"weight":45442,"searchable":true,"timezone":"Asia/Taipei","state_code":null,"country_name":"Taiwan","country_code":"TW","main_airport_name":null,"cases":null,"index_strings":["tpe","taipei","tw","taiwan"]},{"type":"airport","code":"TPE","name":"Taiwan Taoyuan International Airport","coordinates":{"lat":25.07639,"lon":121.22389},"weight":45032,"searchable":true,"timezone":"Asia/Taipei","en_city_name":"Taipei","city_name":"Taipei","city_code":"TPE","state_code":null,"country_name":"Taiwan","country_code":"TW","cases":null,"city_cases":null,"country_cases":null,"index_strings":["tpe","taiwan taoyuan international airport","taipei","tw","taiwan"]},{"type":"city","code":"MEX","name":"Mexico City","en_name":"Mexico City","coordinates":{"lat":19.4270499,"lon":-99.1275711},"weight":44532,"searchable":true,"timezone":"America/Mexico_City","state_code":null,"country_name":"Mexico","country_code":"MX","main_airport_name":null,"cases":null,"index_strings":["mex","mexico city","mx","mexico"]},{"type":"airport","code":"PHX","name":"Phoenix Sky Harbor International Airport","coordinates":{"lat":33.435036,"lon":-112.00016},"weight":44526,"searchable":true,"timezone":"America/Phoenix","en_city_name":"Phoenix","city_name":"Phoenix","city_code":"PHX","state_code":"AZ","country_name":"United States","country_code":"US","cases":null,"city_cases":null,"country_cases":null,"index_strings":["phx","phoenix sky harbor international airport","phoenix","us","united states"]},{"type":"city","code":"MEL","name":"Melbourne","en_name":"Melbourne","coordinates":{"lat":-37.8131869,"lon":144.9629796},"weight":44514,"searchable":true,"timezone":"Australia/Melbourne","state_code":"VI","country_name":"Australia","country_code":"AU","main_airport_name":null,"cases":null,"index_strings":["mel","melbourne","au","australia"]},{"type":"airport","code":"MEX","name":"Benito Juarez International Airport","coordinates":{"lat":19.435278,"lon":-99.07278},"weight":44476,"searchable":true,"timezone":"America/Mexico_City","en_city_name":"Mexico City","city_name":"Mexico City","city_code":"MEX","state_code":null,"country_name":"Mexico","country_code":"MX","cases":null,"city_cases":null,"country_cases":null,"index_strings":["mex","benito juarez international airport","mexico city","mx","mexico"]},{"type":"airport","code":"MEL","name":"Tullamarine Airport","coordinates":{"lat":-37.669613,"lon":144.84978},"weight":44383,"searchable":true,"timezone":"Australia/Melbourne","en_city_name":"Melbourne","city_name":"Melbourne","city_code":"MEL","state_code":"VI","country_name":"Australia","country_code":"AU","cases":null,"city_cases":null,"country_cases":null,"index_strings":["mel","tullamarine airport","melbourne","au","australia"]},{"type":"country","code":"AT","name":"Austria","weight":44353,"searchable":true,"cases":null,"capital":{"code":"VIE","type":"city"},"index_strings":["at","austria"]},{"type":"city","code":"SHA","name":"Shanghai","en_name":"Shanghai","coordinates":{"lat":31.230393,"lon":121.473704},"weight":44172,"searchable":true,"timezone":"Asia/Shanghai","state_code":null,"country_name":"China","country_code":"CN","main_airport_name":null,"cases":null,"index_strings":["sha","shanghai","cn","china"]},{"type":"country","code":"JO","name":"Jordan","weight":44154,"searchable":true,"cases":null,"capital":{"code":"AMM","type":"city"},"index_strings":["jo","jordan"]},{"type":"country","code":"IL","name":"Israel","weight":43571,"searchable":true,"cases":null,"capital":{"code":"JRS","type":"city"},"index_strings":["il","israel"]},{"type":"airport","code":"IEV","name":"Kyiv International Airport","coordinates":{"lat":50.401943,"lon":30.450832},"weight":43427,"searchable":true,"timezone":"Europe/Kiev","en_city_name":"Kyiv","city_name":"Kyiv","city_code":"IEV","state_code":null,"country_name":"Ukraine","country_code":"UA","cases":null,"city_cases":null,"country_cases":null,"index_strings":["iev","kyiv international airport","kyiv","ua","ukraine"]},{"type":"city","code":"AMM","name":"Amman","en_name":"Amman","coordinates":{"lat":31.722534,"lon":35.98932},"weight":43015,"searchable":true,"timezone":"Asia/Amman","state_code":null,"country_name":"Jordan","country_code":"JO","main_airport_name":"Queen Alia International Airport","cases":null,"index_strings":["queen alia international airport","amm","amman","jo","jordan"]},{"type":"airport","code":"AMM","name":"Queen Alia International Airport","coordinates":{"lat":31.722534,"lon":35.98932},"weight":42979,"searchable":false,"timezone":"Asia/Amman","en_city_name":"Amman","city_name":"Amman","city_code":"AMM","state_code":null,"country_name":"Jordan","country_code":"JO","cases":null,"city_cases":null,"country_cases":null,"index_strings":["amm","queen alia international airport","amman","jo","jordan"]},{"type":"country","code":"NZ","name":"New Zealand","weight":42755,"searchable":true,"cases":null,"capital":{"code":"WLG","type":"city"},"index_strings":["new","zealand","nz","new zealand"]},{"type":"country","code":"CZ","name":"Czech Republic","weight":41671,"searchable":true,"cases":null,"capital":{"code":"PRG","type":"city"},"index_strings":["czech","republic","cz","czech republic"]},{"type":"country","code":"BE","name":"Belgium","weight":41523,"searchable":true,"cases":null,"capital":{"code":"BRU","type":"city"},"index_strings":["be","belgium"]},{"type":"airport","code":"SHA","name":"Shanghai Hongqiao International Airport","coordinates":{"lat":31.196815,"lon":121.34197},"weight":41367,"searchable":true,"timezone":"Asia/Shanghai","en_city_name":"Shanghai","city_name":"Shanghai","city_code":"SHA","state_code":null,"country_name":"China","country_code":"CN","cases":null,"city_cases":null,"country_cases":null,"index_strings":["sha","shanghai hongqiao international airport","shanghai","cn","china"]},{"type":"country","code":"GE","name":"Georgia","weight":41351,"searchable":true,"cases":null,"capital":{"code":"TBS","type":"city"},"index_strings":["ge","georgia"]},{"type":"city","code":"TLV","name":"Tel Aviv-Yafo","en_name":"Tel Aviv-Yafo","coordinates":{"lat":32.000454,"lon":34.870743},"weight":40863,"searchable":true,"timezone":"Asia/Jerusalem","state_code":null,"country_name":"Israel","country_code":"IL","main_airport_name":null,"cases":null,"index_strings":["tlv","tel aviv-yafo","il","israel"]},{"type":"country","code":"ZA","name":"South Africa","weight":40819,"searchable":true,"cases":null,"capital":{"code":"PRY","type":"city"},"index_strings":["africa","south","za","south africa"]},{"type":"airport","code":"TLV","name":"Ben Gurion International Airport","coordinates":{"lat":32.000454,"lon":34.870743},"weight":40790,"searchable":true,"timezone":"Asia/Jerusalem","en_city_name":"Tel Aviv-Yafo","city_name":"Tel Aviv-Yafo","city_code":"TLV","state_code":null,"country_name":"Israel","country_code":"IL","cases":null,"city_cases":null,"country_cases":null,"index_strings":["tlv","ben gurion international airport","tel aviv-yafo","il","israel"]},{"type":"city","code":"HYD","name":"Hyderabad","en_name":"Hyderabad","coordinates":{"lat":17.385044,"lon":78.486671},"weight":40718,"searchable":true,"timezone":"Asia/Kolkata","state_code":null,"country_name":"India","country_code":"IN","main_airport_name":"Rajiv Gandhi International Airport","cases":null,"index_strings":["rajiv gandhi international airport","hyd","hyderabad","in","india"]},{"type":"airport","code":"HYD","name":"Rajiv Gandhi International Airport","coordinates":{"lat":17.24,"lon":78.428055},"weight":40685,"searchable":false,"timezone":"Asia/Kolkata","en_city_name":"Hyderabad","city_name":"Hyderabad","city_code":"HYD","state_code":null,"country_name":"India","country_code":"IN","cases":null,"city_cases":null,"country_cases":null,"index_strings":["hyd","rajiv gandhi international airport","hyderabad","in","india"]},{"type":"city","code":"COK","name":"Kochi","en_name":"Kochi","coordinates":{"lat":10.155644,"lon":76.39053},"weight":40665,"searchable":true,"timezone":"Asia/Kolkata","state_code":null,"country_name":"India","country_code":"IN","main_airport_name":"Cochin International Airport","cases":null,"index_strings":["cochin international airport","cok","kochi","in","india"]},{"type":"airport","code":"COK","name":"Cochin International Airport","coordinates":{"lat":10.155644,"lon":76.39053},"weight":40665,"searchable":false,"timezone":"Asia/Kolkata","en_city_name":"Kochi","city_name":"Kochi","city_code":"COK","state_code":null,"country_name":"India","country_code":"IN","cases":null,"city_cases":null,"country_cases":null,"index_strings":["cok","cochin international airport","kochi","in","india"]},{"type":"city","code":"PRG","name":"Prague","en_name":"Prague","coordinates":{"lat":50.0878114,"lon":14.4204598},"weight":39633,"searchable":true,"timezone":"Europe/Prague","state_code":null,"country_name":"Czech Republic","country_code":"CZ","main_airport_name":"Vaclav Havel Airport Prague","cases":null,"index_strings":["vaclav havel airport prague","prg","prague","cz","czech republic"]},{"type":"city","code":"DUB","name":"Dublin","en_name":"Dublin","coordinates":{"lat":53.42728,"lon":-6.24357},"weight":39622,"searchable":true,"timezone":"Europe/Dublin","state_code":null,"country_name":"Ireland","country_code":"IE","main_airport_name":"Dublin Airport","cases":null,"index_strings":["dublin airport","dub","dublin","ie","ireland"]},{"type":"airport","code":"DUB","name":"Dublin Airport","coordinates":{"lat":53.42728,"lon":-6.24357},"weight":39620,"searchable":false,"timezone":"Europe/Dublin","en_city_name":"Dublin","city_name":"Dublin","city_code":"DUB","state_code":null,"country_name":"Ireland","country_code":"IE","cases":null,"city_cases":null,"country_cases":null,"index_strings":["dub","dublin airport","dublin","ie","ireland"]},{"type":"airport","code":"PRG","name":"Vaclav Havel Airport Prague","coordinates":{"lat":50.10619,"lon":14.266638},"weight":39581,"searchable":false,"timezone":"Europe/Prague","en_city_name":"Prague","city_name":"Prague","city_code":"PRG","state_code":null,"country_name":"Czech Republic","country_code":"CZ","cases":null,"city_cases":null,"country_cases":null,"index_strings":["prg","vaclav havel airport prague","prague","cz","czech republic"]},{"type":"city","code":"PHL","name":"Philadelphia","en_name":"Philadelphia","coordinates":{"lat":39.952335,"lon":-75.163789},"weight":39033,"searchable":true,"timezone":"America/New_York","state_code":"PA","country_name":"United States","country_code":"US","main_airport_name":null,"cases":null,"index_strings":["phl","philadelphia","us","united states"]},{"type":"airport","code":"PHL","name":"Philadelphia International Airport","coordinates":{"lat":39.87641,"lon":-75.2433},"weight":38819,"searchable":true,"timezone":"America/New_York","en_city_name":"Philadelphia","city_name":"Philadelphia","city_code":"PHL","state_code":"PA","country_name":"United States","country_code":"US","cases":null,"city_cases":null,"country_cases":null,"index_strings":["phl","philadelphia international airport","philadelphia","us","united states"]},{"type":"city","code":"BRU","name":"Brussels","en_name":"Brussels","coordinates":{"lat":50.8503396,"lon":4.3517103},"weight":38605,"searchable":true,"timezone":"Europe/Brussels","state_code":null,"country_name":"Belgium","country_code":"BE","main_airport_name":null,"cases":null,"index_strings":["bru","brussels","be","belgium"]},{"type":"city","code":"CAS","name":"Casablanca","en_name":"Casablanca","coordinates":{"lat":33.533333,"lon":-7.583333},"weight":38507,"searchable":true,"timezone":"Africa/Casablanca","state_code":null,"country_name":"Morocco","country_code":"MA","main_airport_name":null,"cases":null,"index_strings":["mohamed v international airport","cas","casablanca","ma","morocco"]},{"type":"airport","code":"BRU","name":"Brussels Airport","coordinates":{"lat":50.89717,"lon":4.483602},"weight":38101,"searchable":true,"timezone":"Europe/Brussels","en_city_name":"Brussels","city_name":"Brussels","city_code":"BRU","state_code":null,"country_name":"Belgium","country_code":"BE","cases":null,"city_cases":null,"country_cases":null,"index_strings":["bru","brussels airport","brussels","be","belgium"]},{"type":"city","code":"VIE","name":"Vienna","en_name":"Vienna","coordinates":{"lat":48.2081743,"lon":16.3738189},"weight":38055,"searchable":true,"timezone":"Europe/Vienna","state_code":null,"country_name":"Austria","country_code":"AT","main_airport_name":"Vienna International Airport","cases":null,"index_strings":["vienna international airport","vie","vienna","at","austria"]},{"type":"airport","code":"VIE","name":"Vienna International Airport","coordinates":{"lat":48.11972,"lon":16.563583},"weight":37985,"searchable":false,"timezone":"Europe/Vienna","en_city_name":"Vienna","city_name":"Vienna","city_code":"VIE","state_code":null,"country_name":"Austria","country_code":"AT","cases":null,"city_cases":null,"country_cases":null,"index_strings":["vie","vienna international airport","vienna","at","austria"]},{"type":"city","code":"SGN","name":"Ho Chi Minh City","en_name":"Ho Chi Minh City","coordinates":{"lat":10.813045,"lon":106.662476},"weight":37705,"searchable":true,"timezone":"Asia/Ho_Chi_Minh","state_code":null,"country_name":"Vietnam","country_code":"VN","main_airport_name":"Tan Son Nhat International Airport","cases":null,"index_strings":["tan son nhat international airport","sgn","ho chi minh city","vn","vietnam"]},{"type":"airport","code":"SGN","name":"Tan Son Nhat International Airport","coordinates":{"lat":10.813045,"lon":106.662476},"weight":37703,"searchable":false,"timezone":"Asia/Ho_Chi_Minh","en_city_name":"Ho Chi Minh City","city_name":"Ho Chi Minh City","city_code":"SGN","state_code":null,"country_name":"Vietnam","country_code":"VN","cases":null,"city_cases":null,"country_cases":null,"index_strings":["sgn","tan son nhat international airport","ho chi minh city","vn","vietnam"]},{"type":"city","code":"LIS","name":"Lisbon","en_name":"Lisbon","coordinates":{"lat":38.706932,"lon":-9.1356321},"weight":37455,"searchable":true,"timezone":"Europe/Lisbon","state_code":null,"country_name":"Portugal","country_code":"PT","main_airport_name":"Lisbon Portela Airport","cases":null,"index_strings":["lisbon portela airport","lis","lisbon","pt","portugal"]},{"type":"airport","code":"LIS","name":"Lisbon Portela Airport","coordinates":{"lat":38.770042,"lon":-9.128165},"weight":37455,"searchable":false,"timezone":"Europe/Lisbon","en_city_name":"Lisbon","city_name":"Lisbon","city_code":"LIS","state_code":null,"country_name":"Portugal","country_code":"PT","cases":null,"city_cases":null,"country_cases":null,"index_strings":["lis","lisbon portela airport","lisbon","pt","portugal"]},{"type":"city","code":"DPS","name":"Denpasar","en_name":"Denpasar","coordinates":{"lat":-8.74446,"lon":115.16331},"weight":36966,"searchable":true,"timezone":"Asia/Makassar","state_code":null,"country_name":"Indonesia","country_code":"ID","main_airport_name":"Ngurah Rai International Airport","cases":null,"index_strings":["ngurah rai international airport","бали","bali","dps","denpasar","id","indonesia"]},{"type":"airport","code":"DPS","name":"Ngurah Rai International Airport","coordinates":{"lat":-8.74446,"lon":115.16331},"weight":36965,"searchable":false,"timezone":"Asia/Makassar","en_city_name":"Denpasar","city_name":"Denpasar","city_code":"DPS","state_code":null,"country_name":"Indonesia","country_code":"ID","cases":null,"city_cases":null,"country_cases":null,"index_strings":["dps","ngurah rai international airport","denpasar","id","indonesia"]},{"type":"city","code":"BLR","name":"Bengaluru","en_name":"Bengaluru","coordinates":{"lat":13.198889,"lon":77.70556},"weight":34988,"searchable":true,"timezone":"Asia/Kolkata","state_code":null,"country_name":"India","country_code":"IN","main_airport_name":"Kempegowda International Airport","cases":null,"index_strings":["kempegowda international airport","blr","bengaluru","in","india"]},{"type":"airport","code":"BLR","name":"Kempegowda International Airport","coordinates":{"lat":13.198889,"lon":77.70556},"weight":34988,"searchable":false,"timezone":"Asia/Kolkata","en_city_name":"Bengaluru","city_name":"Bengaluru","city_code":"BLR","state_code":null,"country_name":"India","country_code":"IN","cases":null,"city_cases":null,"country_cases":null,"index_strings":["blr","kempegowda international airport","bengaluru","in","india"]},{"type":"country","code":"KW","name":"Kuwait","weight":34372,"searchable":true,"cases":null,"capital":{"code":"KWI","type":"city"},"index_strings":["kw","kuwait"]},{"type":"city","code":"KWI","name":"Kuwait","en_name":"Kuwait","coordinates":{"lat":29.240116,"lon":47.971252},"weight":34372,"searchable":true,"timezone":"Asia/Kuwait","state_code":null,"country_name":"Kuwait","country_code":"KW","main_airport_name":"Kuwait International Airport","cases":null,"index_strings":["kuwait international airport","kwi","kuwait","kw"]},{"type":"airport","code":"KWI","name":"Kuwait International Airport","coordinates":{"lat":29.240116,"lon":47.971252},"weight":34372,"searchable":false,"timezone":"Asia/Kuwait","en_city_name":"Kuwait","city_name":"Kuwait","city_code":"KWI","state_code":null,"country_name":"Kuwait","country_code":"KW","cases":null,"city_cases":null,"country_cases":null,"index_strings":["kwi","kuwait international airport","kuwait","kw"]},{"type":"city","code":"AYT","name":"Antalya","en_name":"Antalya","coordinates":{"lat":36.89928,"lon":30.80135},"weight":33838,"searchable":true,"timezone":"Europe/Istanbul","state_code":null,"country_name":"Turkey","country_code":"TR","main_airport_name":"Antalya Airport","cases":null,"index_strings":["antalya airport","ayt","antalya","tr","turkey"]},{"type":"airport","code":"AYT","name":"Antalya Airport","coordinates":{"lat":36.89928,"lon":30.80135},"weight":33838,"searchable":false,"timezone":"Europe/Istanbul","en_city_name":"Antalya","city_name":"Antalya","city_code":"AYT","state_code":null,"country_name":"Turkey","country_code":"TR","cases":null,"city_cases":null,"country_cases":null,"index_strings":["ayt","antalya airport","antalya","tr","turkey"]},{"type":"country","code":"NP","name":"Nepal","weight":33510,"searchable":true,"cases":null,"capital":{"code":"KTM","type":"city"},"index_strings":["np","nepal"]},{"type":"city","code":"YVR","name":"Vancouver","en_name":"Vancouver","coordinates":{"lat":49.261226,"lon":-123.1139268},"weight":33366,"searchable":true,"timezone":"America/Vancouver","state_code":"BC","country_name":"Canada","country_code":"CA","main_airport_name":null,"cases":null,"index_strings":["yvr","vancouver","ca","canada"]},{"type":"airport","code":"YVR","name":"Vancouver International Airport","coordinates":{"lat":49.1947,"lon":-123.17919},"weight":33329,"searchable":true,"timezone":"America/Vancouver","en_city_name":"Vancouver","city_name":"Vancouver","city_code":"YVR","state_code":"BC","country_name":"Canada","country_code":"CA","cases":null,"city_cases":null,"country_cases":null,"index_strings":["yvr","vancouver international airport","vancouver","ca","canada"]},{"type":"city","code":"MSY","name":"New Orleans","en_name":"New Orleans","coordinates":{"lat":29.9647222,"lon":-90.0705556},"weight":32714,"searchable":true,"timezone":"America/Chicago","state_code":"LA","country_name":"United States","country_code":"US","main_airport_name":null,"cases":null,"index_strings":["msy","new orleans","us","united states"]},{"type":"airport","code":"MSY","name":"Louis Armstrong New Orleans International Airport","coordinates":{"lat":29.984564,"lon":-90.25639},"weight":32679,"searchable":true,"timezone":"America/Chicago","en_city_name":"New Orleans","city_name":"New Orleans","city_code":"MSY","state_code":"LA","country_name":"United States","country_code":"US","cases":null,"city_cases":null,"country_cases":null,"index_strings":["msy","louis armstrong new orleans international airport","new orleans","us","united states"]},{"type":"country","code":"IQ","name":"Iraq","weight":32639,"searchable":true,"cases":null,"capital":{"code":"BGW","type":"city"},"index_strings":["iq","iraq"]},{"type":"city","code":"PDX","name":"Portland","en_name":"Portland","coordinates":{"lat":45.588997,"lon":-122.5929},"weight":32498,"searchable":true,"timezone":"America/Los_Angeles","state_code":"OR","country_name":"United States","country_code":"US","main_airport_name":"Portland International Airport","cases":null,"index_strings":["portland international airport","pdx","portland","us","united states"]},{"type":"airport","code":"PDX","name":"Portland International Airport","coordinates":{"lat":45.588997,"lon":-122.5929},"weight":32498,"searchable":false,"timezone":"America/Los_Angeles","en_city_name":"Portland","city_name":"Portland","city_code":"PDX","state_code":"OR","country_name":"United States","country_code":"US","cases":null,"city_cases":null,"country_cases":null,"index_strings":["pdx","portland international airport","portland","us","united states"]},{"type":"city","code":"TBS","name":"Tbilisi","en_name":"Tbilisi","coordinates":{"lat":41.674065,"lon":44.958958},"weight":31612,"searchable":true,"timezone":"Asia/Tbilisi","state_code":null,"country_name":"Georgia","country_code":"GE","main_airport_name":"Tbilisi International Airport","cases":null,"index_strings":["tbilisi international airport","tbs","tbilisi","ge","georgia"]},{"type":"airport","code":"TBS","name":"Tbilisi International Airport","coordinates":{"lat":41.674065,"lon":44.958958},"weight":31608,"searchable":false,"timezone":"Asia/Tbilisi","en_city_name":"Tbilisi","city_name":"Tbilisi","city_code":"TBS","state_code":null,"country_name":"Georgia","country_code":"GE","cases":null,"city_cases":null,"country_cases":null,"index_strings":["tbs","tbilisi international airport","tbilisi","ge","georgia"]},{"type":"country","code":"LK","name":"Sri Lanka","weight":31545,"searchable":true,"cases":null,"capital":{"code":"CMB","type":"city"},"index_strings":["lanka","sri","lk","sri lanka"]},{"type":"city","code":"LHE","name":"Lahore","en_name":"Lahore","coordinates":{"lat":31.520832,"lon":74.40278},"weight":31538,"searchable":true,"timezone":"Asia/Karachi","state_code":null,"country_name":"Pakistan","country_code":"PK","main_airport_name":"Allama Iqbal International Airport","cases":null,"index_strings":["allama iqbal international airport","lhe","lahore","pk","pakistan"]},{"type":"airport","code":"LHE","name":"Allama Iqbal International Airport","coordinates":{"lat":31.520832,"lon":74.40278},"weight":31538,"searchable":false,"timezone":"Asia/Karachi","en_city_name":"Lahore","city_name":"Lahore","city_code":"LHE","state_code":null,"country_name":"Pakistan","country_code":"PK","cases":null,"city_cases":null,"country_cases":null,"index_strings":["lhe","allama iqbal international airport","lahore","pk","pakistan"]},{"type":"city","code":"CCU","name":"Kolkata","en_name":"Kolkata","coordinates":{"lat":22.64531,"lon":88.43931},"weight":31049,"searchable":true,"timezone":"Asia/Kolkata","state_code":null,"country_name":"India","country_code":"IN","main_airport_name":"Netaji Subhas Chandra Bose Airport","cases":null,"index_strings":["netaji subhas chandra bose airport","ccu","kolkata","in","india"]},{"type":"airport","code":"CCU","name":"Netaji Subhas Chandra Bose Airport","coordinates":{"lat":22.64531,"lon":88.43931},"weight":31049,"searchable":false,"timezone":"Asia/Kolkata","en_city_name":"Kolkata","city_name":"Kolkata","city_code":"CCU","state_code":null,"country_name":"India","country_code":"IN","cases":null,"city_cases":null,"country_cases":null,"index_strings":["ccu","netaji subhas chandra bose airport","kolkata","in","india"]},{"type":"city","code":"GDL","name":"Guadalajara","en_name":"Guadalajara","coordinates":{"lat":20.525198,"lon":-103.29921},"weight":30994,"searchable":true,"timezone":"America/Mexico_City","state_code":null,"country_name":"Mexico","country_code":"MX","main_airport_name":"Don Miguel Hidal Y Costilla International Airport","cases":null,"index_strings":["don miguel hidal y costilla international airport","gdl","guadalajara","mx","mexico"]},{"type":"airport","code":"GDL","name":"Don Miguel Hidal Y Costilla International Airport","coordinates":{"lat":20.525198,"lon":-103.29921},"weight":30994,"searchable":false,"timezone":"America/Mexico_City","en_city_name":"Guadalajara","city_name":"Guadalajara","city_code":"GDL","state_code":null,"country_name":"Mexico","country_code":"MX","cases":null,"city_cases":null,"country_cases":null,"index_strings":["gdl","don miguel hidal y costilla international airport","guadalajara","mx","mexico"]},{"type":"country","code":"NO","name":"Norway","weight":30984,"searchable":true,"cases":null,"capital":{"code":"OSL","type":"city"},"index_strings":["no","norway"]},{"type":"city","code":"CCJ","name":"Kozhikode","en_name":"Kozhikode","coordinates":{"lat":11.14025,"lon":75.950584},"weight":30679,"searchable":true,"timezone":"Asia/Kolkata","state_code":null,"country_name":"India","country_code":"IN","main_airport_name":"Calicut International Airport","cases":null,"index_strings":["calicut international airport","ccj","kozhikode","in","india"]},{"type":"airport","code":"CCJ","name":"Calicut International Airport","coordinates":{"lat":11.14025,"lon":75.950584},"weight":30679,"searchable":false,"timezone":"Asia/Kolkata","en_city_name":"Kozhikode","city_name":"Kozhikode","city_code":"CCJ","state_code":null,"country_name":"India","country_code":"IN","cases":null,"city_cases":null,"country_cases":null,"index_strings":["ccj","calicut international airport","kozhikode","in","india"]},{"type":"city","code":"CMB","name":"Colombo","en_name":"Colombo","coordinates":{"lat":6.927468,"lon":79.848358},"weight":30526,"searchable":true,"timezone":"Asia/Colombo","state_code":null,"country_name":"Sri Lanka","country_code":"LK","main_airport_name":"Bandaranaike International Airport","cases":null,"index_strings":["bandaranaike international airport","cmb","colombo","lk","sri lanka"]},{"type":"airport","code":"CMB","name":"Bandaranaike International Airport","coordinates":{"lat":7.174112,"lon":79.8865},"weight":30514,"searchable":false,"timezone":"Asia/Colombo","en_city_name":"Colombo","city_name":"Colombo","city_code":"CMB","state_code":null,"country_name":"Sri Lanka","country_code":"LK","cases":null,"city_cases":null,"country_cases":null,"index_strings":["cmb","bandaranaike international airport","colombo","lk","sri lanka"]},{"type":"country","code":"CU","name":"Cuba","weight":29975,"searchable":true,"cases":null,"capital":{"code":"HAV","type":"city"},"index_strings":["cu","cuba"]},{"type":"city","code":"KTM","name":"Kathmandu","en_name":"Kathmandu","coordinates":{"lat":27.699905,"lon":85.35657},"weight":29733,"searchable":true,"timezone":"Asia/Kathmandu","state_code":null,"country_name":"Nepal","country_code":"NP","main_airport_name":"Tribhuvan International Airport","cases":null,"index_strings":["tribhuvan international airport","ktm","kathmandu","np","nepal"]},{"type":"airport","code":"KTM","name":"Tribhuvan International Airport","coordinates":{"lat":27.699905,"lon":85.35657},"weight":29733,"searchable":false,"timezone":"Asia/Kathmandu","en_city_name":"Kathmandu","city_name":"Kathmandu","city_code":"KTM","state_code":null,"country_name":"Nepal","country_code":"NP","cases":null,"city_cases":null,"country_cases":null,"index_strings":["ktm","tribhuvan international airport","kathmandu","np","nepal"]},{"type":"country","code":"DK","name":"Denmark","weight":29715,"searchable":true,"cases":null,"capital":{"code":"CPH","type":"city"},"index_strings":["dk","denmark"]},{"type":"country","code":"PE","name":"Peru","weight":29539,"searchable":true,"cases":null,"capital":{"code":"LIM","type":"city"},"index_strings":["pe","peru"]},{"type":"country","code":"NG","name":"Nigeria","weight":29538,"searchable":true,"cases":null,"capital":{"code":"ABV","type":"city"},"index_strings":["ng","nigeria"]},{"type":"city","code":"ISB","name":"Islamabad","en_name":"Islamabad","coordinates":{"lat":33.609707,"lon":73.1051},"weight":29530,"searchable":true,"timezone":"Asia/Karachi","state_code":null,"country_name":"Pakistan","country_code":"PK","main_airport_name":"Islamabad International Airport","cases":null,"index_strings":["islamabad international airport","isb","islamabad","pk","pakistan"]},{"type":"airport","code":"ISB","name":"Islamabad International Airport","coordinates":{"lat":33.55429,"lon":72.83417},"weight":29530,"searchable":false,"timezone":"Asia/Karachi","en_city_name":"Islamabad","city_name":"Islamabad","city_code":"ISB","state_code":null,"country_name":"Pakistan","country_code":"PK","cases":null,"city_cases":null,"country_cases":null,"index_strings":["isb","islamabad international airport","islamabad","pk","pakistan"]},{"type":"country","code":"QA","name":"Qatar","weight":29461,"searchable":true,"cases":null,"capital":{"code":"DOH","type":"city"},"index_strings":["qa","qatar"]},{"type":"country","code":"HU","name":"Hungary","weight":29414,"searchable":true,"cases":null,"capital":{"code":"BUD","type":"city"},"index_strings":["hu","hungary"]},{"type":"city","code":"DOH","name":"Doha","en_name":"Doha","coordinates":{"lat":25.267569,"lon":51.558067},"weight":29414,"searchable":true,"timezone":"Asia/Qatar","state_code":null,"country_name":"Qatar","country_code":"QA","main_airport_name":"Hamad International Airport","cases":null,"index_strings":["hamad international airport","doh","doha","qa","qatar"]},{"type":"airport","code":"DOH","name":"Hamad International Airport","coordinates":{"lat":25.267569,"lon":51.558067},"weight":29414,"searchable":false,"timezone":"Asia/Qatar","en_city_name":"Doha","city_name":"Doha","city_code":"DOH","state_code":null,"country_name":"Qatar","country_code":"QA","cases":null,"city_cases":null,"country_cases":null,"index_strings":["doh","hamad international airport","doha","qa","qatar"]},{"type":"country","code":"BD","name":"Bangladesh","weight":29269,"searchable":true,"cases":null,"capital":{"code":"DAC","type":"city"},"index_strings":["bd","bangladesh"]},{"type":"city","code":"SDQ","name":"Santo Domingo","en_name":"Santo Domingo","coordinates":{"lat":18.5,"lon":-69.9833333},"weight":29143,"searchable":true,"timezone":"America/Santo_Domingo","state_code":null,"country_name":"Dominican Republic","country_code":"DO","main_airport_name":null,"cases":null,"index_strings":["las americas international airport","sdq","santo domingo","do","dominican republic"]},{"type":"airport","code":"SDQ","name":"Las Americas International Airport","coordinates":{"lat":18.430124,"lon":-69.67674},"weight":29132,"searchable":true,"timezone":"America/Santo_Domingo","en_city_name":"Santo Domingo","city_name":"Santo Domingo","city_code":"SDQ","state_code":null,"country_name":"Dominican Republic","country_code":"DO","cases":null,"city_cases":null,"country_cases":null,"index_strings":["sdq","las americas international airport","santo domingo","do","dominican republic"]},{"type":"city","code":"CAN","name":"Guangzhou","en_name":"Guangzhou","coordinates":{"lat":23.387861,"lon":113.29734},"weight":29095,"searchable":true,"timezone":"Asia/Shanghai","state_code":null,"country_name":"China","country_code":"CN","main_airport_name":"Guangzhou Baiyun International Airport","cases":null,"index_strings":["guangzhou baiyun international airport","can","guangzhou","cn","china"]},{"type":"airport","code":"CAN","name":"Guangzhou Baiyun International Airport","coordinates":{"lat":23.387861,"lon":113.29734},"weight":29095,"searchable":false,"timezone":"Asia/Shanghai","en_city_name":"Guangzhou","city_name":"Guangzhou","city_code":"CAN","state_code":null,"country_name":"China","country_code":"CN","cases":null,"city_cases":null,"country_cases":null,"index_strings":["can","guangzhou baiyun international airport","guangzhou","cn","china"]},{"type":"city","code":"BUD","name":"Budapest","en_name":"Budapest","coordinates":{"lat":47.4984056,"lon":19.0407578},"weight":28535,"searchable":true,"timezone":"Europe/Budapest","state_code":null,"country_name":"Hungary","country_code":"HU","main_airport_name":"Budapest Ferenc Liszt International Airport","cases":null,"index_strings":["budapest ferenc liszt international airport","bud","budapest","hu","hungary"]},{"type":"airport","code":"BUD","name":"Budapest Ferenc Liszt International Airport","coordinates":{"lat":47.433037,"lon":19.261621},"weight":28533,"searchable":false,"timezone":"Europe/Budapest","en_city_name":"Budapest","city_name":"Budapest","city_code":"BUD","state_code":null,"country_name":"Hungary","country_code":"HU","cases":null,"city_cases":null,"country_cases":null,"index_strings":["bud","budapest ferenc liszt international airport","budapest","hu","hungary"]},{"type":"city","code":"AKL","name":"Auckland","en_name":"Auckland","coordinates":{"lat":-36.8484597,"lon":174.7633315},"weight":27974,"searchable":true,"timezone":"Pacific/Auckland","state_code":null,"country_name":"New Zealand","country_code":"NZ","main_airport_name":"Auckland Airport","cases":null,"index_strings":["auckland airport","akl","auckland","nz","new zealand"]},{"type":"airport","code":"AKL","name":"Auckland Airport","coordinates":{"lat":-37.004787,"lon":174.78352},"weight":27960,"searchable":false,"timezone":"Pacific/Auckland","en_city_name":"Auckland","city_name":"Auckland","city_code":"AKL","state_code":null,"country_name":"New Zealand","country_code":"NZ","cases":null,"city_cases":null,"country_cases":null,"index_strings":["akl","auckland airport","auckland","nz","new zealand"]},{"type":"city","code":"MSP","name":"Minneapolis","en_name":"Minneapolis","coordinates":{"lat":44.9799654,"lon":-93.2638361},"weight":27828,"searchable":true,"timezone":"America/Chicago","state_code":"MN","country_name":"United States","country_code":"US","main_airport_name":null,"cases":null,"index_strings":["msp","minneapolis","us","united states"]},{"type":"airport","code":"MSP","name":"Minneapolis-St. Paul International Airport","coordinates":{"lat":44.883015,"lon":-93.21092},"weight":27818,"searchable":true,"timezone":"America/Chicago","en_city_name":"Minneapolis","city_name":"Minneapolis","city_code":"MSP","state_code":"MN","country_name":"United States","country_code":"US","cases":null,"city_cases":null,"country_cases":null,"index_strings":["msp","minneapolis-st. paul international airport","minneapolis","us","united states"]},{"type":"city","code":"AUH","name":"Abu Dhabi","en_name":"Abu Dhabi","coordinates":{"lat":24.4666667,"lon":54.3666667},"weight":26545,"searchable":true,"timezone":"Asia/Dubai","state_code":null,"country_name":"United Arab Emirates","country_code":"AE","main_airport_name":"Abu Dhabi International Airport","cases":null,"index_strings":["abu dhabi international airport","auh","abu dhabi","ae","united arab emirates"]},{"type":"city","code":"DUS","name":"Dusseldorf","en_name":"Dusseldorf","coordinates":{"lat":51.2249429,"lon":6.7756524},"weight":26535,"searchable":true,"timezone":"Europe/Berlin","state_code":null,"country_name":"Germany","country_code":"DE","main_airport_name":null,"cases":null,"index_strings":["dus","dusseldorf","de","germany"]},{"type":"airport","code":"AUH","name":"Abu Dhabi International Airport","coordinates":{"lat":24.426912,"lon":54.645973},"weight":26519,"searchable":false,"timezone":"Asia/Dubai","en_city_name":"Abu Dhabi","city_name":"Abu Dhabi","city_code":"AUH","state_code":null,"country_name":"United Arab Emirates","country_code":"AE","cases":null,"city_cases":null,"country_cases":null,"index_strings":["auh","abu dhabi international airport","abu dhabi","ae","united arab emirates"]},{"type":"airport","code":"DUS","name":"Dusseldorf International Airport","coordinates":{"lat":51.278328,"lon":6.76558},"weight":26150,"searchable":true,"timezone":"Europe/Berlin","en_city_name":"Dusseldorf","city_name":"Dusseldorf","city_code":"DUS","state_code":null,"country_name":"Germany","country_code":"DE","cases":null,"city_cases":null,"country_cases":null,"index_strings":["dus","dusseldorf international airport","dusseldorf","de","germany"]},{"type":"city","code":"CPH","name":"Copenhagen","en_name":"Copenhagen","coordinates":{"lat":55.693403,"lon":12.583046},"weight":25882,"searchable":true,"timezone":"Europe/Copenhagen","state_code":null,"country_name":"Denmark","country_code":"DK","main_airport_name":"Copenhagen Airport","cases":null,"index_strings":["copenhagen airport","cph","copenhagen","dk","denmark"]},{"type":"city","code":"AGP","name":"Malaga","en_name":"Malaga","coordinates":{"lat":36.7196484,"lon":-4.4200163},"weight":25855,"searchable":true,"timezone":"Europe/Madrid","state_code":null,"country_name":"Spain","country_code":"ES","main_airport_name":"Malaga Airport","cases":null,"index_strings":["malaga airport","agp","malaga","es","spain"]},{"type":"airport","code":"CPH","name":"Copenhagen Airport","coordinates":{"lat":55.62905,"lon":12.647601},"weight":25846,"searchable":false,"timezone":"Europe/Copenhagen","en_city_name":"Copenhagen","city_name":"Copenhagen","city_code":"CPH","state_code":null,"country_name":"Denmark","country_code":"DK","cases":null,"city_cases":null,"country_cases":null,"index_strings":["cph","copenhagen airport","copenhagen","dk","denmark"]},{"type":"airport","code":"AGP","name":"Malaga Airport","coordinates":{"lat":36.675182,"lon":-4.489616},"weight":25846,"searchable":false,"timezone":"Europe/Madrid","en_city_name":"Malaga","city_name":"Malaga","city_code":"AGP","state_code":null,"country_name":"Spain","country_code":"ES","cases":null,"city_cases":null,"country_cases":null,"index_strings":["agp","malaga airport","malaga","es","spain"]},{"type":"city","code":"ZRH","name":"Zurich","en_name":"Zurich","coordinates":{"lat":47.367347,"lon":8.5500025},"weight":25813,"searchable":true,"timezone":"Europe/Zurich","state_code":null,"country_name":"Switzerland","country_code":"CH","main_airport_name":"Zurich Airport","cases":null,"index_strings":["zurich airport","zrh","zurich","ch","switzerland"]},{"type":"airport","code":"ZRH","name":"Zurich Airport","coordinates":{"lat":47.450603,"lon":8.561746},"weight":25809,"searchable":false,"timezone":"Europe/Zurich","en_city_name":"Zurich","city_name":"Zurich","city_code":"ZRH","state_code":null,"country_name":"Switzerland","country_code":"CH","cases":null,"city_cases":null,"country_cases":null,"index_strings":["zrh","zurich airport","zurich","ch","switzerland"]},{"type":"country","code":"JM","name":"Jamaica","weight":25681,"searchable":true,"cases":null,"capital":{"code":"KIN","type":"city"},"index_strings":["jm","jamaica"]},{"type":"city","code":"VCE","name":"Venice","en_name":"Venice","coordinates":{"lat":45.4343363,"lon":12.3387844},"weight":25673,"searchable":true,"timezone":"Europe/Rome","state_code":null,"country_name":"Italy","country_code":"IT","main_airport_name":null,"cases":null,"index_strings":["vce","venice","it","italy"]},{"type":"country","code":"HR","name":"Croatia","weight":25643,"searchable":true,"cases":null,"capital":{"code":"ZAG","type":"city"},"index_strings":["hr","croatia"]},{"type":"airport","code":"VCE","name":"Venice Marco Polo Airport","coordinates":{"lat":45.502285,"lon":12.337947},"weight":25392,"searchable":true,"timezone":"Europe/Rome","en_city_name":"Venice","city_name":"Venice","city_code":"VCE","state_code":null,"country_name":"Italy","country_code":"IT","cases":null,"city_cases":null,"country_cases":null,"index_strings":["vce","venice marco polo airport","venice","it","italy"]},{"type":"country","code":"CY","name":"Cyprus","weight":24962,"searchable":true,"cases":null,"capital":{"code":"ECN","type":"city"},"index_strings":["cy","cyprus"]},{"type":"country","code":"KR","name":"South Korea","weight":24956,"searchable":true,"cases":null,"capital":{"code":"SEL","type":"city"},"index_strings":["korea","south","kr","south korea"]},{"type":"city","code":"FMY","name":"Fort Myers","en_name":"Fort Myers","coordinates":{"lat":26.640628,"lon":-81.8723084},"weight":24891,"searchable":true,"timezone":"America/New_York","state_code":"FL","country_name":"United States","country_code":"US","main_airport_name":null,"cases":null,"index_strings":["southwest florida international airport","fmy","fort myers","us","united states"]},{"type":"city","code":"MAN","name":"Manchester","en_name":"Manchester","coordinates":{"lat":53.4807125,"lon":-2.2343765},"weight":24823,"searchable":true,"timezone":"Europe/London","state_code":null,"country_name":"United Kingdom","country_code":"GB","main_airport_name":"Manchester Airport","cases":null,"index_strings":["manchester airport","man","manchester","gb","united kingdom"]},{"type":"airport","code":"MAN","name":"Manchester Airport","coordinates":{"lat":53.362907,"lon":-2.273354},"weight":24822,"searchable":false,"timezone":"Europe/London","en_city_name":"Manchester","city_name":"Manchester","city_code":"MAN","state_code":null,"country_name":"United Kingdom","country_code":"GB","cases":null,"city_cases":null,"country_cases":null,"index_strings":["man","manchester airport","manchester","gb","united kingdom"]},{"type":"airport","code":"WAW","name":"Frederic Chopin Airport","coordinates":{"lat":52.170906,"lon":20.97329},"weight":24656,"searchable":true,"timezone":"Europe/Warsaw","en_city_name":"Warsaw","city_name":"Warsaw","city_code":"WAW","state_code":null,"country_name":"Poland","country_code":"PL","cases":null,"city_cases":null,"country_cases":null,"index_strings":["waw","frederic chopin airport","warsaw","pl","poland"]},{"type":"city","code":"WAW","name":"Warsaw","en_name":"Warsaw","coordinates":{"lat":52.170906,"lon":20.97329},"weight":24655,"searchable":true,"timezone":"Europe/Warsaw","state_code":null,"country_name":"Poland","country_code":"PL","main_airport_name":null,"cases":null,"index_strings":["waw","warsaw","pl","poland"]},{"type":"city","code":"TRV","name":"Thiruvananthapuram","en_name":"Thiruvananthapuram","coordinates":{"lat":8.476126,"lon":76.91907},"weight":24524,"searchable":true,"timezone":"Asia/Kolkata","state_code":null,"country_name":"India","country_code":"IN","main_airport_name":"Trivandrum International Airport","cases":null,"index_strings":["trivandrum international airport","trv","thiruvananthapuram","in","india"]},{"type":"airport","code":"TRV","name":"Trivandrum International Airport","coordinates":{"lat":8.476126,"lon":76.91907},"weight":24524,"searchable":false,"timezone":"Asia/Kolkata","en_city_name":"Thiruvananthapuram","city_name":"Thiruvananthapuram","city_code":"TRV","state_code":null,"country_name":"India","country_code":"IN","cases":null,"city_cases":null,"country_cases":null,"index_strings":["trv","trivandrum international airport","thiruvananthapuram","in","india"]},{"type":"city","code":"THR","name":"Tehran","en_name":"Tehran","coordinates":{"lat":35.6961111,"lon":51.4230556},"weight":24362,"searchable":true,"timezone":"Asia/Tehran","state_code":null,"country_name":"Iran","country_code":"IR","main_airport_name":null,"cases":null,"index_strings":["thr","tehran","ir","iran"]},{"type":"city","code":"AMD","name":"Ahmedabad","en_name":"Ahmedabad","coordinates":{"lat":23.06639,"lon":72.62417},"weight":24215,"searchable":true,"timezone":"Asia/Kolkata","state_code":null,"country_name":"India","country_code":"IN","main_airport_name":"Ahmedabad Airport","cases":null,"index_strings":["ahmedabad airport","amd","ahmedabad","in","india"]},{"type":"airport","code":"AMD","name":"Ahmedabad Airport","coordinates":{"lat":23.06639,"lon":72.62417},"weight":24215,"searchable":false,"timezone":"Asia/Kolkata","en_city_name":"Ahmedabad","city_name":"Ahmedabad","city_code":"AMD","state_code":null,"country_name":"India","country_code":"IN","cases":null,"city_cases":null,"country_cases":null,"index_strings":["amd","ahmedabad airport","ahmedabad","in","india"]},{"type":"country","code":"EC","name":"Ecuador","weight":24059,"searchable":true,"cases":null,"capital":{"code":"UIO","type":"city"},"index_strings":["ec","ecuador"]},{"type":"country","code":"CR","name":"Costa Rica","weight":24038,"searchable":true,"cases":null,"capital":{"code":"SJO","type":"city"},"index_strings":["costa","rica","cr","costa rica"]},{"type":"city","code":"GOI","name":"Goa","en_name":"Goa","coordinates":{"lat":15.384534,"lon":73.83983},"weight":23767,"searchable":true,"timezone":"Asia/Kolkata","state_code":null,"country_name":"India","country_code":"IN","main_airport_name":"Dabolim Airport","cases":null,"index_strings":["dabolim airport","goi","goa","in","india"]},{"type":"airport","code":"GOI","name":"Dabolim Airport","coordinates":{"lat":15.384534,"lon":73.83983},"weight":23763,"searchable":false,"timezone":"Asia/Kolkata","en_city_name":"Goa","city_name":"Goa","city_code":"GOI","state_code":null,"country_name":"India","country_code":"IN","cases":null,"city_cases":null,"country_cases":null,"index_strings":["goi","dabolim airport","goa","in","india"]},{"type":"airport","code":"BWI","name":"Baltimore/Wash International Thurgood Marshall Airport","coordinates":{"lat":39.179527,"lon":-76.66894},"weight":23362,"searchable":false,"timezone":"America/New_York","en_city_name":"Baltimore","city_name":"Baltimore","city_code":"BWI","state_code":"MD","country_name":"United States","country_code":"US","cases":null,"city_cases":null,"country_cases":null,"index_strings":["bwi","baltimore/wash international thurgood marshall airport","baltimore","us","united states"]},{"type":"city","code":"KHI","name":"Karachi","en_name":"Karachi","coordinates":{"lat":24.899986,"lon":67.16828},"weight":23300,"searchable":true,"timezone":"Asia/Karachi","state_code":null,"country_name":"Pakistan","country_code":"PK","main_airport_name":"Jinnah International Airport","cases":null,"index_strings":["jinnah international airport","khi","karachi","pk","pakistan"]},{"type":"airport","code":"KHI","name":"Jinnah International Airport","coordinates":{"lat":24.899986,"lon":67.16828},"weight":23300,"searchable":false,"timezone":"Asia/Karachi","en_city_name":"Karachi","city_name":"Karachi","city_code":"KHI","state_code":null,"country_name":"Pakistan","country_code":"PK","cases":null,"city_cases":null,"country_cases":null,"index_strings":["khi","jinnah international airport","karachi","pk","pakistan"]},{"type":"city","code":"PMI","name":"Palma Mallorca","en_name":"Palma Mallorca","coordinates":{"lat":39.547653,"lon":2.730388},"weight":23253,"searchable":true,"timezone":"Europe/Madrid","state_code":null,"country_name":"Spain","country_code":"ES","main_airport_name":"Palma de Mallorca Airport","cases":null,"index_strings":["palma de mallorca airport","pmi","palma mallorca","es","spain"]},{"type":"airport","code":"PMI","name":"Palma de Mallorca Airport","coordinates":{"lat":39.547653,"lon":2.730388},"weight":23252,"searchable":false,"timezone":"Europe/Madrid","en_city_name":"Palma Mallorca","city_name":"Palma Mallorca","city_code":"PMI","state_code":null,"country_name":"Spain","country_code":"ES","cases":null,"city_cases":null,"country_cases":null,"index_strings":["pmi","palma de mallorca airport","palma mallorca","es","spain"]},{"type":"city","code":"LIM","name":"Lima","en_name":"Lima","coordinates":{"lat":-12.019421,"lon":-77.107666},"weight":23210,"searchable":true,"timezone":"America/Lima","state_code":null,"country_name":"Peru","country_code":"PE","main_airport_name":"Jorge Chavez International Airport","cases":null,"index_strings":["jorge chavez international airport","lim","lima","pe","peru"]},{"type":"airport","code":"LIM","name":"Jorge Chavez International Airport","coordinates":{"lat":-12.019421,"lon":-77.107666},"weight":23209,"searchable":false,"timezone":"America/Lima","en_city_name":"Lima","city_name":"Lima","city_code":"LIM","state_code":null,"country_name":"Peru","country_code":"PE","cases":null,"city_cases":null,"country_cases":null,"index_strings":["lim","jorge chavez international airport","lima","pe","peru"]},{"type":"city","code":"BWI","name":"Baltimore","en_name":"Baltimore","coordinates":{"lat":39.286389,"lon":-76.615},"weight":23112,"searchable":true,"timezone":"America/New_York","state_code":"MD","country_name":"United States","country_code":"US","main_airport_name":"Baltimore/Wash International Thurgood Marshall Airport","cases":null,"index_strings":["baltimore/wash international thurgood marshall airport","bwi","baltimore","us","united states"]},{"type":"city","code":"LED","name":"Saint Petersburg","en_name":"Saint Petersburg","coordinates":{"lat":59.939039,"lon":30.315785},"weight":23041,"searchable":true,"timezone":"Europe/Moscow","state_code":null,"country_name":"Russia","country_code":"RU","main_airport_name":"Pulkovo Airport","cases":null,"index_strings":["pulkovo airport","sankt petersburg","st petersburg","leningrad","ленинград","питер","спб","led","saint petersburg","ru","russia"]},{"type":"airport","code":"LED","name":"Pulkovo Airport","coordinates":{"lat":59.806084,"lon":30.3083},"weight":23027,"searchable":false,"timezone":"Europe/Moscow","en_city_name":"Saint Petersburg","city_name":"Saint Petersburg","city_code":"LED","state_code":null,"country_name":"Russia","country_code":"RU","cases":null,"city_cases":null,"country_cases":null,"index_strings":["led","pulkovo airport","saint petersburg","ru","russia"]},{"type":"country","code":"OM","name":"Oman","weight":23008,"searchable":true,"cases":null,"capital":{"code":"MCT","type":"city"},"index_strings":["om","oman"]},{"type":"city","code":"CLT","name":"Charlotte","en_name":"Charlotte","coordinates":{"lat":35.2270869,"lon":-80.8431267},"weight":22859,"searchable":true,"timezone":"America/New_York","state_code":"NC","country_name":"United States","country_code":"US","main_airport_name":"Charlotte Douglas International Airport","cases":null,"index_strings":["charlotte douglas international airport","clt","charlotte","us","united states"]},{"type":"airport","code":"CLT","name":"Charlotte Douglas International Airport","coordinates":{"lat":35.219166,"lon":-80.93584},"weight":22857,"searchable":false,"timezone":"America/New_York","en_city_name":"Charlotte","city_name":"Charlotte","city_code":"CLT","state_code":"NC","country_name":"United States","country_code":"US","cases":null,"city_cases":null,"country_cases":null,"index_strings":["clt","charlotte douglas international airport","charlotte","us","united states"]},{"type":"airport","code":"THR","name":"Mehrabad International Airport","coordinates":{"lat":35.691532,"lon":51.32187},"weight":22609,"searchable":true,"timezone":"Asia/Tehran","en_city_name":"Tehran","city_name":"Tehran","city_code":"THR","state_code":null,"country_name":"Iran","country_code":"IR","cases":null,"city_cases":null,"country_cases":null,"index_strings":["thr","mehrabad international airport","tehran","ir","iran"]},{"type":"city","code":"DAC","name":"Dhaka","en_name":"Dhaka","coordinates":{"lat":23.848648,"lon":90.405876},"weight":22155,"searchable":true,"timezone":"Asia/Dhaka","state_code":null,"country_name":"Bangladesh","country_code":"BD","main_airport_name":"Hazrat Shahjalal International Airport","cases":null,"index_strings":["hazrat shahjalal international airport","dac","dhaka","bd","bangladesh"]},{"type":"airport","code":"DAC","name":"Hazrat Shahjalal International Airport","coordinates":{"lat":23.848648,"lon":90.405876},"weight":22155,"searchable":false,"timezone":"Asia/Dhaka","en_city_name":"Dhaka","city_name":"Dhaka","city_code":"DAC","state_code":null,"country_name":"Bangladesh","country_code":"BD","cases":null,"city_cases":null,"country_cases":null,"index_strings":["dac","hazrat shahjalal international airport","dhaka","bd","bangladesh"]},{"type":"city","code":"DMM","name":"Dammam","en_name":"Dammam","coordinates":{"lat":26.471111,"lon":49.79778},"weight":22071,"searchable":true,"timezone":"Asia/Riyadh","state_code":null,"country_name":"Saudi Arabia","country_code":"SA","main_airport_name":"King Fahd International Airport","cases":null,"index_strings":["king fahd international airport","dmm","dammam","sa","saudi arabia"]},{"type":"airport","code":"DMM","name":"King Fahd International Airport","coordinates":{"lat":26.471111,"lon":49.79778},"weight":22051,"searchable":false,"timezone":"Asia/Riyadh","en_city_name":"Dammam","city_name":"Dammam","city_code":"DMM","state_code":null,"country_name":"Saudi Arabia","country_code":"SA","cases":null,"city_cases":null,"country_cases":null,"index_strings":["dmm","king fahd international airport","dammam","sa","saudi arabia"]},{"type":"city","code":"AUS","name":"Austin","en_name":"Austin","coordinates":{"lat":30.267153,"lon":-97.7430608},"weight":21741,"searchable":true,"timezone":"America/Chicago","state_code":"TX","country_name":"United States","country_code":"US","main_airport_name":"Austin-Bergstrom International Airport","cases":null,"index_strings":["austin-bergstrom international airport","aus","austin","us","united states"]},{"type":"airport","code":"AUS","name":"Austin-Bergstrom International Airport","coordinates":{"lat":30.202545,"lon":-97.66706},"weight":21740,"searchable":false,"timezone":"America/Chicago","en_city_name":"Austin","city_name":"Austin","city_code":"AUS","state_code":"TX","country_name":"United States","country_code":"US","cases":null,"city_cases":null,"country_cases":null,"index_strings":["aus","austin-bergstrom international airport","austin","us","united states"]},{"type":"country","code":"BG","name":"Bulgaria","weight":21714,"searchable":true,"cases":null,"capital":{"code":"SOF","type":"city"},"index_strings":["bg","bulgaria"]},{"type":"city","code":"HAV","name":"Havana","en_name":"Havana","coordinates":{"lat":22.99845,"lon":-82.40818},"weight":21669,"searchable":true,"timezone":"America/Havana","state_code":null,"country_name":"Cuba","country_code":"CU","main_airport_name":"Jose Marti International Airport","cases":null,"index_strings":["jose marti international airport","hav","havana","cu","cuba"]},{"type":"airport","code":"HAV","name":"Jose Marti International Airport","coordinates":{"lat":22.99845,"lon":-82.40818},"weight":21669,"searchable":false,"timezone":"America/Havana","en_city_name":"Havana","city_name":"Havana","city_code":"HAV","state_code":null,"country_name":"Cuba","country_code":"CU","cases":null,"city_cases":null,"country_cases":null,"index_strings":["hav","jose marti international airport","havana","cu","cuba"]},{"type":"city","code":"BNE","name":"Brisbane","en_name":"Brisbane","coordinates":{"lat":-27.4709331,"lon":153.0235024},"weight":21292,"searchable":true,"timezone":"Australia/Brisbane","state_code":"QL","country_name":"Australia","country_code":"AU","main_airport_name":"Brisbane Airport","cases":null,"index_strings":["brisbane airport","bne","brisbane","au","australia"]},{"type":"airport","code":"BNE","name":"Brisbane Airport","coordinates":{"lat":-27.40303,"lon":153.10905},"weight":21291,"searchable":false,"timezone":"Australia/Brisbane","en_city_name":"Brisbane","city_name":"Brisbane","city_code":"BNE","state_code":"QL","country_name":"Australia","country_code":"AU","cases":null,"city_cases":null,"country_cases":null,"index_strings":["bne","brisbane airport","brisbane","au","australia"]},{"type":"country","code":"MV","name":"Maldives","weight":21276,"searchable":true,"cases":null,"capital":{"code":"MLE","type":"city"},"index_strings":["mv","maldives"]},{"type":"country","code":"BY","name":"Belarus","weight":20916,"searchable":true,"cases":null,"capital":{"code":"MSQ","type":"city"},"index_strings":["by","belarus"]},{"type":"country","code":"TN","name":"Tunisia","weight":20809,"searchable":true,"cases":null,"capital":{"code":"TUN","type":"city"},"index_strings":["tn","tunisia"]},{"type":"city","code":"SLC","name":"Salt Lake City","en_name":"Salt Lake City","coordinates":{"lat":40.785645,"lon":-111.980675},"weight":20702,"searchable":true,"timezone":"America/Denver","state_code":"UT","country_name":"United States","country_code":"US","main_airport_name":"Salt Lake City International Airport","cases":null,"index_strings":["salt lake city international airport","slc","salt lake city","us","united states"]},{"type":"airport","code":"SLC","name":"Salt Lake City International Airport","coordinates":{"lat":40.785645,"lon":-111.980675},"weight":20702,"searchable":false,"timezone":"America/Denver","en_city_name":"Salt Lake City","city_name":"Salt Lake City","city_code":"SLC","state_code":"UT","country_name":"United States","country_code":"US","cases":null,"city_cases":null,"country_cases":null,"index_strings":["slc","salt lake city international airport","salt lake city","us","united states"]},{"type":"country","code":"RS","name":"Serbia","weight":20664,"searchable":true,"cases":null,"capital":{"code":"BEG","type":"city"},"index_strings":["rs","serbia"]},{"type":"city","code":"HDY","name":"Hat Yai","en_name":"Hat Yai","coordinates":{"lat":6.936764,"lon":100.39356},"weight":20664,"searchable":true,"timezone":"Asia/Bangkok","state_code":null,"country_name":"Thailand","country_code":"TH","main_airport_name":"Hat Yai International Airport","cases":null,"index_strings":["hat yai international airport","hdy","hat yai","th","thailand"]},{"type":"airport","code":"HDY","name":"Hat Yai International Airport","coordinates":{"lat":6.936764,"lon":100.39356},"weight":20664,"searchable":false,"timezone":"Asia/Bangkok","en_city_name":"Hat Yai","city_name":"Hat Yai","city_code":"HDY","state_code":null,"country_name":"Thailand","country_code":"TH","cases":null,"city_cases":null,"country_cases":null,"index_strings":["hdy","hat yai international airport","hat yai","th","thailand"]},{"type":"city","code":"BNA","name":"Nashville","en_name":"Nashville","coordinates":{"lat":36.13174,"lon":-86.668945},"weight":20396,"searchable":true,"timezone":"America/Chicago","state_code":"TN","country_name":"United States","country_code":"US","main_airport_name":"Nashville International Airport","cases":null,"index_strings":["nashville international airport","bna","nashville","us","united states"]},{"type":"airport","code":"BNA","name":"Nashville International Airport","coordinates":{"lat":36.13174,"lon":-86.668945},"weight":20396,"searchable":false,"timezone":"America/Chicago","en_city_name":"Nashville","city_name":"Nashville","city_code":"BNA","state_code":"TN","country_name":"United States","country_code":"US","cases":null,"city_cases":null,"country_cases":null,"index_strings":["bna","nashville international airport","nashville","us","united states"]},{"type":"city","code":"MSQ","name":"Minsk","en_name":"Minsk","coordinates":{"lat":53.9,"lon":27.5666667},"weight":20263,"searchable":true,"timezone":"Europe/Minsk","state_code":null,"country_name":"Belarus","country_code":"BY","main_airport_name":"Minsk National Airport","cases":null,"index_strings":["minsk national airport","msq","minsk","by","belarus"]},{"type":"country","code":"GH","name":"Ghana","weight":19986,"searchable":true,"cases":null,"capital":{"code":"ACC","type":"city"},"index_strings":["gh","ghana"]},{"type":"country","code":"KH","name":"Cambodia","weight":19920,"searchable":true,"cases":null,"capital":{"code":"PNH","type":"city"},"index_strings":["kh","cambodia"]},{"type":"country","code":"KE","name":"Kenya","weight":19915,"searchable":true,"cases":null,"capital":{"code":"NBO","type":"city"},"index_strings":["ke","kenya"]},{"type":"airport","code":"MSQ","name":"Minsk National Airport","coordinates":{"lat":53.889725,"lon":28.032442},"weight":19816,"searchable":false,"timezone":"Europe/Minsk","en_city_name":"Minsk","city_name":"Minsk","city_code":"MSQ","state_code":null,"country_name":"Belarus","country_code":"BY","cases":null,"city_cases":null,"country_cases":null,"index_strings":["msq","minsk national airport","minsk","by","belarus"]},{"type":"city","code":"OSL","name":"Oslo","en_name":"Oslo","coordinates":{"lat":59.9138688,"lon":10.7522454},