[{"type":"country","code":"VN","name":"Việt Nam","weight":363360,"searchable":true,"cases":null,"capital":{"code":"HAN","type":"city"},"index_strings":["nam","việt","vn","việt nam","vietnam"]},{"type":"city","code":"SGN","name":"Hồ Chí Minh","en_name":"Ho Chi Minh City","coordinates":{"lat":10.813045,"lon":106.662476},"weight":218292,"searchable":true,"timezone":"Asia/Ho_Chi_Minh","state_code":null,"country_name":"Việt Nam","country_code":"VN","main_airport_name":"Ho Chi Minh City Tan Son Nhat International","cases":null,"index_strings":["ho chi minh city tan son nhat international","sgn","hồ chí minh","ho chi minh city","vn","việt nam","vietnam"]},{"type":"airport","code":"SGN","name":"Ho Chi Minh City Tan Son Nhat International","coordinates":{"lat":10.813045,"lon":106.662476},"weight":218280,"searchable":false,"timezone":"Asia/Ho_Chi_Minh","en_city_name":"Ho Chi Minh City","city_name":"Hồ Chí Minh","city_code":"SGN","state_code":null,"country_name":"Việt Nam","country_code":"VN","cases":null,"city_cases":null,"country_cases":null,"index_strings":["sgn","ho chi minh city tan son nhat international","tan son nhat international airport","hồ chí minh","ho chi minh city","vn","việt nam","vietnam"]},{"type":"country","code":"US","name":"Hoa Kỳ","weight":167540,"searchable":true,"cases":null,"capital":{"code":"WAS","type":"city"},"index_strings":["hoa","kỳ","us","hoa kỳ","united states"]},{"type":"city","code":"HAN","name":"Hà Nội","en_name":"Hanoi","coordinates":{"lat":21.214184,"lon":105.802826},"weight":87632,"searchable":true,"timezone":"Asia/Ho_Chi_Minh","state_code":null,"country_name":"Việt Nam","country_code":"VN","main_airport_name":"Cảng hàng không quốc tế Nội Bài","cases":null,"index_strings":["cảng hàng không quốc tế nội bài","han","hà nội","hanoi","vn","việt nam","vietnam"]},{"type":"airport","code":"HAN","name":"Cảng hàng không quốc tế Nội Bài","coordinates":{"lat":21.214184,"lon":105.802826},"weight":87632,"searchable":false,"timezone":"Asia/Ho_Chi_Minh","en_city_name":"Hanoi","city_name":"Hà Nội","city_code":"HAN","state_code":null,"country_name":"Việt Nam","country_code":"VN","cases":null,"city_cases":null,"country_cases":null,"index_strings":["han","cảng hàng không quốc tế nội bài","noi bai international airport","hà nội","hanoi","vn","việt nam","vietnam"]},{"type":"country","code":"IN","name":"Ấn Độ","weight":45293,"searchable":true,"cases":null,"capital":{"code":"DEL","type":"city"},"index_strings":["độ","ấn","in","ấn độ","india"]},{"type":"country","code":"TH","name":"Thái Lan","weight":33772,"searchable":true,"cases":null,"capital":{"code":"BKK","type":"city"},"index_strings":["lan","thái","th","thái lan","thailand"]},{"type":"city","code":"DAD","name":"Đà Nẵng","en_name":"Da Nang","coordinates":{"lat":16.055399,"lon":108.20298},"weight":26714,"searchable":true,"timezone":"Asia/Ho_Chi_Minh","state_code":null,"country_name":"Việt Nam","country_code":"VN","main_airport_name":"Sân bay Quốc tế Đà Nẵng","cases":null,"index_strings":["sân bay quốc tế đà nẵng","dad","đà nẵng","da nang","vn","việt nam","vietnam"]},{"type":"airport","code":"DAD","name":"Sân bay Quốc tế Đà Nẵng","coordinates":{"lat":16.055399,"lon":108.20298},"weight":26714,"searchable":false,"timezone":"Asia/Ho_Chi_Minh","en_city_name":"Da Nang","city_name":"Đà Nẵng","city_code":"DAD","state_code":null,"country_name":"Việt Nam","country_code":"VN","cases":null,"city_cases":null,"country_cases":null,"index_strings":["dad","sân bay quốc tế đà nẵng","da nang international airport","đà nẵng","da nang","vn","việt nam","vietnam"]},{"type":"country","code":"TR","name":"Thổ Nhĩ Kỳ","weight":22384,"searchable":true,"cases":null,"capital":{"code":"ANK","type":"city"},"index_strings":["kỳ","nhĩ","thổ","tr","thổ nhĩ kỳ","turkey"]},{"type":"country","code":"ES","name":"Tây Ban Nha","weight":20365,"searchable":true,"cases":null,"capital":{"code":"MAD","type":"city"},"index_strings":["ban","nha","tây","es","tây ban nha","spain"]},{"type":"city","code":"BKK","name":"Bangkok","en_name":"Bangkok","coordinates":{"lat":13.7234186,"lon":100.4762319},"weight":18673,"searchable":true,"timezone":"Asia/Bangkok","state_code":null,"country_name":"Thái Lan","country_code":"TH","main_airport_name":null,"cases":null,"index_strings":["bkk","bangkok","th","thái lan","thailand"]},{"type":"airport","code":"BKK","name":"Bangkok Suvarnabhumi International","coordinates":{"lat":13.693062,"lon":100.752045},"weight":18231,"searchable":true,"timezone":"Asia/Bangkok","en_city_name":"Bangkok","city_name":"Bangkok","city_code":"BKK","state_code":null,"country_name":"Thái Lan","country_code":"TH","cases":null,"city_cases":null,"country_cases":null,"index_strings":["bkk","bangkok suvarnabhumi international","suvarnabhumi airport","bangkok","th","thái lan","thailand"]},{"type":"country","code":"DE","name":"Đức","weight":16245,"searchable":true,"cases":null,"capital":{"code":"BER","type":"city"},"index_strings":["de","đức","germany"]},{"type":"country","code":"MX","name":"Mexico","weight":14831,"searchable":true,"cases":null,"capital":{"code":"MEX","type":"city"},"index_strings":["mx","mexico"]},{"type":"city","code":"IST","name":"Istanbul","en_name":"Istanbul","coordinates":{"lat":40.976665,"lon":28.815277},"weight":14693,"searchable":true,"timezone":"Europe/Istanbul","state_code":null,"country_name":"Thổ Nhĩ Kỳ","country_code":"TR","main_airport_name":null,"cases":null,"index_strings":["ist","istanbul","tr","thổ nhĩ kỳ","turkey"]},{"type":"country","code":"AE","name":"Các Tiểu V.quốc Ả Rập T.nhất","weight":14524,"searchable":true,"cases":null,"capital":{"code":"AUH","type":"city"},"index_strings":["các","rập","t.nhất","tiểu","v.quốc","ả","ae","các tiểu v.quốc ả rập t.nhất","united arab emirates"]},{"type":"city","code":"LAX","name":"Los Angeles","en_name":"Los Angeles","coordinates":{"lat":34.0522342,"lon":-118.2436849},"weight":14177,"searchable":true,"timezone":"America/Los_Angeles","state_code":"CA","country_name":"Hoa Kỳ","country_code":"US","main_airport_name":null,"cases":null,"index_strings":["lax","los angeles","us","hoa kỳ","united states"]},{"type":"airport","code":"LAX","name":"Los Angeles International","coordinates":{"lat":33.943398,"lon":-118.40828},"weight":14176,"searchable":true,"timezone":"America/Los_Angeles","en_city_name":"Los Angeles","city_name":"Los Angeles","city_code":"LAX","state_code":"CA","country_name":"Hoa Kỳ","country_code":"US","cases":null,"city_cases":null,"country_cases":null,"index_strings":["lax","los angeles international","los angeles international airport","los angeles","us","hoa kỳ","united states"]},{"type":"country","code":"AU","name":"Úc","weight":11683,"searchable":true,"cases":null,"capital":{"code":"CBR","type":"city"},"index_strings":["au","úc","australia"]},{"type":"city","code":"DXB","name":"Dubai","en_name":"Dubai","coordinates":{"lat":25.2644444,"lon":55.3116667},"weight":11637,"searchable":true,"timezone":"Asia/Dubai","state_code":null,"country_name":"Các Tiểu V.quốc Ả Rập T.nhất","country_code":"AE","main_airport_name":null,"cases":null,"index_strings":["dxb","dubai","ae","các tiểu v.quốc ả rập t.nhất","united arab emirates"]},{"type":"airport","code":"DXB","name":"Dubai International","coordinates":{"lat":25.248665,"lon":55.352917},"weight":11538,"searchable":true,"timezone":"Asia/Dubai","en_city_name":"Dubai","city_name":"Dubai","city_code":"DXB","state_code":null,"country_name":"Các Tiểu V.quốc Ả Rập T.nhất","country_code":"AE","cases":null,"city_cases":null,"country_cases":null,"index_strings":["dxb","dubai international","dubai airport","dubai","ae","các tiểu v.quốc ả rập t.nhất","united arab emirates"]},{"type":"city","code":"NHA","name":"tp. Nha Trang","en_name":"Nha Trang","coordinates":{"lat":12.2387911,"lon":109.1967488},"weight":11239,"searchable":true,"timezone":"Asia/Ho_Chi_Minh","state_code":null,"country_name":"Việt Nam","country_code":"VN","main_airport_name":null,"cases":null,"index_strings":["sân bay quốc tế cam ranh","nha","tp. nha trang","nha trang","vn","việt nam","vietnam"]},{"type":"country","code":"CN","name":"Trung Quốc","weight":10889,"searchable":true,"cases":null,"capital":{"code":"BJS","type":"city"},"index_strings":["quốc","trung","cn","trung quốc","china"]},{"type":"city","code":"LAS","name":"Las Vegas","en_name":"Las Vegas","coordinates":{"lat":36.114646,"lon":-115.172816},"weight":10610,"searchable":true,"timezone":"America/Los_Angeles","state_code":"NV","country_name":"Hoa Kỳ","country_code":"US","main_airport_name":null,"cases":null,"index_strings":["las","las vegas","us","hoa kỳ","united states"]},{"type":"airport","code":"LAS","name":"Las Vegas McCarran International","coordinates":{"lat":36.086945,"lon":-115.1486},"weight":10608,"searchable":true,"timezone":"America/Los_Angeles","en_city_name":"Las Vegas","city_name":"Las Vegas","city_code":"LAS","state_code":"NV","country_name":"Hoa Kỳ","country_code":"US","cases":null,"city_cases":null,"country_cases":null,"index_strings":["las","las vegas mccarran international","mccarran international airport","las vegas","us","hoa kỳ","united states"]},{"type":"country","code":"SA","name":"Ả Rập Xê-út","weight":10392,"searchable":true,"cases":null,"capital":{"code":"RUH","type":"city"},"index_strings":["rập","xê-út","ả","sa","ả rập xê-út","saudi arabia"]},{"type":"country","code":"PH","name":"Philippin","weight":9985,"searchable":true,"cases":null,"capital":{"code":"MNL","type":"city"},"index_strings":["ph","philippin","philippines"]},{"type":"country","code":"IT","name":"Ý","weight":9666,"searchable":true,"cases":null,"capital":{"code":"ROM","type":"city"},"index_strings":["it","ý","italy"]},{"type":"city","code":"MIA","name":"Miami","en_name":"Miami","coordinates":{"lat":25.7889689,"lon":-80.2264393},"weight":9239,"searchable":true,"timezone":"America/New_York","state_code":"FL","country_name":"Hoa Kỳ","country_code":"US","main_airport_name":null,"cases":null,"index_strings":["mia","miami","us","hoa kỳ","united states"]},{"type":"airport","code":"MIA","name":"Sân bay quốc tế Miami","coordinates":{"lat":25.796,"lon":-80.27824},"weight":9238,"searchable":true,"timezone":"America/New_York","en_city_name":"Miami","city_name":"Miami","city_code":"MIA","state_code":"FL","country_name":"Hoa Kỳ","country_code":"US","cases":null,"city_cases":null,"country_cases":null,"index_strings":["mia","sân bay quốc tế miami","miami international airport","miami","us","hoa kỳ","united states"]},{"type":"city","code":"ORL","name":"Orlando","en_name":"Orlando","coordinates":{"lat":28.533611,"lon":-81.386667},"weight":8928,"searchable":true,"timezone":"America/New_York","state_code":"FL","country_name":"Hoa Kỳ","country_code":"US","main_airport_name":null,"cases":null,"index_strings":["orl","orlando","us","hoa kỳ","united states"]},{"type":"country","code":"EG","name":"Ai Cập","weight":8676,"searchable":true,"cases":null,"capital":{"code":"CAI","type":"city"},"index_strings":["ai","cập","eg","ai cập","egypt"]},{"type":"country","code":"RU","name":"Nga","weight":8270,"searchable":true,"cases":null,"capital":{"code":"MOW","type":"city"},"index_strings":["ru","nga","russia"]},{"type":"city","code":"DEL","name":"New Delhi","en_name":"Delhi","coordinates":{"lat":28.556555,"lon":77.10079},"weight":7788,"searchable":true,"timezone":"Asia/Kolkata","state_code":null,"country_name":"Ấn Độ","country_code":"IN","main_airport_name":"Sân bay quốc tế Indira Gandhi","cases":null,"index_strings":["sân bay quốc tế indira gandhi","del","new delhi","delhi","in","ấn độ","india"]},{"type":"airport","code":"DEL","name":"Sân bay quốc tế Indira Gandhi","coordinates":{"lat":28.556555,"lon":77.10079},"weight":7787,"searchable":false,"timezone":"Asia/Kolkata","en_city_name":"Delhi","city_name":"New Delhi","city_code":"DEL","state_code":null,"country_name":"Ấn Độ","country_code":"IN","cases":null,"city_cases":null,"country_cases":null,"index_strings":["del","sân bay quốc tế indira gandhi","indira gandhi international airport","new delhi","delhi","in","ấn độ","india"]},{"type":"country","code":"PK","name":"Pakistan","weight":7640,"searchable":true,"cases":null,"capital":{"code":"ISB","type":"city"},"index_strings":["pk","pakistan"]},{"type":"city","code":"CHI","name":"Chicago","en_name":"Chicago","coordinates":{"lat":41.8781136,"lon":-87.6297982},"weight":7357,"searchable":true,"timezone":"America/Chicago","state_code":"IL","country_name":"Hoa Kỳ","country_code":"US","main_airport_name":null,"cases":null,"index_strings":["chi","chicago","us","hoa kỳ","united states"]},{"type":"country","code":"BR","name":"Brazil","weight":7289,"searchable":true,"cases":null,"capital":{"code":"BSB","type":"city"},"index_strings":["br","brazil"]},{"type":"country","code":"GR","name":"Hy Lạp","weight":7205,"searchable":true,"cases":null,"capital":{"code":"ATH","type":"city"},"index_strings":["hy","lạp","gr","hy lạp","greece"]},{"type":"country","code":"MY","name":"Malaysia","weight":6994,"searchable":true,"cases":null,"capital":{"code":"KUL","type":"city"},"index_strings":["my","malaysia"]},{"type":"city","code":"MNL","name":"Manila","en_name":"Manila","coordinates":{"lat":14.5995124,"lon":120.9842195},"weight":6603,"searchable":true,"timezone":"Asia/Manila","state_code":null,"country_name":"Philippin","country_code":"PH","main_airport_name":"Sân bay quốc tế Ninoy Aquino","cases":null,"index_strings":["sân bay quốc tế ninoy aquino","mnl","manila","ph","philippin","philippines"]},{"type":"airport","code":"MNL","name":"Sân bay quốc tế Ninoy Aquino","coordinates":{"lat":14.509602,"lon":121.01251},"weight":6603,"searchable":false,"timezone":"Asia/Manila","en_city_name":"Manila","city_name":"Manila","city_code":"MNL","state_code":null,"country_name":"Philippin","country_code":"PH","cases":null,"city_cases":null,"country_cases":null,"index_strings":["mnl","sân bay quốc tế ninoy aquino","ninoy aquino international airport","manila","ph","philippin","philippines"]},{"type":"city","code":"SFO","name":"San Francisco","en_name":"San Francisco","coordinates":{"lat":37.7749295,"lon":-122.4194155},"weight":6593,"searchable":true,"timezone":"America/Los_Angeles","state_code":"CA","country_name":"Hoa Kỳ","country_code":"US","main_airport_name":"Sân bay quốc tế San Francisco","cases":null,"index_strings":["sân bay quốc tế san francisco","sfo","san francisco","us","hoa kỳ","united states"]},{"type":"airport","code":"SFO","name":"Sân bay quốc tế San Francisco","coordinates":{"lat":37.615215,"lon":-122.38988},"weight":6593,"searchable":false,"timezone":"America/Los_Angeles","en_city_name":"San Francisco","city_name":"San Francisco","city_code":"SFO","state_code":"CA","country_name":"Hoa Kỳ","country_code":"US","cases":null,"city_cases":null,"country_cases":null,"index_strings":["sfo","sân bay quốc tế san francisco","san francisco international airport","san francisco","us","hoa kỳ","united states"]},{"type":"city","code":"BCN","name":"Barcelona","en_name":"Barcelona","coordinates":{"lat":41.387917,"lon":2.1699187},"weight":6473,"searchable":true,"timezone":"Europe/Madrid","state_code":null,"country_name":"Tây Ban Nha","country_code":"ES","main_airport_name":"Sân bay Barcelona","cases":null,"index_strings":["sân bay barcelona","bcn","barcelona","es","tây ban nha","spain"]},{"type":"airport","code":"BCN","name":"Sân bay Barcelona","coordinates":{"lat":41.30303,"lon":2.07593},"weight":6472,"searchable":false,"timezone":"Europe/Madrid","en_city_name":"Barcelona","city_name":"Barcelona","city_code":"BCN","state_code":null,"country_name":"Tây Ban Nha","country_code":"ES","cases":null,"city_cases":null,"country_cases":null,"index_strings":["bcn","sân bay barcelona","barcelona-el prat airport","barcelona","es","tây ban nha","spain"]},{"type":"country","code":"CA","name":"Canada","weight":6394,"searchable":true,"cases":null,"capital":{"code":"YOW","type":"city"},"index_strings":["ca","canada"]},{"type":"country","code":"NL","name":"Hà Lan","weight":6354,"searchable":true,"cases":null,"capital":{"code":"AMS","type":"city"},"index_strings":["hà","lan","голландия","nl","hà lan","netherlands"]},{"type":"country","code":"GB","name":"Vương quốc Anh","weight":6335,"searchable":true,"cases":null,"capital":{"code":"LON","type":"city"},"index_strings":["anh","quốc","vương","англия","gb","vương quốc anh","united kingdom"]},{"type":"city","code":"PQC","name":"Phuquoc","en_name":"Phu Quoc","coordinates":{"lat":10.223722,"lon":103.96324},"weight":5979,"searchable":true,"timezone":"Asia/Ho_Chi_Minh","state_code":null,"country_name":"Việt Nam","country_code":"VN","main_airport_name":"Phu Quoc Island International","cases":null,"index_strings":["phu quoc island international","pqc","phuquoc","phu quoc","vn","việt nam","vietnam"]},{"type":"airport","code":"PQC","name":"Phu Quoc Island International","coordinates":{"lat":10.223722,"lon":103.96324},"weight":5979,"searchable":false,"timezone":"Asia/Ho_Chi_Minh","en_city_name":"Phu Quoc","city_name":"Phuquoc","city_code":"PQC","state_code":null,"country_name":"Việt Nam","country_code":"VN","cases":null,"city_cases":null,"country_cases":null,"index_strings":["pqc","phu quoc island international","phu quoc airport","phuquoc","phu quoc","vn","việt nam","vietnam"]},{"type":"city","code":"CAI","name":"Cairo","en_name":"Cairo","coordinates":{"lat":30.120106,"lon":31.40647},"weight":5774,"searchable":true,"timezone":"Africa/Cairo","state_code":null,"country_name":"Ai Cập","country_code":"EG","main_airport_name":"Cairo International","cases":null,"index_strings":["cairo international","cai","cairo","eg","ai cập","egypt"]},{"type":"airport","code":"CAI","name":"Cairo International","coordinates":{"lat":30.120106,"lon":31.40647},"weight":5774,"searchable":false,"timezone":"Africa/Cairo","en_city_name":"Cairo","city_name":"Cairo","city_code":"CAI","state_code":null,"country_name":"Ai Cập","country_code":"EG","cases":null,"city_cases":null,"country_cases":null,"index_strings":["cai","cairo international","cairo international airport","cairo","eg","ai cập","egypt"]},{"type":"city","code":"AMS","name":"Amsterdam","en_name":"Amsterdam","coordinates":{"lat":52.3730556,"lon":4.8922222},"weight":5773,"searchable":true,"timezone":"Europe/Amsterdam","state_code":null,"country_name":"Hà Lan","country_code":"NL","main_airport_name":"Amsterdam Schiphol","cases":null,"index_strings":["amsterdam schiphol","евровидение","eurovision","little big","littlebig","ams","amsterdam","nl","hà lan","netherlands"]},{"type":"airport","code":"AMS","name":"Amsterdam Schiphol","coordinates":{"lat":52.30907,"lon":4.763385},"weight":5770,"searchable":false,"timezone":"Europe/Amsterdam","en_city_name":"Amsterdam","city_name":"Amsterdam","city_code":"AMS","state_code":null,"country_name":"Hà Lan","country_code":"NL","cases":null,"city_cases":null,"country_cases":null,"index_strings":["ams","amsterdam schiphol","amsterdam airport schiphol","amsterdam","nl","hà lan","netherlands"]},{"type":"country","code":"MA","name":"Ma-rốc","weight":5761,"searchable":true,"cases":null,"capital":{"code":"RBA","type":"city"},"index_strings":["ma","ma-rốc","morocco"]},{"type":"country","code":"UA","name":"Ukraina","weight":5355,"searchable":true,"cases":null,"capital":{"code":"IEV","type":"city"},"index_strings":["ua","ukraina","ukraine"]},{"type":"city","code":"BOM","name":"Mumbai","en_name":"Mumbai","coordinates":{"lat":19.095509,"lon":72.87497},"weight":5301,"searchable":true,"timezone":"Asia/Kolkata","state_code":null,"country_name":"Ấn Độ","country_code":"IN","main_airport_name":"Sân bay quốc tế Chhatrapati Shivaji","cases":null,"index_strings":["sân bay quốc tế chhatrapati shivaji","бомбей","bombay","bom","mumbai","in","ấn độ","india"]},{"type":"airport","code":"BOM","name":"Sân bay quốc tế Chhatrapati Shivaji","coordinates":{"lat":19.095509,"lon":72.87497},"weight":5301,"searchable":false,"timezone":"Asia/Kolkata","en_city_name":"Mumbai","city_name":"Mumbai","city_code":"BOM","state_code":null,"country_name":"Ấn Độ","country_code":"IN","cases":null,"city_cases":null,"country_cases":null,"index_strings":["bom","sân bay quốc tế chhatrapati shivaji","chhatrapati shivaji international airport","mumbai","in","ấn độ","india"]},{"type":"country","code":"SG","name":"Singapore","weight":5300,"searchable":true,"cases":null,"capital":{"code":"SIN","type":"city"},"index_strings":["sg","singapore"]},{"type":"city","code":"SIN","name":"Singapore","en_name":"Singapore","coordinates":{"lat":1.2894365,"lon":103.8499802},"weight":5299,"searchable":true,"timezone":"Asia/Singapore","state_code":null,"country_name":"Singapore","country_code":"SG","main_airport_name":"Sân bay quốc tế Singapore Changi","cases":null,"index_strings":["sân bay quốc tế singapore changi","sin","singapore","sg"]},{"type":"airport","code":"SIN","name":"Sân bay quốc tế Singapore Changi","coordinates":{"lat":1.361173,"lon":103.990204},"weight":5297,"searchable":false,"timezone":"Asia/Singapore","en_city_name":"Singapore","city_name":"Singapore","city_code":"SIN","state_code":null,"country_name":"Singapore","country_code":"SG","cases":null,"city_cases":null,"country_cases":null,"index_strings":["sin","sân bay quốc tế singapore changi","changi international airport","singapore","sg"]},{"type":"country","code":"FR","name":"Pháp","weight":5197,"searchable":true,"cases":null,"capital":{"code":"PAR","type":"city"},"index_strings":["fr","pháp","france"]},{"type":"city","code":"FLL","name":"Fort Lauderdale","en_name":"Fort Lauderdale","coordinates":{"lat":26.1223084,"lon":-80.1433786},"weight":5069,"searchable":true,"timezone":"America/New_York","state_code":"FL","country_name":"Hoa Kỳ","country_code":"US","main_airport_name":null,"cases":null,"index_strings":["miami","майами","迈阿密","fll","fort lauderdale","us","hoa kỳ","united states"]},{"type":"airport","code":"FLL","name":"Fort Lauderdale International","coordinates":{"lat":26.071491,"lon":-80.144905},"weight":5067,"searchable":true,"timezone":"America/New_York","en_city_name":"Fort Lauderdale","city_name":"Fort Lauderdale","city_code":"FLL","state_code":"FL","country_name":"Hoa Kỳ","country_code":"US","cases":null,"city_cases":null,"country_cases":null,"index_strings":["fll","fort lauderdale international","fort lauderdale-hollywood international airport","fort lauderdale","us","hoa kỳ","united states"]},{"type":"city","code":"KUL","name":"Kuala Lumpur","en_name":"Kuala Lumpur","coordinates":{"lat":3.139003,"lon":101.686855},"weight":5045,"searchable":true,"timezone":"Asia/Kuala_Lumpur","state_code":null,"country_name":"Malaysia","country_code":"MY","main_airport_name":null,"cases":null,"index_strings":["kul","kuala lumpur","my","malaysia"]},{"type":"airport","code":"KUL","name":"Kuala Lumpur International","coordinates":{"lat":2.755672,"lon":101.70539},"weight":4939,"searchable":true,"timezone":"Asia/Kuala_Lumpur","en_city_name":"Kuala Lumpur","city_name":"Kuala Lumpur","city_code":"KUL","state_code":null,"country_name":"Malaysia","country_code":"MY","cases":null,"city_cases":null,"country_cases":null,"index_strings":["kul","kuala lumpur international","kuala lumpur international airport","kuala lumpur","my","malaysia"]},{"type":"country","code":"HK","name":"Hồng Kông","weight":4931,"searchable":false,"cases":null,"capital":{"code":"HKG","type":"city"},"index_strings":["hồng","kông","hk","hồng kông","hong kong"]},{"type":"city","code":"HKG","name":"Hồng Kông","en_name":"Hong Kong","coordinates":{"lat":22.2478599,"lon":114.2033843},"weight":4931,"searchable":true,"timezone":"Asia/Hong_Kong","state_code":null,"country_name":"Hồng Kông","country_code":"HK","main_airport_name":null,"cases":null,"index_strings":["hkg","hồng kông","hong kong","hk"]},{"type":"airport","code":"HKG","name":"Hong Kong International","coordinates":{"lat":22.315248,"lon":113.93649},"weight":4930,"searchable":true,"timezone":"Asia/Hong_Kong","en_city_name":"Hong Kong","city_name":"Hồng Kông","city_code":"HKG","state_code":null,"country_name":"Hồng Kông","country_code":"HK","cases":null,"city_cases":null,"country_cases":null,"index_strings":["hkg","hong kong international","hong kong international airport","hồng kông","hong kong","hk"]},{"type":"airport","code":"DFW","name":"Dallas/Fort Worth International","coordinates":{"lat":32.89746,"lon":-97.036125},"weight":4794,"searchable":true,"timezone":"America/Chicago","en_city_name":"Dallas","city_name":"Dallas","city_code":"DFW","state_code":"TX","country_name":"Hoa Kỳ","country_code":"US","cases":null,"city_cases":null,"country_cases":null,"index_strings":["dfw","dallas/fort worth international","dallas/fort worth international airport","dallas","us","hoa kỳ","united states"]},{"type":"city","code":"DFW","name":"Dallas","en_name":"Dallas","coordinates":{"lat":32.802955,"lon":-96.769923},"weight":4787,"searchable":true,"timezone":"America/Chicago","state_code":"TX","country_name":"Hoa Kỳ","country_code":"US","main_airport_name":null,"cases":null,"index_strings":["dfw","dallas","us","hoa kỳ","united states"]},{"type":"city","code":"ATL","name":"Atlanta","en_name":"Atlanta","coordinates":{"lat":33.7489954,"lon":-84.3879824},"weight":4691,"searchable":true,"timezone":"America/New_York","state_code":"GA","country_name":"Hoa Kỳ","country_code":"US","main_airport_name":null,"cases":null,"index_strings":["atl","atlanta","us","hoa kỳ","united states"]},{"type":"airport","code":"ATL","name":"Atlanta Hartsfield-Jackson ATL","coordinates":{"lat":33.640068,"lon":-84.44403},"weight":4691,"searchable":true,"timezone":"America/New_York","en_city_name":"Atlanta","city_name":"Atlanta","city_code":"ATL","state_code":"GA","country_name":"Hoa Kỳ","country_code":"US","cases":null,"city_cases":null,"country_cases":null,"index_strings":["atl","atlanta hartsfield-jackson atl","hartsfield-jackson atlanta international airport","atlanta","us","hoa kỳ","united states"]},{"type":"country","code":"DO","name":"Cộng hòa Dominica","weight":4531,"searchable":true,"cases":null,"capital":{"code":"PUJ","type":"city"},"index_strings":["cộng","dominica","hòa","do","cộng hòa dominica","dominican republic"]},{"type":"country","code":"ID","name":"Indonesia","weight":4517,"searchable":true,"cases":null,"capital":{"code":"JKT","type":"city"},"index_strings":["id","indonesia"]},{"type":"city","code":"MAD","name":"Madrid","en_name":"Madrid","coordinates":{"lat":40.4166909,"lon":-3.7003454},"weight":4305,"searchable":true,"timezone":"Europe/Madrid","state_code":null,"country_name":"Tây Ban Nha","country_code":"ES","main_airport_name":null,"cases":null,"index_strings":["mad","madrid","es","tây ban nha","spain"]},{"type":"airport","code":"MAD","name":"Madrid Adolfo Suarez-Barajas","coordinates":{"lat":40.46515,"lon":-3.570209},"weight":4303,"searchable":true,"timezone":"Europe/Madrid","en_city_name":"Madrid","city_name":"Madrid","city_code":"MAD","state_code":null,"country_name":"Tây Ban Nha","country_code":"ES","cases":null,"city_cases":null,"country_cases":null,"index_strings":["mad","madrid adolfo suarez-barajas","adolfo suarez madrid-barajas airport","madrid","es","tây ban nha","spain"]},{"type":"city","code":"BOS","name":"Boston","en_name":"Boston","coordinates":{"lat":42.3584308,"lon":-71.0597732},"weight":4278,"searchable":true,"timezone":"America/New_York","state_code":"MA","country_name":"Hoa Kỳ","country_code":"US","main_airport_name":null,"cases":null,"index_strings":["bos","boston","us","hoa kỳ","united states"]},{"type":"airport","code":"BOS","name":"Boston Logan International","coordinates":{"lat":42.36646,"lon":-71.02018},"weight":4278,"searchable":true,"timezone":"America/New_York","en_city_name":"Boston","city_name":"Boston","city_code":"BOS","state_code":"MA","country_name":"Hoa Kỳ","country_code":"US","cases":null,"city_cases":null,"country_cases":null,"index_strings":["bos","boston logan international","logan international airport","boston","us","hoa kỳ","united states"]},{"type":"country","code":"PT","name":"Bồ Đào Nha","weight":4272,"searchable":true,"cases":null,"capital":{"code":"LIS","type":"city"},"index_strings":["bồ","nha","đào","pt","bồ đào nha","portugal"]},{"type":"city","code":"CUN","name":"Cancún","en_name":"Cancun","coordinates":{"lat":21.040457,"lon":-86.874435},"weight":3952,"searchable":true,"timezone":"America/Cancun","state_code":null,"country_name":"Mexico","country_code":"MX","main_airport_name":"Sân bay quốc tế Cancún","cases":null,"index_strings":["sân bay quốc tế cancún","cun","cancún","cancun","mx","mexico"]},{"type":"airport","code":"CUN","name":"Sân bay quốc tế Cancún","coordinates":{"lat":21.040457,"lon":-86.874435},"weight":3952,"searchable":false,"timezone":"America/Cancun","en_city_name":"Cancun","city_name":"Cancún","city_code":"CUN","state_code":null,"country_name":"Mexico","country_code":"MX","cases":null,"city_cases":null,"country_cases":null,"index_strings":["cun","sân bay quốc tế cancún","cancun international airport","cancún","cancun","mx","mexico"]},{"type":"city","code":"FRA","name":"Frankfurt am Main","en_name":"Frankfurt","coordinates":{"lat":50.050735,"lon":8.570773},"weight":3896,"searchable":true,"timezone":"Europe/Berlin","state_code":null,"country_name":"Đức","country_code":"DE","main_airport_name":null,"cases":null,"index_strings":["fra","frankfurt am main","frankfurt","de","đức","germany"]},{"type":"city","code":"SEA","name":"Seattle","en_name":"Seattle","coordinates":{"lat":47.6062095,"lon":-122.3320708},"weight":3878,"searchable":true,"timezone":"America/Los_Angeles","state_code":"WA","country_name":"Hoa Kỳ","country_code":"US","main_airport_name":null,"cases":null,"index_strings":["tacoma","такома","塔科马","sea","seattle","us","hoa kỳ","united states"]},{"type":"airport","code":"FRA","name":"Frankfurt International","coordinates":{"lat":50.050735,"lon":8.570773},"weight":3877,"searchable":true,"timezone":"Europe/Berlin","en_city_name":"Frankfurt","city_name":"Frankfurt am Main","city_code":"FRA","state_code":null,"country_name":"Đức","country_code":"DE","cases":null,"city_cases":null,"country_cases":null,"index_strings":["fra","frankfurt international","frankfurt airport","frankfurt am main","frankfurt","de","đức","germany"]},{"type":"airport","code":"SEA","name":"Seattle/Tacoma Sea/Tac","coordinates":{"lat":47.44384,"lon":-122.301735},"weight":3870,"searchable":true,"timezone":"America/Los_Angeles","en_city_name":"Seattle","city_name":"Seattle","city_code":"SEA","state_code":"WA","country_name":"Hoa Kỳ","country_code":"US","cases":null,"city_cases":null,"country_cases":null,"index_strings":["sea","seattle/tacoma sea/tac","seattle-tacoma international airport","seattle","us","hoa kỳ","united states"]},{"type":"city","code":"HOU","name":"Houston","en_name":"Houston","coordinates":{"lat":29.762778,"lon":-95.383056},"weight":3825,"searchable":true,"timezone":"America/Chicago","state_code":"TX","country_name":"Hoa Kỳ","country_code":"US","main_airport_name":null,"cases":null,"index_strings":["hou","houston","us","hoa kỳ","united states"]},{"type":"city","code":"DEN","name":"Denver","en_name":"Denver","coordinates":{"lat":39.7391536,"lon":-104.9847034},"weight":3810,"searchable":true,"timezone":"America/Denver","state_code":"CO","country_name":"Hoa Kỳ","country_code":"US","main_airport_name":null,"cases":null,"index_strings":["den","denver","us","hoa kỳ","united states"]},{"type":"airport","code":"DEN","name":"Denver International","coordinates":{"lat":39.84939,"lon":-104.672844},"weight":3806,"searchable":true,"timezone":"America/Denver","en_city_name":"Denver","city_name":"Denver","city_code":"DEN","state_code":"CO","country_name":"Hoa Kỳ","country_code":"US","cases":null,"city_cases":null,"country_cases":null,"index_strings":["den","denver international","denver international airport","denver","us","hoa kỳ","united states"]},{"type":"city","code":"SYD","name":"Sydney","en_name":"Sydney","coordinates":{"lat":-33.8689009,"lon":151.2070914},"weight":3803,"searchable":true,"timezone":"Australia/Sydney","state_code":"NS","country_name":"Úc","country_code":"AU","main_airport_name":"Sydney Kingsford Smith","cases":null,"index_strings":["sydney kingsford smith","syd","sydney","au","úc","australia"]},{"type":"airport","code":"SYD","name":"Sydney Kingsford Smith","coordinates":{"lat":-33.932922,"lon":151.1799},"weight":3801,"searchable":false,"timezone":"Australia/Sydney","en_city_name":"Sydney","city_name":"Sydney","city_code":"SYD","state_code":"NS","country_name":"Úc","country_code":"AU","cases":null,"city_cases":null,"country_cases":null,"index_strings":["syd","sydney kingsford smith","sydney (kingsford smith) airport","sydney","au","úc","australia"]},{"type":"city","code":"JED","name":"Jeddah","en_name":"Jeddah","coordinates":{"lat":21.670233,"lon":39.150578},"weight":3795,"searchable":true,"timezone":"Asia/Riyadh","state_code":null,"country_name":"Ả Rập Xê-út","country_code":"SA","main_airport_name":"Jeddah King Abdulaziz International","cases":null,"index_strings":["jeddah king abdulaziz international","jed","jeddah","sa","ả rập xê-út","saudi arabia"]},{"type":"airport","code":"JED","name":"Jeddah King Abdulaziz International","coordinates":{"lat":21.670233,"lon":39.150578},"weight":3795,"searchable":false,"timezone":"Asia/Riyadh","en_city_name":"Jeddah","city_name":"Jeddah","city_code":"JED","state_code":null,"country_name":"Ả Rập Xê-út","country_code":"SA","cases":null,"city_cases":null,"country_cases":null,"index_strings":["jed","jeddah king abdulaziz international","king abdulaziz international airport","jeddah","sa","ả rập xê-út","saudi arabia"]},{"type":"country","code":"PR","name":"Hoa Kỳ","weight":3750,"searchable":true,"cases":null,"capital":{"code":"SJU","type":"city"},"index_strings":["hoa","kỳ","pr","hoa kỳ","puerto rico"]},{"type":"country","code":"IR","name":"Iran","weight":3728,"searchable":true,"cases":null,"capital":{"code":"THR","type":"city"},"index_strings":["ir","iran"]},{"type":"city","code":"HNL","name":"Honolulu","en_name":"Honolulu","coordinates":{"lat":21.3069444,"lon":-157.8583333},"weight":3675,"searchable":true,"timezone":"Pacific/Honolulu","state_code":"HI","country_name":"Hoa Kỳ","country_code":"US","main_airport_name":"Sân bay quốc tế Honolulu","cases":null,"index_strings":["sân bay quốc tế honolulu","hnl","honolulu","us","hoa kỳ","united states"]},{"type":"airport","code":"HNL","name":"Sân bay quốc tế Honolulu","coordinates":{"lat":21.325832,"lon":-157.92166},"weight":3675,"searchable":false,"timezone":"Pacific/Honolulu","en_city_name":"Honolulu","city_name":"Honolulu","city_code":"HNL","state_code":"HI","country_name":"Hoa Kỳ","country_code":"US","cases":null,"city_cases":null,"country_cases":null,"index_strings":["hnl","sân bay quốc tế honolulu","honolulu international airport","honolulu","us","hoa kỳ","united states"]},{"type":"airport","code":"HOU","name":"Sân bay William P. Hobby","coordinates":{"lat":29.654512,"lon":-95.277016},"weight":3673,"searchable":true,"timezone":"America/Chicago","en_city_name":"Houston","city_name":"Houston","city_code":"HOU","state_code":"TX","country_name":"Hoa Kỳ","country_code":"US","cases":null,"city_cases":null,"country_cases":null,"index_strings":["hou","sân bay william p. hobby","william p. hobby airport","houston","us","hoa kỳ","united states"]},{"type":"city","code":"HKT","name":"Phuket","en_name":"Phuket","coordinates":{"lat":8.107619,"lon":98.306435},"weight":3623,"searchable":true,"timezone":"Asia/Bangkok","state_code":null,"country_name":"Thái Lan","country_code":"TH","main_airport_name":"Sân bay quốc tế Phuket","cases":null,"index_strings":["sân bay quốc tế phuket","hkt","phuket","th","thái lan","thailand"]},{"type":"airport","code":"HKT","name":"Sân bay quốc tế Phuket","coordinates":{"lat":8.107619,"lon":98.306435},"weight":3623,"searchable":false,"timezone":"Asia/Bangkok","en_city_name":"Phuket","city_name":"Phuket","city_code":"HKT","state_code":null,"country_name":"Thái Lan","country_code":"TH","cases":null,"city_cases":null,"country_cases":null,"index_strings":["hkt","sân bay quốc tế phuket","phuket international airport","phuket","th","thái lan","thailand"]},{"type":"country","code":"PL","name":"Ba Lan","weight":3462,"searchable":true,"cases":null,"capital":{"code":"WAW","type":"city"},"index_strings":["ba","lan","pl","ba lan","poland"]},{"type":"city","code":"BER","name":"Berlin","en_name":"Berlin","coordinates":{"lat":52.5234051,"lon":13.4113999},"weight":3440,"searchable":true,"timezone":"Europe/Berlin","state_code":null,"country_name":"Đức","country_code":"DE","main_airport_name":null,"cases":null,"index_strings":["ber","berlin","de","đức","germany"]},{"type":"city","code":"SJU","name":"San Juan","en_name":"San Juan","coordinates":{"lat":18.4663338,"lon":-66.1057217},"weight":3384,"searchable":true,"timezone":"America/Puerto_Rico","state_code":null,"country_name":"Hoa Kỳ","country_code":"PR","main_airport_name":"San Juan Luis Munoz Marin Int'l","cases":null,"index_strings":["san juan luis munoz marin int'l","sju","san juan","pr","hoa kỳ","puerto rico"]},{"type":"airport","code":"SJU","name":"San Juan Luis Munoz Marin Int'l","coordinates":{"lat":18.437403,"lon":-66.004684},"weight":3383,"searchable":false,"timezone":"America/Puerto_Rico","en_city_name":"San Juan","city_name":"San Juan","city_code":"SJU","state_code":null,"country_name":"Hoa Kỳ","country_code":"PR","cases":null,"city_cases":null,"country_cases":null,"index_strings":["sju","san juan luis munoz marin int'l","luis munoz marin international airport","san juan","pr","hoa kỳ","puerto rico"]},{"type":"city","code":"ATH","name":"Athens","en_name":"Athens","coordinates":{"lat":37.93635,"lon":23.946486},"weight":3381,"searchable":true,"timezone":"Europe/Athens","state_code":null,"country_name":"Hy Lạp","country_code":"GR","main_airport_name":"Athens Eleftherios Venizelos","cases":null,"index_strings":["athens eleftherios venizelos","ath","athens","gr","hy lạp","greece"]},{"type":"airport","code":"ATH","name":"Athens Eleftherios Venizelos","coordinates":{"lat":37.93635,"lon":23.946486},"weight":3381,"searchable":false,"timezone":"Europe/Athens","en_city_name":"Athens","city_name":"Athens","city_code":"ATH","state_code":null,"country_name":"Hy Lạp","country_code":"GR","cases":null,"city_cases":null,"country_cases":null,"index_strings":["ath","athens eleftherios venizelos","eleftherios venizelos international airport","athens","gr","hy lạp","greece"]},{"type":"country","code":"JP","name":"Nhật Bản","weight":3343,"searchable":true,"cases":null,"capital":{"code":"TYO","type":"city"},"index_strings":["bản","nhật","jp","nhật bản","japan"]},{"type":"city","code":"SAN","name":"San Diego","en_name":"San Diego","coordinates":{"lat":32.7153292,"lon":-117.1572551},"weight":3336,"searchable":true,"timezone":"America/Los_Angeles","state_code":"CA","country_name":"Hoa Kỳ","country_code":"US","main_airport_name":null,"cases":null,"index_strings":["san","san diego","us","hoa kỳ","united states"]},{"type":"country","code":"TW","name":"Đài Loan","weight":3334,"searchable":true,"cases":null,"capital":{"code":"TPE","type":"city"},"index_strings":["loan","đài","tw","đài loan","taiwan"]},{"type":"airport","code":"SAN","name":"Sân bay quốc tế San Diego","coordinates":{"lat":32.731937,"lon":-117.19731},"weight":3330,"searchable":true,"timezone":"America/Los_Angeles","en_city_name":"San Diego","city_name":"San Diego","city_code":"SAN","state_code":"CA","country_name":"Hoa Kỳ","country_code":"US","cases":null,"city_cases":null,"country_cases":null,"index_strings":["san","sân bay quốc tế san diego","san diego international airport","san diego","us","hoa kỳ","united states"]},{"type":"city","code":"IEV","name":"Kiev","en_name":"Kyiv","coordinates":{"lat":50.45,"lon":30.5},"weight":3255,"searchable":true,"timezone":"Europe/Kiev","state_code":null,"country_name":"Ukraina","country_code":"UA","main_airport_name":null,"cases":null,"index_strings":["iev","kiev","kyiv","ua","ukraina","ukraine"]},{"type":"city","code":"HUI","name":"tp. Huế","en_name":"Hue","coordinates":{"lat":16.398224,"lon":107.700874},"weight":3227,"searchable":true,"timezone":"Asia/Ho_Chi_Minh","state_code":null,"country_name":"Việt Nam","country_code":"VN","main_airport_name":"Hue Phu Bai International","cases":null,"index_strings":["hue phu bai international","hui","tp. huế","hue","vn","việt nam","vietnam"]},{"type":"airport","code":"HUI","name":"Hue Phu Bai International","coordinates":{"lat":16.398224,"lon":107.700874},"weight":3227,"searchable":false,"timezone":"Asia/Ho_Chi_Minh","en_city_name":"Hue","city_name":"tp. Huế","city_code":"HUI","state_code":null,"country_name":"Việt Nam","country_code":"VN","cases":null,"city_cases":null,"country_cases":null,"index_strings":["hui","hue phu bai international","phu bai international airport","tp. huế","hue","vn","việt nam","vietnam"]},{"type":"city","code":"TPA","name":"Tampa","en_name":"Tampa","coordinates":{"lat":27.949436,"lon":-82.4651441},"weight":3219,"searchable":true,"timezone":"America/New_York","state_code":"FL","country_name":"Hoa Kỳ","country_code":"US","main_airport_name":null,"cases":null,"index_strings":["tpa","tampa","us","hoa kỳ","united states"]},{"type":"airport","code":"TPA","name":"Tampa International","coordinates":{"lat":27.97987,"lon":-82.535416},"weight":3198,"searchable":true,"timezone":"America/New_York","en_city_name":"Tampa","city_name":"Tampa","city_code":"TPA","state_code":"FL","country_name":"Hoa Kỳ","country_code":"US","cases":null,"city_cases":null,"country_cases":null,"index_strings":["tpa","tampa international","tampa international airport","tampa","us","hoa kỳ","united states"]},{"type":"city","code":"CNX","name":"Thành phố Chiang Mai","en_name":"Chiang Mai","coordinates":{"lat":18.769573,"lon":98.96841},"weight":3161,"searchable":true,"timezone":"Asia/Bangkok","state_code":null,"country_name":"Thái Lan","country_code":"TH","main_airport_name":"Sân bay quốc tế Chiang Mai","cases":null,"index_strings":["sân bay quốc tế chiang mai","cnx","thành phố chiang mai","chiang mai","th","thái lan","thailand"]},{"type":"airport","code":"CNX","name":"Sân bay quốc tế Chiang Mai","coordinates":{"lat":18.769573,"lon":98.96841},"weight":3160,"searchable":false,"timezone":"Asia/Bangkok","en_city_name":"Chiang Mai","city_name":"Thành phố Chiang Mai","city_code":"CNX","state_code":null,"country_name":"Thái Lan","country_code":"TH","cases":null,"city_cases":null,"country_cases":null,"index_strings":["cnx","sân bay quốc tế chiang mai","chiang mai international airport","thành phố chiang mai","chiang mai","th","thái lan","thailand"]},{"type":"city","code":"MAA","name":"Chennai","en_name":"Chennai","coordinates":{"lat":12.982267,"lon":80.16378},"weight":3084,"searchable":true,"timezone":"Asia/Kolkata","state_code":null,"country_name":"Ấn Độ","country_code":"IN","main_airport_name":"Sân bay quốc tế Chennai","cases":null,"index_strings":["sân bay quốc tế chennai","maa","chennai","in","ấn độ","india"]},{"type":"airport","code":"MAA","name":"Sân bay quốc tế Chennai","coordinates":{"lat":12.982267,"lon":80.16378},"weight":3084,"searchable":false,"timezone":"Asia/Kolkata","en_city_name":"Chennai","city_name":"Chennai","city_code":"MAA","state_code":null,"country_name":"Ấn Độ","country_code":"IN","cases":null,"city_cases":null,"country_cases":null,"index_strings":["maa","sân bay quốc tế chennai","chennai airport","chennai","in","ấn độ","india"]},{"type":"country","code":"CH","name":"Thụy Sĩ","weight":3063,"searchable":true,"cases":null,"capital":{"code":"BRN","type":"city"},"index_strings":["sĩ","thụy","ch","thụy sĩ","switzerland"]},{"type":"city","code":"MUC","name":"München","en_name":"Munich","coordinates":{"lat":48.1391265,"lon":11.5801863},"weight":3059,"searchable":true,"timezone":"Europe/Berlin","state_code":null,"country_name":"Đức","country_code":"DE","main_airport_name":null,"cases":null,"index_strings":["muc","münchen","munich","de","đức","germany"]},{"type":"airport","code":"MUC","name":"Munich Franz Joseph Strauss Int'l","coordinates":{"lat":48.353004,"lon":11.790143},"weight":3054,"searchable":true,"timezone":"Europe/Berlin","en_city_name":"Munich","city_name":"München","city_code":"MUC","state_code":null,"country_name":"Đức","country_code":"DE","cases":null,"city_cases":null,"country_cases":null,"index_strings":["muc","munich franz joseph strauss int'l","franz josef strauss airport","münchen","munich","de","đức","germany"]},{"type":"city","code":"RUH","name":"Riyadh","en_name":"Riyadh","coordinates":{"lat":24.95929,"lon":46.702877},"weight":3004,"searchable":true,"timezone":"Asia/Riyadh","state_code":null,"country_name":"Ả Rập Xê-út","country_code":"SA","main_airport_name":"Sân bay quốc tế quốc vương Khalid","cases":null,"index_strings":["sân bay quốc tế quốc vương khalid","ruh","riyadh","sa","ả rập xê-út","saudi arabia"]},{"type":"airport","code":"RUH","name":"Sân bay quốc tế quốc vương Khalid","coordinates":{"lat":24.95929,"lon":46.702877},"weight":3004,"searchable":false,"timezone":"Asia/Riyadh","en_city_name":"Riyadh","city_name":"Riyadh","city_code":"RUH","state_code":null,"country_name":"Ả Rập Xê-út","country_code":"SA","cases":null,"city_cases":null,"country_cases":null,"index_strings":["ruh","sân bay quốc tế quốc vương khalid","king khaled international airport","riyadh","sa","ả rập xê-út","saudi arabia"]},{"type":"country","code":"IE","name":"Ai-len","weight":2996,"searchable":true,"cases":null,"capital":{"code":"DUB","type":"city"},"index_strings":["ie","ai-len","ireland"]},{"type":"city","code":"PHX","name":"Phoenix","en_name":"Phoenix","coordinates":{"lat":33.4483771,"lon":-112.0740373},"weight":2971,"searchable":true,"timezone":"America/Phoenix","state_code":"AZ","country_name":"Hoa Kỳ","country_code":"US","main_airport_name":null,"cases":null,"index_strings":["phx","phoenix","us","hoa kỳ","united states"]},{"type":"country","code":"LB","name":"Li-băng","weight":2963,"searchable":true,"cases":null,"capital":null,"index_strings":["lb","li-băng","lebanon"]},{"type":"city","code":"BEY","name":"Beirut","en_name":"Beirut","coordinates":{"lat":33.826073,"lon":35.49308},"weight":2962,"searchable":true,"timezone":"Asia/Beirut","state_code":null,"country_name":"Li-băng","country_code":"LB","main_airport_name":"Beirut Rafic Hariri International","cases":null,"index_strings":["beirut rafic hariri international","bey","beirut","lb","li-băng","lebanon"]},{"type":"airport","code":"BEY","name":"Beirut Rafic Hariri International","coordinates":{"lat":33.826073,"lon":35.49308},"weight":2962,"searchable":false,"timezone":"Asia/Beirut","en_city_name":"Beirut","city_name":"Beirut","city_code":"BEY","state_code":null,"country_name":"Li-băng","country_code":"LB","cases":null,"city_cases":null,"country_cases":null,"index_strings":["bey","beirut rafic hariri international","beirut-rafic hariri international airport","beirut","lb","li-băng","lebanon"]},{"type":"country","code":"CO","name":"Colombia","weight":2938,"searchable":true,"cases":null,"capital":{"code":"BOG","type":"city"},"index_strings":["co","colombia"]},{"type":"city","code":"TPE","name":"Taipei","en_name":"Taipei","coordinates":{"lat":25.091075,"lon":121.5598345},"weight":2913,"searchable":true,"timezone":"Asia/Taipei","state_code":null,"country_name":"Đài Loan","country_code":"TW","main_airport_name":null,"cases":null,"index_strings":["tpe","taipei","tw","đài loan","taiwan"]},{"type":"airport","code":"TPE","name":"Taipei Taiwan Taoyuan International","coordinates":{"lat":25.07639,"lon":121.22389},"weight":2887,"searchable":true,"timezone":"Asia/Taipei","en_city_name":"Taipei","city_name":"Taipei","city_code":"TPE","state_code":null,"country_name":"Đài Loan","country_code":"TW","cases":null,"city_cases":null,"country_cases":null,"index_strings":["tpe","taipei taiwan taoyuan international","taiwan taoyuan international airport","taipei","tw","đài loan","taiwan"]},{"type":"city","code":"MEL","name":"Melbourne","en_name":"Melbourne","coordinates":{"lat":-37.8131869,"lon":144.9629796},"weight":2855,"searchable":true,"timezone":"Australia/Melbourne","state_code":"VI","country_name":"Úc","country_code":"AU","main_airport_name":null,"cases":null,"index_strings":["mel","melbourne","au","úc","australia"]},{"type":"city","code":"MEX","name":"Thành phố Mexico","en_name":"Mexico City","coordinates":{"lat":19.4270499,"lon":-99.1275711},"weight":2855,"searchable":true,"timezone":"America/Mexico_City","state_code":null,"country_name":"Mexico","country_code":"MX","main_airport_name":null,"cases":null,"index_strings":["mex","thành phố mexico","mexico city","mx","mexico"]},{"type":"airport","code":"PHX","name":"Phoenix Sky Harbor Int'l","coordinates":{"lat":33.435036,"lon":-112.00016},"weight":2855,"searchable":true,"timezone":"America/Phoenix","en_city_name":"Phoenix","city_name":"Phoenix","city_code":"PHX","state_code":"AZ","country_name":"Hoa Kỳ","country_code":"US","cases":null,"city_cases":null,"country_cases":null,"index_strings":["phx","phoenix sky harbor int'l","phoenix sky harbor international airport","phoenix","us","hoa kỳ","united states"]},{"type":"airport","code":"MEX","name":"Mexico City Benito Juarez International","coordinates":{"lat":19.435278,"lon":-99.07278},"weight":2852,"searchable":true,"timezone":"America/Mexico_City","en_city_name":"Mexico City","city_name":"Thành phố Mexico","city_code":"MEX","state_code":null,"country_name":"Mexico","country_code":"MX","cases":null,"city_cases":null,"country_cases":null,"index_strings":["mex","mexico city benito juarez international","benito juarez international airport","thành phố mexico","mexico city","mx","mexico"]},{"type":"airport","code":"MEL","name":"Sân bay Melbourne","coordinates":{"lat":-37.669613,"lon":144.84978},"weight":2846,"searchable":true,"timezone":"Australia/Melbourne","en_city_name":"Melbourne","city_name":"Melbourne","city_code":"MEL","state_code":"VI","country_name":"Úc","country_code":"AU","cases":null,"city_cases":null,"country_cases":null,"index_strings":["mel","sân bay melbourne","tullamarine airport","melbourne","au","úc","australia"]},{"type":"country","code":"AT","name":"Áo","weight":2844,"searchable":true,"cases":null,"capital":{"code":"VIE","type":"city"},"index_strings":["at","áo","austria"]},{"type":"city","code":"SHA","name":"Thượng Hải","en_name":"Shanghai","coordinates":{"lat":31.230393,"lon":121.473704},"weight":2833,"searchable":true,"timezone":"Asia/Shanghai","state_code":null,"country_name":"Trung Quốc","country_code":"CN","main_airport_name":null,"cases":null,"index_strings":["sha","thượng hải","shanghai","cn","trung quốc","china"]},{"type":"country","code":"JO","name":"Jordan","weight":2831,"searchable":true,"cases":null,"capital":{"code":"AMM","type":"city"},"index_strings":["jo","jordan"]},{"type":"country","code":"IL","name":"Israel","weight":2794,"searchable":true,"cases":null,"capital":{"code":"JRS","type":"city"},"index_strings":["il","israel"]},{"type":"airport","code":"IEV","name":"Kiev Zhuliany International","coordinates":{"lat":50.401943,"lon":30.450832},"weight":2784,"searchable":true,"timezone":"Europe/Kiev","en_city_name":"Kyiv","city_name":"Kiev","city_code":"IEV","state_code":null,"country_name":"Ukraina","country_code":"UA","cases":null,"city_cases":null,"country_cases":null,"index_strings":["iev","kiev zhuliany international","kyiv international airport","kiev","kyiv","ua","ukraina","ukraine"]},{"type":"city","code":"AMM","name":"Amman","en_name":"Amman","coordinates":{"lat":31.722534,"lon":35.98932},"weight":2758,"searchable":true,"timezone":"Asia/Amman","state_code":null,"country_name":"Jordan","country_code":"JO","main_airport_name":"Amman Queen Alia International","cases":null,"index_strings":["amman queen alia international","amm","amman","jo","jordan"]},{"type":"airport","code":"AMM","name":"Amman Queen Alia International","coordinates":{"lat":31.722534,"lon":35.98932},"weight":2756,"searchable":false,"timezone":"Asia/Amman","en_city_name":"Amman","city_name":"Amman","city_code":"AMM","state_code":null,"country_name":"Jordan","country_code":"JO","cases":null,"city_cases":null,"country_cases":null,"index_strings":["amm","amman queen alia international","queen alia international airport","amman","jo","jordan"]},{"type":"country","code":"NZ","name":"New Zealand","weight":2742,"searchable":true,"cases":null,"capital":{"code":"WLG","type":"city"},"index_strings":["new","zealand","nz","new zealand"]},{"type":"country","code":"CZ","name":"Cộng hòa Séc","weight":2672,"searchable":true,"cases":null,"capital":{"code":"PRG","type":"city"},"index_strings":["cộng","hòa","séc","cz","cộng hòa séc","czech republic"]},{"type":"city","code":"DLI","name":"Dalat","en_name":"Dalat","coordinates":{"lat":11.749689,"lon":108.37603},"weight":2665,"searchable":true,"timezone":"Asia/Ho_Chi_Minh","state_code":null,"country_name":"Việt Nam","country_code":"VN","main_airport_name":"Da Lat Lien Khuong","cases":null,"index_strings":["da lat lien khuong","dli","dalat","vn","việt nam","vietnam"]},{"type":"airport","code":"DLI","name":"Da Lat Lien Khuong","coordinates":{"lat":11.749689,"lon":108.37603},"weight":2665,"searchable":false,"timezone":"Asia/Ho_Chi_Minh","en_city_name":"Dalat","city_name":"Dalat","city_code":"DLI","state_code":null,"country_name":"Việt Nam","country_code":"VN","cases":null,"city_cases":null,"country_cases":null,"index_strings":["dli","da lat lien khuong","lien khuong airport","dalat","vn","việt nam","vietnam"]},{"type":"country","code":"BE","name":"Bỉ","weight":2662,"searchable":true,"cases":null,"capital":{"code":"BRU","type":"city"},"index_strings":["be","bỉ","belgium"]},{"type":"airport","code":"SHA","name":"Shanghai Hongqiao International","coordinates":{"lat":31.196815,"lon":121.34197},"weight":2653,"searchable":true,"timezone":"Asia/Shanghai","en_city_name":"Shanghai","city_name":"Thượng Hải","city_code":"SHA","state_code":null,"country_name":"Trung Quốc","country_code":"CN","cases":null,"city_cases":null,"country_cases":null,"index_strings":["sha","shanghai hongqiao international","shanghai hongqiao international airport","thượng hải","shanghai","cn","trung quốc","china"]},{"type":"country","code":"GE","name":"Georgia","weight":2651,"searchable":true,"cases":null,"capital":{"code":"TBS","type":"city"},"index_strings":["ge","georgia"]},{"type":"city","code":"TLV","name":"Tel Aviv","en_name":"Tel Aviv-Yafo","coordinates":{"lat":32.000454,"lon":34.870743},"weight":2620,"searchable":true,"timezone":"Asia/Jerusalem","state_code":null,"country_name":"Israel","country_code":"IL","main_airport_name":null,"cases":null,"index_strings":["tlv","tel aviv","tel aviv-yafo","il","israel"]},{"type":"country","code":"ZA","name":"Nam Phi","weight":2617,"searchable":true,"cases":null,"capital":{"code":"PRY","type":"city"},"index_strings":["nam","phi","za","nam phi","south africa"]},{"type":"airport","code":"TLV","name":"Tel Aviv-Yafo Ben Gurion International","coordinates":{"lat":32.000454,"lon":34.870743},"weight":2616,"searchable":true,"timezone":"Asia/Jerusalem","en_city_name":"Tel Aviv-Yafo","city_name":"Tel Aviv","city_code":"TLV","state_code":null,"country_name":"Israel","country_code":"IL","cases":null,"city_cases":null,"country_cases":null,"index_strings":["tlv","tel aviv-yafo ben gurion international","ben gurion international airport","tel aviv","tel aviv-yafo","il","israel"]},{"type":"city","code":"HYD","name":"Hyderabad","en_name":"Hyderabad","coordinates":{"lat":17.385044,"lon":78.486671},"weight":2611,"searchable":true,"timezone":"Asia/Kolkata","state_code":null,"country_name":"Ấn Độ","country_code":"IN","main_airport_name":"Hyderabad Rajiv Gandhi International","cases":null,"index_strings":["hyderabad rajiv gandhi international","hyd","hyderabad","in","ấn độ","india"]},{"type":"airport","code":"HYD","name":"Hyderabad Rajiv Gandhi International","coordinates":{"lat":17.24,"lon":78.428055},"weight":2609,"searchable":false,"timezone":"Asia/Kolkata","en_city_name":"Hyderabad","city_name":"Hyderabad","city_code":"HYD","state_code":null,"country_name":"Ấn Độ","country_code":"IN","cases":null,"city_cases":null,"country_cases":null,"index_strings":["hyd","hyderabad rajiv gandhi international","rajiv gandhi international airport","hyderabad","in","ấn độ","india"]},{"type":"city","code":"COK","name":"Kochi","en_name":"Kochi","coordinates":{"lat":10.155644,"lon":76.39053},"weight":2607,"searchable":true,"timezone":"Asia/Kolkata","state_code":null,"country_name":"Ấn Độ","country_code":"IN","main_airport_name":"Kochi International","cases":null,"index_strings":["kochi international","cok","kochi","in","ấn độ","india"]},{"type":"airport","code":"COK","name":"Kochi International","coordinates":{"lat":10.155644,"lon":76.39053},"weight":2607,"searchable":false,"timezone":"Asia/Kolkata","en_city_name":"Kochi","city_name":"Kochi","city_code":"COK","state_code":null,"country_name":"Ấn Độ","country_code":"IN","cases":null,"city_cases":null,"country_cases":null,"index_strings":["cok","kochi international","cochin international airport","kochi","in","ấn độ","india"]},{"type":"city","code":"DUB","name":"Dublin","en_name":"Dublin","coordinates":{"lat":53.42728,"lon":-6.24357},"weight":2541,"searchable":true,"timezone":"Europe/Dublin","state_code":null,"country_name":"Ai-len","country_code":"IE","main_airport_name":"Dublin International","cases":null,"index_strings":["dublin international","dub","dublin","ie","ai-len","ireland"]},{"type":"city","code":"PRG","name":"Praha","en_name":"Prague","coordinates":{"lat":50.0878114,"lon":14.4204598},"weight":2541,"searchable":true,"timezone":"Europe/Prague","state_code":null,"country_name":"Cộng hòa Séc","country_code":"CZ","main_airport_name":"Prague Ruzyne","cases":null,"index_strings":["prague ruzyne","prg","praha","prague","cz","cộng hòa séc","czech republic"]},{"type":"airport","code":"DUB","name":"Dublin International","coordinates":{"lat":53.42728,"lon":-6.24357},"weight":2541,"searchable":false,"timezone":"Europe/Dublin","en_city_name":"Dublin","city_name":"Dublin","city_code":"DUB","state_code":null,"country_name":"Ai-len","country_code":"IE","cases":null,"city_cases":null,"country_cases":null,"index_strings":["dub","dublin international","dublin airport","dublin","ie","ai-len","ireland"]},{"type":"airport","code":"PRG","name":"Prague Ruzyne","coordinates":{"lat":50.10619,"lon":14.266638},"weight":2538,"searchable":false,"timezone":"Europe/Prague","en_city_name":"Prague","city_name":"Praha","city_code":"PRG","state_code":null,"country_name":"Cộng hòa Séc","country_code":"CZ","cases":null,"city_cases":null,"country_cases":null,"index_strings":["prg","prague ruzyne","vaclav havel airport prague","praha","prague","cz","cộng hòa séc","czech republic"]},{"type":"city","code":"PHL","name":"Philadelphia","en_name":"Philadelphia","coordinates":{"lat":39.952335,"lon":-75.163789},"weight":2503,"searchable":true,"timezone":"America/New_York","state_code":"PA","country_name":"Hoa Kỳ","country_code":"US","main_airport_name":null,"cases":null,"index_strings":["phl","philadelphia","us","hoa kỳ","united states"]},{"type":"airport","code":"PHL","name":"Philadelphia/Wilmington Int'l","coordinates":{"lat":39.87641,"lon":-75.2433},"weight":2489,"searchable":true,"timezone":"America/New_York","en_city_name":"Philadelphia","city_name":"Philadelphia","city_code":"PHL","state_code":"PA","country_name":"Hoa Kỳ","country_code":"US","cases":null,"city_cases":null,"country_cases":null,"index_strings":["phl","philadelphia/wilmington int'l","philadelphia international airport","philadelphia","us","hoa kỳ","united states"]},{"type":"city","code":"BRU","name":"Brussel","en_name":"Brussels","coordinates":{"lat":50.8503396,"lon":4.3517103},"weight":2475,"searchable":true,"timezone":"Europe/Brussels","state_code":null,"country_name":"Bỉ","country_code":"BE","main_airport_name":null,"cases":null,"index_strings":["bru","brussel","brussels","be","bỉ","belgium"]},{"type":"city","code":"CAS","name":"Casablanca","en_name":"Casablanca","coordinates":{"lat":33.533333,"lon":-7.583333},"weight":2469,"searchable":true,"timezone":"Africa/Casablanca","state_code":null,"country_name":"Ma-rốc","country_code":"MA","main_airport_name":null,"cases":null,"index_strings":["casablanca mohammed v","cas","casablanca","ma","ma-rốc","morocco"]},{"type":"airport","code":"BRU","name":"Brussels","coordinates":{"lat":50.89717,"lon":4.483602},"weight":2443,"searchable":true,"timezone":"Europe/Brussels","en_city_name":"Brussels","city_name":"Brussel","city_code":"BRU","state_code":null,"country_name":"Bỉ","country_code":"BE","cases":null,"city_cases":null,"country_cases":null,"index_strings":["bru","brussels","brussels airport","brussel","be","bỉ","belgium"]},{"type":"city","code":"VIE","name":"Vienna","en_name":"Vienna","coordinates":{"lat":48.2081743,"lon":16.3738189},"weight":2440,"searchable":true,"timezone":"Europe/Vienna","state_code":null,"country_name":"Áo","country_code":"AT","main_airport_name":"Sân bay quốc tế Wien","cases":null,"index_strings":["sân bay quốc tế wien","vie","vienna","at","áo","austria"]},{"type":"airport","code":"VIE","name":"Sân bay quốc tế Wien","coordinates":{"lat":48.11972,"lon":16.563583},"weight":2436,"searchable":false,"timezone":"Europe/Vienna","en_city_name":"Vienna","city_name":"Vienna","city_code":"VIE","state_code":null,"country_name":"Áo","country_code":"AT","cases":null,"city_cases":null,"country_cases":null,"index_strings":["vie","sân bay quốc tế wien","vienna international airport","vienna","at","áo","austria"]},{"type":"city","code":"LIS","name":"Lisbon","en_name":"Lisbon","coordinates":{"lat":38.706932,"lon":-9.1356321},"weight":2402,"searchable":true,"timezone":"Europe/Lisbon","state_code":null,"country_name":"Bồ Đào Nha","country_code":"PT","main_airport_name":"Sân bay Lisboa Portela","cases":null,"index_strings":["sân bay lisboa portela","lis","lisbon","pt","bồ đào nha","portugal"]},{"type":"airport","code":"LIS","name":"Sân bay Lisboa Portela","coordinates":{"lat":38.770042,"lon":-9.128165},"weight":2402,"searchable":false,"timezone":"Europe/Lisbon","en_city_name":"Lisbon","city_name":"Lisbon","city_code":"LIS","state_code":null,"country_name":"Bồ Đào Nha","country_code":"PT","cases":null,"city_cases":null,"country_cases":null,"index_strings":["lis","sân bay lisboa portela","lisbon portela airport","lisbon","pt","bồ đào nha","portugal"]},{"type":"city","code":"DPS","name":"Denpasar","en_name":"Denpasar","coordinates":{"lat":-8.74446,"lon":115.16331},"weight":2370,"searchable":true,"timezone":"Asia/Makassar","state_code":null,"country_name":"Indonesia","country_code":"ID","main_airport_name":"Denpasar-Bali Ngurah Rai","cases":null,"index_strings":["denpasar-bali ngurah rai","бали","bali","dps","denpasar","id","indonesia"]},{"type":"airport","code":"DPS","name":"Denpasar-Bali Ngurah Rai","coordinates":{"lat":-8.74446,"lon":115.16331},"weight":2370,"searchable":false,"timezone":"Asia/Makassar","en_city_name":"Denpasar","city_name":"Denpasar","city_code":"DPS","state_code":null,"country_name":"Indonesia","country_code":"ID","cases":null,"city_cases":null,"country_cases":null,"index_strings":["dps","denpasar-bali ngurah rai","ngurah rai international airport","denpasar","id","indonesia"]},{"type":"city","code":"BLR","name":"Bengaluru","en_name":"Bengaluru","coordinates":{"lat":13.198889,"lon":77.70556},"weight":2243,"searchable":true,"timezone":"Asia/Kolkata","state_code":null,"country_name":"Ấn Độ","country_code":"IN","main_airport_name":"Bengaluru Kempegowda International","cases":null,"index_strings":["bengaluru kempegowda international","blr","bengaluru","in","ấn độ","india"]},{"type":"airport","code":"BLR","name":"Bengaluru Kempegowda International","coordinates":{"lat":13.198889,"lon":77.70556},"weight":2243,"searchable":false,"timezone":"Asia/Kolkata","en_city_name":"Bengaluru","city_name":"Bengaluru","city_code":"BLR","state_code":null,"country_name":"Ấn Độ","country_code":"IN","cases":null,"city_cases":null,"country_cases":null,"index_strings":["blr","bengaluru kempegowda international","kempegowda international airport","bengaluru","in","ấn độ","india"]},{"type":"country","code":"KW","name":"Cô-oét","weight":2204,"searchable":true,"cases":null,"capital":{"code":"KWI","type":"city"},"index_strings":["kw","cô-oét","kuwait"]},{"type":"city","code":"KWI","name":"Thành phố Kuwait","en_name":"Kuwait","coordinates":{"lat":29.240116,"lon":47.971252},"weight":2204,"searchable":true,"timezone":"Asia/Kuwait","state_code":null,"country_name":"Cô-oét","country_code":"KW","main_airport_name":"Sân bay quốc tế Kuwait","cases":null,"index_strings":["sân bay quốc tế kuwait","kwi","thành phố kuwait","kuwait","kw","cô-oét"]},{"type":"airport","code":"KWI","name":"Sân bay quốc tế Kuwait","coordinates":{"lat":29.240116,"lon":47.971252},"weight":2204,"searchable":false,"timezone":"Asia/Kuwait","en_city_name":"Kuwait","city_name":"Thành phố Kuwait","city_code":"KWI","state_code":null,"country_name":"Cô-oét","country_code":"KW","cases":null,"city_cases":null,"country_cases":null,"index_strings":["kwi","sân bay quốc tế kuwait","kuwait international airport","thành phố kuwait","kuwait","kw","cô-oét"]},{"type":"city","code":"AYT","name":"Adalia","en_name":"Antalya","coordinates":{"lat":36.89928,"lon":30.80135},"weight":2170,"searchable":true,"timezone":"Europe/Istanbul","state_code":null,"country_name":"Thổ Nhĩ Kỳ","country_code":"TR","main_airport_name":"Antalya","cases":null,"index_strings":["antalya","ayt","adalia","tr","thổ nhĩ kỳ","turkey"]},{"type":"airport","code":"AYT","name":"Antalya","coordinates":{"lat":36.89928,"lon":30.80135},"weight":2170,"searchable":false,"timezone":"Europe/Istanbul","en_city_name":"Antalya","city_name":"Adalia","city_code":"AYT","state_code":null,"country_name":"Thổ Nhĩ Kỳ","country_code":"TR","cases":null,"city_cases":null,"country_cases":null,"index_strings":["ayt","antalya","antalya airport","adalia","tr","thổ nhĩ kỳ","turkey"]},{"type":"country","code":"NP","name":"Nepal","weight":2149,"searchable":true,"cases":null,"capital":{"code":"KTM","type":"city"},"index_strings":["np","nepal"]},{"type":"city","code":"YVR","name":"Vancouver","en_name":"Vancouver","coordinates":{"lat":49.261226,"lon":-123.1139268},"weight":2139,"searchable":true,"timezone":"America/Vancouver","state_code":"BC","country_name":"Canada","country_code":"CA","main_airport_name":null,"cases":null,"index_strings":["yvr","vancouver","ca","canada"]},{"type":"airport","code":"YVR","name":"Vancouver International","coordinates":{"lat":49.1947,"lon":-123.17919},"weight":2137,"searchable":true,"timezone":"America/Vancouver","en_city_name":"Vancouver","city_name":"Vancouver","city_code":"YVR","state_code":"BC","country_name":"Canada","country_code":"CA","cases":null,"city_cases":null,"country_cases":null,"index_strings":["yvr","vancouver international","vancouver international airport","vancouver","ca","canada"]},{"type":"city","code":"MSY","name":"New Orleans","en_name":"New Orleans","coordinates":{"lat":29.9647222,"lon":-90.0705556},"weight":2097,"searchable":true,"timezone":"America/Chicago","state_code":"LA","country_name":"Hoa Kỳ","country_code":"US","main_airport_name":null,"cases":null,"index_strings":["msy","new orleans","us","hoa kỳ","united states"]},{"type":"airport","code":"MSY","name":"New Orleans L. Armstrong Int'l","coordinates":{"lat":29.984564,"lon":-90.25639},"weight":2095,"searchable":true,"timezone":"America/Chicago","en_city_name":"New Orleans","city_name":"New Orleans","city_code":"MSY","state_code":"LA","country_name":"Hoa Kỳ","country_code":"US","cases":null,"city_cases":null,"country_cases":null,"index_strings":["msy","new orleans l. armstrong int'l","louis armstrong new orleans international airport","new orleans","us","hoa kỳ","united states"]},{"type":"country","code":"IQ","name":"I-rắc","weight":2092,"searchable":true,"cases":null,"capital":{"code":"BGW","type":"city"},"index_strings":["iq","i-rắc","iraq"]},{"type":"city","code":"PDX","name":"Portland","en_name":"Portland","coordinates":{"lat":45.588997,"lon":-122.5929},"weight":2084,"searchable":true,"timezone":"America/Los_Angeles","state_code":"OR","country_name":"Hoa Kỳ","country_code":"US","main_airport_name":"Portland International","cases":null,"index_strings":["portland international","pdx","portland","us","hoa kỳ","united states"]},{"type":"airport","code":"PDX","name":"Portland International","coordinates":{"lat":45.588997,"lon":-122.5929},"weight":2084,"searchable":false,"timezone":"America/Los_Angeles","en_city_name":"Portland","city_name":"Portland","city_code":"PDX","state_code":"OR","country_name":"Hoa Kỳ","country_code":"US","cases":null,"city_cases":null,"country_cases":null,"index_strings":["pdx","portland international","portland international airport","portland","us","hoa kỳ","united states"]},{"type":"city","code":"TBS","name":"Tbilisi","en_name":"Tbilisi","coordinates":{"lat":41.674065,"lon":44.958958},"weight":2027,"searchable":true,"timezone":"Asia/Tbilisi","state_code":null,"country_name":"Georgia","country_code":"GE","main_airport_name":"Sân bay quốc tế Tbilisi","cases":null,"index_strings":["sân bay quốc tế tbilisi","tbs","tbilisi","ge","georgia"]},{"type":"airport","code":"TBS","name":"Sân bay quốc tế Tbilisi","coordinates":{"lat":41.674065,"lon":44.958958},"weight":2027,"searchable":false,"timezone":"Asia/Tbilisi","en_city_name":"Tbilisi","city_name":"Tbilisi","city_code":"TBS","state_code":null,"country_name":"Georgia","country_code":"GE","cases":null,"city_cases":null,"country_cases":null,"index_strings":["tbs","sân bay quốc tế tbilisi","tbilisi international airport","tbilisi","ge","georgia"]},{"type":"country","code":"LK","name":"Sri Lanka","weight":2023,"searchable":true,"cases":null,"capital":{"code":"CMB","type":"city"},"index_strings":["lanka","sri","lk","sri lanka"]},{"type":"city","code":"LHE","name":"Lahore","en_name":"Lahore","coordinates":{"lat":31.520832,"lon":74.40278},"weight":2022,"searchable":true,"timezone":"Asia/Karachi","state_code":null,"country_name":"Pakistan","country_code":"PK","main_airport_name":"Lahore Allama Iqbal International","cases":null,"index_strings":["lahore allama iqbal international","lhe","lahore","pk","pakistan"]},{"type":"airport","code":"LHE","name":"Lahore Allama Iqbal International","coordinates":{"lat":31.520832,"lon":74.40278},"weight":2022,"searchable":false,"timezone":"Asia/Karachi","en_city_name":"Lahore","city_name":"Lahore","city_code":"LHE","state_code":null,"country_name":"Pakistan","country_code":"PK","cases":null,"city_cases":null,"country_cases":null,"index_strings":["lhe","lahore allama iqbal international","allama iqbal international airport","lahore","pk","pakistan"]},{"type":"city","code":"CCU","name":"Kolkata","en_name":"Kolkata","coordinates":{"lat":22.64531,"lon":88.43931},"weight":1991,"searchable":true,"timezone":"Asia/Kolkata","state_code":null,"country_name":"Ấn Độ","country_code":"IN","main_airport_name":"Kolkata/Calcutta Netaji Subhas Chandra","cases":null,"index_strings":["kolkata/calcutta netaji subhas chandra","ccu","kolkata","in","ấn độ","india"]},{"type":"airport","code":"CCU","name":"Kolkata/Calcutta Netaji Subhas Chandra","coordinates":{"lat":22.64531,"lon":88.43931},"weight":1991,"searchable":false,"timezone":"Asia/Kolkata","en_city_name":"Kolkata","city_name":"Kolkata","city_code":"CCU","state_code":null,"country_name":"Ấn Độ","country_code":"IN","cases":null,"city_cases":null,"country_cases":null,"index_strings":["ccu","kolkata/calcutta netaji subhas chandra","netaji subhas chandra bose airport","kolkata","in","ấn độ","india"]},{"type":"city","code":"GDL","name":"Guadalajara","en_name":"Guadalajara","coordinates":{"lat":20.525198,"lon":-103.29921},"weight":1988,"searchable":true,"timezone":"America/Mexico_City","state_code":null,"country_name":"Mexico","country_code":"MX","main_airport_name":"Guadalajara M. Hidalgo","cases":null,"index_strings":["guadalajara m. hidalgo","gdl","guadalajara","mx","mexico"]},{"type":"airport","code":"GDL","name":"Guadalajara M. Hidalgo","coordinates":{"lat":20.525198,"lon":-103.29921},"weight":1988,"searchable":false,"timezone":"America/Mexico_City","en_city_name":"Guadalajara","city_name":"Guadalajara","city_code":"GDL","state_code":null,"country_name":"Mexico","country_code":"MX","cases":null,"city_cases":null,"country_cases":null,"index_strings":["gdl","guadalajara m. hidalgo","don miguel hidal y costilla international airport","guadalajara","mx","mexico"]},{"type":"country","code":"NO","name":"Na Uy","weight":1987,"searchable":true,"cases":null,"capital":{"code":"OSL","type":"city"},"index_strings":["na","uy","no","na uy","norway"]},{"type":"city","code":"CCJ","name":"Kozhikode","en_name":"Kozhikode","coordinates":{"lat":11.14025,"lon":75.950584},"weight":1967,"searchable":true,"timezone":"Asia/Kolkata","state_code":null,"country_name":"Ấn Độ","country_code":"IN","main_airport_name":"Kozhikode International","cases":null,"index_strings":["kozhikode international","ccj","kozhikode","in","ấn độ","india"]},{"type":"airport","code":"CCJ","name":"Kozhikode International","coordinates":{"lat":11.14025,"lon":75.950584},"weight":1967,"searchable":false,"timezone":"Asia/Kolkata","en_city_name":"Kozhikode","city_name":"Kozhikode","city_code":"CCJ","state_code":null,"country_name":"Ấn Độ","country_code":"IN","cases":null,"city_cases":null,"country_cases":null,"index_strings":["ccj","kozhikode international","calicut international airport","kozhikode","in","ấn độ","india"]},{"type":"city","code":"CMB","name":"Colombo","en_name":"Colombo","coordinates":{"lat":6.927468,"lon":79.848358},"weight":1958,"searchable":true,"timezone":"Asia/Colombo","state_code":null,"country_name":"Sri Lanka","country_code":"LK","main_airport_name":"Colombo Bandaranaike International","cases":null,"index_strings":["colombo bandaranaike international","cmb","colombo","lk","sri lanka"]},{"type":"airport","code":"CMB","name":"Colombo Bandaranaike International","coordinates":{"lat":7.174112,"lon":79.8865},"weight":1957,"searchable":false,"timezone":"Asia/Colombo","en_city_name":"Colombo","city_name":"Colombo","city_code":"CMB","state_code":null,"country_name":"Sri Lanka","country_code":"LK","cases":null,"city_cases":null,"country_cases":null,"index_strings":["cmb","colombo bandaranaike international","bandaranaike international airport","colombo","lk","sri lanka"]},{"type":"country","code":"CU","name":"Cuba","weight":1922,"searchable":true,"cases":null,"capital":{"code":"HAV","type":"city"},"index_strings":["cu","cuba"]},{"type":"city","code":"KTM","name":"Kathmandu","en_name":"Kathmandu","coordinates":{"lat":27.699905,"lon":85.35657},"weight":1907,"searchable":true,"timezone":"Asia/Kathmandu","state_code":null,"country_name":"Nepal","country_code":"NP","main_airport_name":"Sân bay quốc tế Tribhuvan","cases":null,"index_strings":["sân bay quốc tế tribhuvan","ktm","kathmandu","np","nepal"]},{"type":"airport","code":"KTM","name":"Sân bay quốc tế Tribhuvan","coordinates":{"lat":27.699905,"lon":85.35657},"weight":1907,"searchable":false,"timezone":"Asia/Kathmandu","en_city_name":"Kathmandu","city_name":"Kathmandu","city_code":"KTM","state_code":null,"country_name":"Nepal","country_code":"NP","cases":null,"city_cases":null,"country_cases":null,"index_strings":["ktm","sân bay quốc tế tribhuvan","tribhuvan international airport","kathmandu","np","nepal"]},{"type":"country","code":"DK","name":"Đan Mạch","weight":1905,"searchable":true,"cases":null,"capital":{"code":"CPH","type":"city"},"index_strings":["mạch","đan","dk","đan mạch","denmark"]},{"type":"country","code":"PE","name":"Peru","weight":1894,"searchable":true,"cases":null,"capital":{"code":"LIM","type":"city"},"index_strings":["pe","peru"]},{"type":"country","code":"NG","name":"Nigeria","weight":1894,"searchable":true,"cases":null,"capital":{"code":"ABV","type":"city"},"index_strings":["ng","nigeria"]},{"type":"city","code":"ISB","name":"Islamabad","en_name":"Islamabad","coordinates":{"lat":33.609707,"lon":73.1051},"weight":1893,"searchable":true,"timezone":"Asia/Karachi","state_code":null,"country_name":"Pakistan","country_code":"PK","main_airport_name":"Islamabad International","cases":null,"index_strings":["islamabad international","isb","islamabad","pk","pakistan"]},{"type":"airport","code":"ISB","name":"Islamabad International","coordinates":{"lat":33.55429,"lon":72.83417},"weight":1893,"searchable":false,"timezone":"Asia/Karachi","en_city_name":"Islamabad","city_name":"Islamabad","city_code":"ISB","state_code":null,"country_name":"Pakistan","country_code":"PK","cases":null,"city_cases":null,"country_cases":null,"index_strings":["isb","islamabad international","islamabad international airport","islamabad","pk","pakistan"]},{"type":"country","code":"QA","name":"Qatar","weight":1889,"searchable":true,"cases":null,"capital":{"code":"DOH","type":"city"},"index_strings":["qa","qatar"]},{"type":"city","code":"DOH","name":"Doha","en_name":"Doha","coordinates":{"lat":25.267569,"lon":51.558067},"weight":1886,"searchable":true,"timezone":"Asia/Qatar","state_code":null,"country_name":"Qatar","country_code":"QA","main_airport_name":"Doha Hamad International","cases":null,"index_strings":["doha hamad international","doh","doha","qa","qatar"]},{"type":"airport","code":"DOH","name":"Doha Hamad International","coordinates":{"lat":25.267569,"lon":51.558067},"weight":1886,"searchable":false,"timezone":"Asia/Qatar","en_city_name":"Doha","city_name":"Doha","city_code":"DOH","state_code":null,"country_name":"Qatar","country_code":"QA","cases":null,"city_cases":null,"country_cases":null,"index_strings":["doh","doha hamad international","hamad international airport","doha","qa","qatar"]},{"type":"country","code":"HU","name":"Hungari","weight":1885,"searchable":true,"cases":null,"capital":{"code":"BUD","type":"city"},"index_strings":["hu","hungari","hungary"]},{"type":"country","code":"BD","name":"Bangladesh","weight":1877,"searchable":true,"cases":null,"capital":{"code":"DAC","type":"city"},"index_strings":["bd","bangladesh"]},{"type":"city","code":"SDQ","name":"Santo Domingo","en_name":"Santo Domingo","coordinates":{"lat":18.5,"lon":-69.9833333},"weight":1868,"searchable":true,"timezone":"America/Santo_Domingo","state_code":null,"country_name":"Cộng hòa Dominica","country_code":"DO","main_airport_name":null,"cases":null,"index_strings":["santo domingo las americas international","sdq","santo domingo","do","cộng hòa dominica","dominican republic"]},{"type":"airport","code":"SDQ","name":"Santo Domingo Las Americas International","coordinates":{"lat":18.430124,"lon":-69.67674},"weight":1867,"searchable":true,"timezone":"America/Santo_Domingo","en_city_name":"Santo Domingo","city_name":"Santo Domingo","city_code":"SDQ","state_code":null,"country_name":"Cộng hòa Dominica","country_code":"DO","cases":null,"city_cases":null,"country_cases":null,"index_strings":["sdq","santo domingo las americas international","las americas international airport","santo domingo","do","cộng hòa dominica","dominican republic"]},{"type":"city","code":"CAN","name":"Quảng Châu","en_name":"Guangzhou","coordinates":{"lat":23.387861,"lon":113.29734},"weight":1865,"searchable":true,"timezone":"Asia/Shanghai","state_code":null,"country_name":"Trung Quốc","country_code":"CN","main_airport_name":"Sân bay quốc tế Bạch Vân Quảng Châu","cases":null,"index_strings":["sân bay quốc tế bạch vân quảng châu","can","quảng châu","guangzhou","cn","trung quốc","china"]},{"type":"airport","code":"CAN","name":"Sân bay quốc tế Bạch Vân Quảng Châu","coordinates":{"lat":23.387861,"lon":113.29734},"weight":1865,"searchable":false,"timezone":"Asia/Shanghai","en_city_name":"Guangzhou","city_name":"Quảng Châu","city_code":"CAN","state_code":null,"country_name":"Trung Quốc","country_code":"CN","cases":null,"city_cases":null,"country_cases":null,"index_strings":["can","sân bay quốc tế bạch vân quảng châu","guangzhou baiyun international airport","quảng châu","guangzhou","cn","trung quốc","china"]},{"type":"city","code":"BUD","name":"Budapest","en_name":"Budapest","coordinates":{"lat":47.4984056,"lon":19.0407578},"weight":1829,"searchable":true,"timezone":"Europe/Budapest","state_code":null,"country_name":"Hungari","country_code":"HU","main_airport_name":"Budapest Liszt Ferenc International","cases":null,"index_strings":["budapest liszt ferenc international","bud","budapest","hu","hungari","hungary"]},{"type":"airport","code":"BUD","name":"Budapest Liszt Ferenc International","coordinates":{"lat":47.433037,"lon":19.261621},"weight":1829,"searchable":false,"timezone":"Europe/Budapest","en_city_name":"Budapest","city_name":"Budapest","city_code":"BUD","state_code":null,"country_name":"Hungari","country_code":"HU","cases":null,"city_cases":null,"country_cases":null,"index_strings":["bud","budapest liszt ferenc international","budapest ferenc liszt international airport","budapest","hu","hungari","hungary"]},{"type":"city","code":"AKL","name":"Auckland","en_name":"Auckland","coordinates":{"lat":-36.8484597,"lon":174.7633315},"weight":1794,"searchable":true,"timezone":"Pacific/Auckland","state_code":null,"country_name":"New Zealand","country_code":"NZ","main_airport_name":"Auckland International","cases":null,"index_strings":["auckland international","akl","auckland","nz","new zealand"]},{"type":"airport","code":"AKL","name":"Auckland International","coordinates":{"lat":-37.004787,"lon":174.78352},"weight":1793,"searchable":false,"timezone":"Pacific/Auckland","en_city_name":"Auckland","city_name":"Auckland","city_code":"AKL","state_code":null,"country_name":"New Zealand","country_code":"NZ","cases":null,"city_cases":null,"country_cases":null,"index_strings":["akl","auckland international","auckland airport","auckland","nz","new zealand"]},{"type":"city","code":"MSP","name":"Minneapolis","en_name":"Minneapolis","coordinates":{"lat":44.9799654,"lon":-93.2638361},"weight":1785,"searchable":true,"timezone":"America/Chicago","state_code":"MN","country_name":"Hoa Kỳ","country_code":"US","main_airport_name":null,"cases":null,"index_strings":["msp","minneapolis","us","hoa kỳ","united states"]},{"type":"airport","code":"MSP","name":"Minneapolis St Paul International","coordinates":{"lat":44.883015,"lon":-93.21092},"weight":1784,"searchable":true,"timezone":"America/Chicago","en_city_name":"Minneapolis","city_name":"Minneapolis","city_code":"MSP","state_code":"MN","country_name":"Hoa Kỳ","country_code":"US","cases":null,"city_cases":null,"country_cases":null,"index_strings":["msp","minneapolis st paul international","minneapolis-st. paul international airport","minneapolis","us","hoa kỳ","united states"]},{"type":"city","code":"AUH","name":"Abu Dhabi","en_name":"Abu Dhabi","coordinates":{"lat":24.4666667,"lon":54.3666667},"weight":1702,"searchable":true,"timezone":"Asia/Dubai","state_code":null,"country_name":"Các Tiểu V.quốc Ả Rập T.nhất","country_code":"AE","main_airport_name":"Sân bay quốc tế Abu Dhabi","cases":null,"index_strings":["sân bay quốc tế abu dhabi","auh","abu dhabi","ae","các tiểu v.quốc ả rập t.nhất","united arab emirates"]},{"type":"city","code":"DUS","name":"Düsseldorf","en_name":"Dusseldorf","coordinates":{"lat":51.2249429,"lon":6.7756524},"weight":1701,"searchable":true,"timezone":"Europe/Berlin","state_code":null,"country_name":"Đức","country_code":"DE","main_airport_name":null,"cases":null,"index_strings":["dus","düsseldorf","dusseldorf","de","đức","germany"]},{"type":"airport","code":"AUH","name":"Sân bay quốc tế Abu Dhabi","coordinates":{"lat":24.426912,"lon":54.645973},"weight":1701,"searchable":false,"timezone":"Asia/Dubai","en_city_name":"Abu Dhabi","city_name":"Abu Dhabi","city_code":"AUH","state_code":null,"country_name":"Các Tiểu V.quốc Ả Rập T.nhất","country_code":"AE","cases":null,"city_cases":null,"country_cases":null,"index_strings":["auh","sân bay quốc tế abu dhabi","abu dhabi international airport","abu dhabi","ae","các tiểu v.quốc ả rập t.nhất","united arab emirates"]},{"type":"airport","code":"DUS","name":"Duesseldorf International","coordinates":{"lat":51.278328,"lon":6.76558},"weight":1677,"searchable":true,"timezone":"Europe/Berlin","en_city_name":"Dusseldorf","city_name":"Düsseldorf","city_code":"DUS","state_code":null,"country_name":"Đức","country_code":"DE","cases":null,"city_cases":null,"country_cases":null,"index_strings":["dus","duesseldorf international","dusseldorf international airport","düsseldorf","dusseldorf","de","đức","germany"]},{"type":"city","code":"CPH","name":"Copenhagen","en_name":"Copenhagen","coordinates":{"lat":55.693403,"lon":12.583046},"weight":1660,"searchable":true,"timezone":"Europe/Copenhagen","state_code":null,"country_name":"Đan Mạch","country_code":"DK","main_airport_name":"Copenhagen Kastrup","cases":null,"index_strings":["copenhagen kastrup","cph","copenhagen","dk","đan mạch","denmark"]},{"type":"city","code":"AGP","name":"Málaga","en_name":"Malaga","coordinates":{"lat":36.7196484,"lon":-4.4200163},"weight":1657,"searchable":true,"timezone":"Europe/Madrid","state_code":null,"country_name":"Tây Ban Nha","country_code":"ES","main_airport_name":"Malaga","cases":null,"index_strings":["malaga","agp","málaga","es","tây ban nha","spain"]},{"type":"airport","code":"CPH","name":"Copenhagen Kastrup","coordinates":{"lat":55.62905,"lon":12.647601},"weight":1657,"searchable":false,"timezone":"Europe/Copenhagen","en_city_name":"Copenhagen","city_name":"Copenhagen","city_code":"CPH","state_code":null,"country_name":"Đan Mạch","country_code":"DK","cases":null,"city_cases":null,"country_cases":null,"index_strings":["cph","copenhagen kastrup","copenhagen airport","copenhagen","dk","đan mạch","denmark"]},{"type":"airport","code":"AGP","name":"Malaga","coordinates":{"lat":36.675182,"lon":-4.489616},"weight":1657,"searchable":false,"timezone":"Europe/Madrid","en_city_name":"Malaga","city_name":"Málaga","city_code":"AGP","state_code":null,"country_name":"Tây Ban Nha","country_code":"ES","cases":null,"city_cases":null,"country_cases":null,"index_strings":["agp","malaga","malaga airport","málaga","es","tây ban nha","spain"]},{"type":"city","code":"ZRH","name":"Zürich","en_name":"Zurich","coordinates":{"lat":47.367347,"lon":8.5500025},"weight":1654,"searchable":true,"timezone":"Europe/Zurich","state_code":null,"country_name":"Thụy Sĩ","country_code":"CH","main_airport_name":"Sân bay Zürich","cases":null,"index_strings":["sân bay zürich","zrh","zürich","zurich","ch","thụy sĩ","switzerland"]},{"type":"airport","code":"ZRH","name":"Sân bay Zürich","coordinates":{"lat":47.450603,"lon":8.561746},"weight":1654,"searchable":false,"timezone":"Europe/Zurich","en_city_name":"Zurich","city_name":"Zürich","city_code":"ZRH","state_code":null,"country_name":"Thụy Sĩ","country_code":"CH","cases":null,"city_cases":null,"country_cases":null,"index_strings":["zrh","sân bay zürich","zurich airport","zürich","zurich","ch","thụy sĩ","switzerland"]},{"type":"country","code":"JM","name":"Jamaica","weight":1647,"searchable":true,"cases":null,"capital":{"code":"KIN","type":"city"},"index_strings":["jm","jamaica"]},{"type":"city","code":"VCE","name":"Venice","en_name":"Venice","coordinates":{"lat":45.4343363,"lon":12.3387844},"weight":1646,"searchable":true,"timezone":"Europe/Rome","state_code":null,"country_name":"Ý","country_code":"IT","main_airport_name":null,"cases":null,"index_strings":["vce","venice","it","ý","italy"]},{"type":"country","code":"HR","name":"Croatia","weight":1644,"searchable":true,"cases":null,"capital":{"code":"ZAG","type":"city"},"index_strings":["hr","croatia"]},{"type":"airport","code":"VCE","name":"Venice Marco Polo","coordinates":{"lat":45.502285,"lon":12.337947},"weight":1628,"searchable":true,"timezone":"Europe/Rome","en_city_name":"Venice","city_name":"Venice","city_code":"VCE","state_code":null,"country_name":"Ý","country_code":"IT","cases":null,"city_cases":null,"country_cases":null,"index_strings":["vce","venice marco polo","venice marco polo airport","venice","it","ý","italy"]},{"type":"country","code":"CY","name":"Síp","weight":1600,"searchable":true,"cases":null,"capital":{"code":"ECN","type":"city"},"index_strings":["cy","síp","cyprus"]},{"type":"country","code":"KR","name":"Hàn Quốc","weight":1600,"searchable":true,"cases":null,"capital":{"code":"SEL","type":"city"},"index_strings":["hàn","quốc","kr","hàn quốc","south korea"]},{"type":"city","code":"FMY","name":"Fort Myers","en_name":"Fort Myers","coordinates":{"lat":26.640628,"lon":-81.8723084},"weight":1596,"searchable":true,"timezone":"America/New_York","state_code":"FL","country_name":"Hoa Kỳ","country_code":"US","main_airport_name":null,"cases":null,"index_strings":["fort myers southwest florida reg","fmy","fort myers","us","hoa kỳ","united states"]},{"type":"city","code":"MAN","name":"Manchester","en_name":"Manchester","coordinates":{"lat":53.4807125,"lon":-2.2343765},"weight":1592,"searchable":true,"timezone":"Europe/London","state_code":null,"country_name":"Vương quốc Anh","country_code":"GB","main_airport_name":"Manchester","cases":null,"index_strings":["manchester","man","gb","vương quốc anh","united kingdom"]},{"type":"airport","code":"MAN","name":"Manchester","coordinates":{"lat":53.362907,"lon":-2.273354},"weight":1592,"searchable":false,"timezone":"Europe/London","en_city_name":"Manchester","city_name":"Manchester","city_code":"MAN","state_code":null,"country_name":"Vương quốc Anh","country_code":"GB","cases":null,"city_cases":null,"country_cases":null,"index_strings":["man","manchester","manchester airport","gb","vương quốc anh","united kingdom"]},{"type":"city","code":"WAW","name":"Nowy Dwór Mazowiecki","en_name":"Warsaw","coordinates":{"lat":52.170906,"lon":20.97329},"weight":1581,"searchable":true,"timezone":"Europe/Warsaw","state_code":null,"country_name":"Ba Lan","country_code":"PL","main_airport_name":null,"cases":null,"index_strings":["waw","nowy dwór mazowiecki","warsaw","pl","ba lan","poland"]},{"type":"airport","code":"WAW","name":"Warsaw Frederic Chopin","coordinates":{"lat":52.170906,"lon":20.97329},"weight":1581,"searchable":true,"timezone":"Europe/Warsaw","en_city_name":"Warsaw","city_name":"Nowy Dwór Mazowiecki","city_code":"WAW","state_code":null,"country_name":"Ba Lan","country_code":"PL","cases":null,"city_cases":null,"country_cases":null,"index_strings":["waw","warsaw frederic chopin","frederic chopin airport","nowy dwór mazowiecki","warsaw","pl","ba lan","poland"]},{"type":"city","code":"TRV","name":"Thiruvananthapuram","en_name":"Thiruvananthapuram","coordinates":{"lat":8.476126,"lon":76.91907},"weight":1573,"searchable":true,"timezone":"Asia/Kolkata","state_code":null,"country_name":"Ấn Độ","country_code":"IN","main_airport_name":"Thiruvananthapuram International","cases":null,"index_strings":["thiruvananthapuram international","trv","thiruvananthapuram","in","ấn độ","india"]},{"type":"airport","code":"TRV","name":"Thiruvananthapuram International","coordinates":{"lat":8.476126,"lon":76.91907},"weight":1573,"searchable":false,"timezone":"Asia/Kolkata","en_city_name":"Thiruvananthapuram","city_name":"Thiruvananthapuram","city_code":"TRV","state_code":null,"country_name":"Ấn Độ","country_code":"IN","cases":null,"city_cases":null,"country_cases":null,"index_strings":["trv","thiruvananthapuram international","trivandrum international airport","thiruvananthapuram","in","ấn độ","india"]},{"type":"city","code":"THR","name":"Tehran","en_name":"Tehran","coordinates":{"lat":35.6961111,"lon":51.4230556},"weight":1562,"searchable":true,"timezone":"Asia/Tehran","state_code":null,"country_name":"Iran","country_code":"IR","main_airport_name":null,"cases":null,"index_strings":["thr","tehran","ir","iran"]},{"type":"city","code":"AMD","name":"Ahmedabad","en_name":"Ahmedabad","coordinates":{"lat":23.06639,"lon":72.62417},"weight":1552,"searchable":true,"timezone":"Asia/Kolkata","state_code":null,"country_name":"Ấn Độ","country_code":"IN","main_airport_name":"Sân bay quốc tế Sardar Vallabhbhai Patel","cases":null,"index_strings":["sân bay quốc tế sardar vallabhbhai patel","amd","ahmedabad","in","ấn độ","india"]},{"type":"airport","code":"AMD","name":"Sân bay quốc tế Sardar Vallabhbhai Patel","coordinates":{"lat":23.06639,"lon":72.62417},"weight":1552,"searchable":false,"timezone":"Asia/Kolkata","en_city_name":"Ahmedabad","city_name":"Ahmedabad","city_code":"AMD","state_code":null,"country_name":"Ấn Độ","country_code":"IN","cases":null,"city_cases":null,"country_cases":null,"index_strings":["amd","sân bay quốc tế sardar vallabhbhai patel","ahmedabad airport","ahmedabad","in","ấn độ","india"]},{"type":"country","code":"EC","name":"Ecuador","weight":1543,"searchable":true,"cases":null,"capital":{"code":"UIO","type":"city"},"index_strings":["ec","ecuador"]},{"type":"country","code":"CR","name":"Costa Rica","weight":1541,"searchable":true,"cases":null,"capital":{"code":"SJO","type":"city"},"index_strings":["costa","rica","cr","costa rica"]},{"type":"city","code":"GOI","name":"Goa","en_name":"Goa","coordinates":{"lat":15.384534,"lon":73.83983},"weight":1524,"searchable":true,"timezone":"Asia/Kolkata","state_code":null,"country_name":"Ấn Độ","country_code":"IN","main_airport_name":"Goa Dabolim","cases":null,"index_strings":["goa dabolim","goi","goa","in","ấn độ","india"]},{"type":"airport","code":"GOI","name":"Goa Dabolim","coordinates":{"lat":15.384534,"lon":73.83983},"weight":1523,"searchable":false,"timezone":"Asia/Kolkata","en_city_name":"Goa","city_name":"Goa","city_code":"GOI","state_code":null,"country_name":"Ấn Độ","country_code":"IN","cases":null,"city_cases":null,"country_cases":null,"index_strings":["goi","goa dabolim","dabolim airport","goa","in","ấn độ","india"]},{"type":"city","code":"VCS","name":"Côn Đảo","en_name":"Con Dao","coordinates":{"lat":10.371389,"lon":106.63333},"weight":1512,"searchable":true,"timezone":"Asia/Ho_Chi_Minh","state_code":null,"country_name":"Việt Nam","country_code":"VN","main_airport_name":"Con Dao Island Co Ong","cases":null,"index_strings":["con dao island co ong","vcs","côn đảo","con dao","vn","việt nam","vietnam"]},{"type":"airport","code":"VCS","name":"Con Dao Island Co Ong","coordinates":{"lat":10.371389,"lon":106.63333},"weight":1512,"searchable":false,"timezone":"Asia/Ho_Chi_Minh","en_city_name":"Con Dao","city_name":"Côn Đảo","city_code":"VCS","state_code":null,"country_name":"Việt Nam","country_code":"VN","cases":null,"city_cases":null,"country_cases":null,"index_strings":["vcs","con dao island co ong","con dao","côn đảo","vn","việt nam","vietnam"]},{"type":"airport","code":"BWI","name":"Baltimore Washington Int'l","coordinates":{"lat":39.179527,"lon":-76.66894},"weight":1498,"searchable":false,"timezone":"America/New_York","en_city_name":"Baltimore","city_name":null,"city_code":"BWI","state_code":"MD","country_name":"Hoa Kỳ","country_code":"US","cases":null,"city_cases":null,"country_cases":null,"index_strings":["bwi","baltimore washington int'l","baltimore/wash international thurgood marshall airport","baltimore","us","hoa kỳ","united states"]},{"type":"city","code":"KHI","name":"Karachi","en_name":"Karachi","coordinates":{"lat":24.899986,"lon":67.16828},"weight":1494,"searchable":true,"timezone":"Asia/Karachi","state_code":null,"country_name":"Pakistan","country_code":"PK","main_airport_name":"Karachi Quaid-e-Azam Int'l","cases":null,"index_strings":["karachi quaid-e-azam int'l","khi","karachi","pk","pakistan"]},{"type":"airport","code":"KHI","name":"Karachi Quaid-e-Azam Int'l","coordinates":{"lat":24.899986,"lon":67.16828},"weight":1494,"searchable":false,"timezone":"Asia/Karachi","en_city_name":"Karachi","city_name":"Karachi","city_code":"KHI","state_code":null,"country_name":"Pakistan","country_code":"PK","cases":null,"city_cases":null,"country_cases":null,"index_strings":["khi","karachi quaid-e-azam int'l","jinnah international airport","karachi","pk","pakistan"]},{"type":"city","code":"PMI","name":"Palma","en_name":"Palma Mallorca","coordinates":{"lat":39.547653,"lon":2.730388},"weight":1491,"searchable":true,"timezone":"Europe/Madrid","state_code":null,"country_name":"Tây Ban Nha","country_code":"ES","main_airport_name":"Sân bay Palma de Mallorca","cases":null,"index_strings":["sân bay palma de mallorca","pmi","palma","palma mallorca","es","tây ban nha","spain"]},{"type":"airport","code":"PMI","name":"Sân bay Palma de Mallorca","coordinates":{"lat":39.547653,"lon":2.730388},"weight":1491,"searchable":false,"timezone":"Europe/Madrid","en_city_name":"Palma Mallorca","city_name":"Palma","city_code":"PMI","state_code":null,"country_name":"Tây Ban Nha","country_code":"ES","cases":null,"city_cases":null,"country_cases":null,"index_strings":["pmi","sân bay palma de mallorca","palma de mallorca airport","palma","palma mallorca","es","tây ban nha","spain"]},{"type":"city","code":"LIM","name":"Lima","en_name":"Lima","coordinates":{"lat":-12.019421,"lon":-77.107666},"weight":1488,"searchable":true,"timezone":"America/Lima","state_code":null,"country_name":"Peru","country_code":"PE","main_airport_name":"Sân bay quốc tế Jorge Chávez","cases":null,"index_strings":["sân bay quốc tế jorge chávez","lim","lima","pe","peru"]},{"type":"airport","code":"LIM","name":"Sân bay quốc tế Jorge Chávez","coordinates":{"lat":-12.019421,"lon":-77.107666},"weight":1488,"searchable":false,"timezone":"America/Lima","en_city_name":"Lima","city_name":"Lima","city_code":"LIM","state_code":null,"country_name":"Peru","country_code":"PE","cases":null,"city_cases":null,"country_cases":null,"index_strings":["lim","sân bay quốc tế jorge chávez","jorge chavez international airport","lima","pe","peru"]},{"type":"city","code":"BWI","name":"Baltimore","en_name":"Baltimore","coordinates":{"lat":39.286389,"lon":-76.615},"weight":1482,"searchable":true,"timezone":"America/New_York","state_code":"MD","country_name":"United States","country_code":"US","main_airport_name":"Baltimore Washington Int'l","cases":null,"index_strings":["baltimore washington int'l","bwi","baltimore","us","united states"]},{"type":"city","code":"LED","name":"Saint Petersburg","en_name":"Saint Petersburg","coordinates":{"lat":59.939039,"lon":30.315785},"weight":1477,"searchable":true,"timezone":"Europe/Moscow","state_code":null,"country_name":"Nga","country_code":"RU","main_airport_name":"St Petersburg Pulkovo","cases":null,"index_strings":["st petersburg pulkovo","sankt petersburg","st petersburg","leningrad","ленинград","питер","спб","led","saint petersburg","ru","nga","russia"]},{"type":"airport","code":"LED","name":"St Petersburg Pulkovo","coordinates":{"lat":59.806084,"lon":30.3083},"weight":1476,"searchable":false,"timezone":"Europe/Moscow","en_city_name":"Saint Petersburg","city_name":"Saint Petersburg","city_code":"LED","state_code":null,"country_name":"Nga","country_code":"RU","cases":null,"city_cases":null,"country_cases":null,"index_strings":["led","st petersburg pulkovo","pulkovo airport","saint petersburg","ru","nga","russia"]},{"type":"country","code":"OM","name":"Oman","weight":1475,"searchable":true,"cases":null,"capital":{"code":"MCT","type":"city"},"index_strings":["om","oman"]},{"type":"city","code":"CLT","name":"Charlotte","en_name":"Charlotte","coordinates":{"lat":35.2270869,"lon":-80.8431267},"weight":1466,"searchable":true,"timezone":"America/New_York","state_code":"NC","country_name":"Hoa Kỳ","country_code":"US","main_airport_name":"Charlotte Douglas","cases":null,"index_strings":["charlotte douglas","clt","charlotte","us","hoa kỳ","united states"]},{"type":"airport","code":"CLT","name":"Charlotte Douglas","coordinates":{"lat":35.219166,"lon":-80.93584},"weight":1466,"searchable":false,"timezone":"America/New_York","en_city_name":"Charlotte","city_name":"Charlotte","city_code":"CLT","state_code":"NC","country_name":"Hoa Kỳ","country_code":"US","cases":null,"city_cases":null,"country_cases":null,"index_strings":["clt","charlotte douglas","charlotte douglas international airport","charlotte","us","hoa kỳ","united states"]},{"type":"airport","code":"THR","name":"Tehran Mehrabad International","coordinates":{"lat":35.691532,"lon":51.32187},