[{"weight":291166,"index_strings":["bkk","bangkok","thailand","th"],"code":"BKK","country_name":"Thailand","timezone":"Asia\/Bangkok","searchable":true,"country_code":"TH","coordinates":{"lat":13.7234186,"lon":100.4762319},"type":"city","name":"Bangkok"},{"country_name":"Thailand","weight":284282,"type":"airport","code":"BKK","searchable":true,"index_strings":["bkk","suvarnabhumi airport","bangkok","thailand","th"],"coordinates":{"lat":13.693062,"lon":100.752045},"city_code":"BKK","city_name":"Bangkok","timezone":"Asia\/Bangkok","country_code":"TH","name":"Suvarnabhumi Airport"},{"weight":229112,"index_strings":["ist","istanbul","turkey","tr"],"code":"IST","country_name":"Turkey","timezone":"Europe\/Istanbul","searchable":true,"country_code":"TR","coordinates":{"lat":40.976665,"lon":28.815277},"type":"city","name":"Istanbul"},{"country_name":"Turkey","weight":227384,"type":"airport","code":"IST","searchable":true,"index_strings":["ist","istanbul ataturk airport","istanbul","turkey","tr"],"coordinates":{"lat":40.976665,"lon":28.815277},"city_code":"IST","city_name":"Istanbul","timezone":"Europe\/Istanbul","country_code":"TR","name":"Istanbul Ataturk Airport"},{"weight":221065,"index_strings":["lax","los angeles","united states","us"],"code":"LAX","country_name":"United States","timezone":"America\/Los_Angeles","searchable":true,"country_code":"US","coordinates":{"lat":34.0522342,"lon":-118.2436849},"type":"city","name":"Los Angeles"},{"country_name":"United States","weight":221046,"type":"airport","code":"LAX","searchable":true,"coordinates":{"lat":33.943398,"lon":-118.40828},"index_strings":["lax","los angeles international airport","los angeles","united states","us"],"city_code":"LAX","city_name":"Los Angeles","state_code":"CA","country_code":"US","name":"Los Angeles International Airport","timezone":"America\/Los_Angeles"},{"weight":181450,"index_strings":["dxb","dubai","united arab emirates","ae"],"code":"DXB","country_name":"United Arab Emirates","timezone":"Asia\/Dubai","searchable":true,"country_code":"AE","coordinates":{"lat":25.2644444,"lon":55.3116667},"type":"city","name":"Dubai"},{"country_name":"United Arab Emirates","weight":179906,"type":"airport","code":"DXB","searchable":true,"index_strings":["dxb","dubai airport","dubai","united arab emirates","ae"],"coordinates":{"lat":25.248665,"lon":55.352917},"city_code":"DXB","city_name":"Dubai","timezone":"Asia\/Dubai","country_code":"AE","name":"Dubai Airport"},{"weight":165444,"index_strings":["las","las vegas","united states","us"],"code":"LAS","country_name":"United States","timezone":"America\/Los_Angeles","searchable":true,"country_code":"US","coordinates":{"lat":36.114646,"lon":-115.172816},"type":"city","name":"Las Vegas"},{"country_name":"United States","weight":165407,"type":"airport","code":"LAS","searchable":true,"coordinates":{"lat":36.086945,"lon":-115.1486},"index_strings":["las","mccarran international airport","las vegas","united states","us"],"city_code":"LAS","city_name":"Las Vegas","state_code":"NV","country_code":"US","name":"McCarran International Airport","timezone":"America\/Los_Angeles"},{"weight":144071,"index_strings":["mia","miami","united states","us"],"code":"MIA","country_name":"United States","timezone":"America\/New_York","searchable":true,"country_code":"US","coordinates":{"lat":25.7889689,"lon":-80.2264393},"type":"city","name":"Miami"},{"country_name":"United States","weight":144055,"type":"airport","code":"MIA","searchable":true,"coordinates":{"lat":25.796,"lon":-80.27824},"index_strings":["mia","miami international airport","miami","united states","us"],"city_code":"MIA","city_name":"Miami","state_code":"FL","country_code":"US","name":"Miami International Airport","timezone":"America\/New_York"},{"weight":139221,"index_strings":["orl","orlando","united states","us"],"code":"ORL","country_name":"United States","timezone":"America\/New_York","searchable":true,"country_code":"US","coordinates":{"lat":28.533611,"lon":-81.386667},"type":"city","name":"Orlando"},{"weight":121432,"index_strings":["indira gandhi international airport","del","delhi","india","in"],"code":"DEL","country_name":"India","timezone":"Asia\/Kolkata","searchable":true,"country_code":"IN","coordinates":{"lat":28.556555,"lon":77.10079},"type":"city","name":"Delhi"},{"weight":114714,"index_strings":["chi","chicago","united states","us"],"code":"CHI","country_name":"United States","timezone":"America\/Chicago","searchable":true,"country_code":"US","coordinates":{"lat":41.8781136,"lon":-87.6297982},"type":"city","name":"Chicago"},{"weight":102960,"index_strings":["ninoy aquino international airport","mnl","manila","philippines","ph"],"code":"MNL","country_name":"Philippines","timezone":"Asia\/Manila","searchable":true,"country_code":"PH","coordinates":{"lat":14.5995124,"lon":120.9842195},"type":"city","name":"Manila"},{"weight":102805,"index_strings":["san francisco international airport","sfo","san francisco","united states","us"],"code":"SFO","country_name":"United States","timezone":"America\/Los_Angeles","searchable":true,"country_code":"US","coordinates":{"lat":37.7749295,"lon":-122.4194155},"type":"city","name":"San Francisco"},{"weight":100932,"index_strings":["barcelona-el prat airport","bcn","barcelona","spain","es"],"code":"BCN","country_name":"Spain","timezone":"Europe\/Madrid","searchable":true,"country_code":"ES","coordinates":{"lat":41.387917,"lon":2.1699187},"type":"city","name":"Barcelona"},{"weight":90037,"index_strings":["cairo international airport","cai","cairo","egypt","eg"],"code":"CAI","country_name":"Egypt","timezone":"Africa\/Cairo","searchable":true,"country_code":"EG","coordinates":{"lat":30.120106,"lon":31.40647},"type":"city","name":"Cairo"},{"weight":90020,"index_strings":["amsterdam airport schiphol","ams","amsterdam","netherlands","nl"],"code":"AMS","country_name":"Netherlands","timezone":"Europe\/Amsterdam","searchable":true,"country_code":"NL","coordinates":{"lat":52.3730556,"lon":4.8922222},"type":"city","name":"Amsterdam"},{"weight":82660,"index_strings":["бомбей","bombay","chhatrapati shivaji international airport","bom","mumbai","india","in"],"code":"BOM","country_name":"India","timezone":"Asia\/Kolkata","searchable":true,"country_code":"IN","coordinates":{"lat":19.095509,"lon":72.87497},"type":"city","name":"Mumbai"},{"weight":82632,"index_strings":["changi international airport","sin","singapore","sg"],"code":"SIN","country_name":"Singapore","timezone":"Asia\/Singapore","searchable":true,"country_code":"SG","coordinates":{"lat":1.2894365,"lon":103.8499802},"type":"city","name":"Singapore"},{"weight":79034,"index_strings":["miami","майами","迈阿密","fll","fort lauderdale","united states","us"],"code":"FLL","country_name":"United States","timezone":"America\/New_York","searchable":true,"country_code":"US","coordinates":{"lat":26.1223084,"lon":-80.14337860000001},"type":"city","name":"Fort Lauderdale"},{"country_name":"United States","weight":79009,"type":"airport","code":"FLL","searchable":true,"coordinates":{"lat":26.071491,"lon":-80.14490499999999},"index_strings":["fll","fort lauderdale-hollywood international airport","fort lauderdale","united states","us"],"city_code":"FLL","city_name":"Fort Lauderdale","state_code":"FL","country_code":"US","name":"Fort Lauderdale-Hollywood International Airport","timezone":"America\/New_York"},{"weight":78660,"index_strings":["kul","kuala lumpur","malaysia","my"],"code":"KUL","country_name":"Malaysia","timezone":"Asia\/Kuala_Lumpur","searchable":true,"country_code":"MY","coordinates":{"lat":3.139003,"lon":101.686855},"type":"city","name":"Kuala Lumpur"},{"country_name":"Malaysia","weight":77010,"type":"airport","code":"KUL","searchable":true,"index_strings":["kul","kuala lumpur international airport","kuala lumpur","malaysia","my"],"coordinates":{"lat":2.755672,"lon":101.70539},"city_code":"KUL","city_name":"Kuala Lumpur","timezone":"Asia\/Kuala_Lumpur","country_code":"MY","name":"Kuala Lumpur International Airport"},{"weight":76889,"index_strings":["hkg","hong kong","hk"],"code":"HKG","country_name":"Hong Kong","timezone":"Asia\/Hong_Kong","searchable":true,"country_code":"HK","coordinates":{"lat":22.2478599,"lon":114.2033843},"type":"city","name":"Hong Kong"},{"country_name":"Hong Kong","weight":76879,"type":"airport","code":"HKG","searchable":true,"index_strings":["hkg","hong kong international airport","hong kong","hk"],"coordinates":{"lat":22.315248,"lon":113.93649},"city_code":"HKG","city_name":"Hong Kong","timezone":"Asia\/Hong_Kong","country_code":"HK","name":"Hong Kong International Airport"},{"country_name":"United States","weight":74749,"type":"airport","code":"DFW","searchable":true,"coordinates":{"lat":32.89746,"lon":-97.036125},"index_strings":["dfw","dallas\/fort worth international airport","dallas","united states","us"],"city_code":"DFW","city_name":"Dallas","state_code":"TX","country_code":"US","name":"Dallas\/Fort Worth International Airport","timezone":"America\/Chicago"},{"weight":74639,"index_strings":["dfw","dallas","united states","us"],"code":"DFW","country_name":"United States","timezone":"America\/Chicago","searchable":true,"country_code":"US","coordinates":{"lat":32.802955,"lon":-96.76992300000001},"type":"city","name":"Dallas"},{"weight":73152,"index_strings":["atl","atlanta","united states","us"],"code":"ATL","country_name":"United States","timezone":"America\/New_York","searchable":true,"country_code":"US","coordinates":{"lat":33.7489954,"lon":-84.3879824},"type":"city","name":"Atlanta"},{"country_name":"United States","weight":73141,"type":"airport","code":"ATL","searchable":true,"coordinates":{"lat":33.640068,"lon":-84.44403},"index_strings":["atl","hartsfield-jackson atlanta international airport","atlanta","united states","us"],"city_code":"ATL","city_name":"Atlanta","state_code":"GA","country_code":"US","name":"Hartsfield-Jackson Atlanta International Airport","timezone":"America\/New_York"},{"weight":67127,"index_strings":["mad","madrid","spain","es"],"code":"MAD","country_name":"Spain","timezone":"Europe\/Madrid","searchable":true,"country_code":"ES","coordinates":{"lat":40.4166909,"lon":-3.7003454},"type":"city","name":"Madrid"},{"country_name":"Spain","weight":67104,"type":"airport","code":"MAD","searchable":true,"index_strings":["mad","adolfo suarez madrid-barajas airport","madrid","spain","es"],"coordinates":{"lat":40.46515,"lon":-3.570209},"city_code":"MAD","city_name":"Madrid","timezone":"Europe\/Madrid","country_code":"ES","name":"Adolfo Suarez Madrid-Barajas Airport"},{"weight":66708,"index_strings":["bos","boston","united states","us"],"code":"BOS","country_name":"United States","timezone":"America\/New_York","searchable":true,"country_code":"US","coordinates":{"lat":42.3584308,"lon":-71.0597732},"type":"city","name":"Boston"},{"country_name":"United States","weight":66699,"type":"airport","code":"BOS","searchable":true,"coordinates":{"lat":42.36646,"lon":-71.02018},"index_strings":["bos","logan international airport","boston","united states","us"],"city_code":"BOS","city_name":"Boston","state_code":"MA","country_code":"US","name":"Logan International Airport","timezone":"America\/New_York"},{"weight":61618,"index_strings":["cancun international airport","cun","cancun","mexico","mx"],"code":"CUN","country_name":"Mexico","timezone":"America\/Cancun","searchable":true,"country_code":"MX","coordinates":{"lat":21.040457,"lon":-86.87443500000001},"type":"city","name":"Cancun"},{"weight":60747,"index_strings":["fra","frankfurt","germany","de"],"code":"FRA","country_name":"Germany","timezone":"Europe\/Berlin","searchable":true,"country_code":"DE","coordinates":{"lat":50.050735,"lon":8.570773000000001},"type":"city","name":"Frankfurt"},{"weight":60462,"index_strings":["tacoma","такома","塔科马","sea","seattle","united states","us"],"code":"SEA","country_name":"United States","timezone":"America\/Los_Angeles","searchable":true,"country_code":"US","coordinates":{"lat":47.6062095,"lon":-122.3320708},"type":"city","name":"Seattle"},{"country_name":"Germany","weight":60453,"type":"airport","code":"FRA","searchable":true,"index_strings":["fra","frankfurt airport","frankfurt","germany","de"],"coordinates":{"lat":50.050735,"lon":8.570773000000001},"city_code":"FRA","city_name":"Frankfurt","timezone":"Europe\/Berlin","country_code":"DE","name":"Frankfurt Airport"},{"country_name":"United States","weight":60350,"type":"airport","code":"SEA","searchable":true,"coordinates":{"lat":47.44384,"lon":-122.301735},"index_strings":["sea","seattle-tacoma international airport","seattle","united states","us"],"city_code":"SEA","city_name":"Seattle","state_code":"WA","country_code":"US","name":"Seattle-Tacoma International Airport","timezone":"America\/Los_Angeles"},{"weight":59643,"index_strings":["hou","houston","united states","us"],"code":"HOU","country_name":"United States","timezone":"America\/Chicago","searchable":true,"country_code":"US","coordinates":{"lat":29.762778,"lon":-95.383056},"type":"city","name":"Houston"},{"weight":59406,"index_strings":["den","denver","united states","us"],"code":"DEN","country_name":"United States","timezone":"America\/Denver","searchable":true,"country_code":"US","coordinates":{"lat":39.7391536,"lon":-104.9847034},"type":"city","name":"Denver"},{"country_name":"United States","weight":59340,"type":"airport","code":"DEN","searchable":true,"coordinates":{"lat":39.84939,"lon":-104.672844},"index_strings":["den","denver international airport","denver","united states","us"],"city_code":"DEN","city_name":"Denver","state_code":"CO","country_code":"US","name":"Denver International Airport","timezone":"America\/Denver"},{"weight":59296,"index_strings":["sydney (kingsford smith) airport","syd","sydney","australia","au"],"code":"SYD","country_name":"Australia","timezone":"Australia\/Sydney","searchable":true,"country_code":"AU","coordinates":{"lat":-33.8689009,"lon":151.2070914},"type":"city","name":"Sydney"},{"weight":59180,"index_strings":["king abdulaziz international airport","jed","jeddah","saudi arabia","sa"],"code":"JED","country_name":"Saudi Arabia","timezone":"Asia\/Riyadh","searchable":true,"country_code":"SA","coordinates":{"lat":21.670233,"lon":39.150578},"type":"city","name":"Jeddah"},{"weight":57304,"index_strings":["honolulu international airport","hnl","honolulu","united states","us"],"code":"HNL","country_name":"United States","timezone":"Pacific\/Honolulu","searchable":true,"country_code":"US","coordinates":{"lat":21.3069444,"lon":-157.8583333},"type":"city","name":"Honolulu"},{"country_name":"United States","weight":57271,"type":"airport","code":"HOU","searchable":true,"coordinates":{"lat":29.654512,"lon":-95.277016},"index_strings":["hou","william p. hobby airport","houston","united states","us"],"city_code":"HOU","city_name":"Houston","state_code":"TX","country_code":"US","name":"William P. Hobby Airport","timezone":"America\/Chicago"},{"weight":56495,"index_strings":["phuket international airport","hkt","phuket","thailand","th"],"code":"HKT","country_name":"Thailand","timezone":"Asia\/Bangkok","searchable":true,"country_code":"TH","coordinates":{"lat":8.107619,"lon":98.30643499999999},"type":"city","name":"Phuket"},{"weight":53647,"index_strings":["ber","berlin","germany","de"],"code":"BER","country_name":"Germany","timezone":"Europe\/Berlin","searchable":true,"country_code":"DE","coordinates":{"lat":52.5234051,"lon":13.4113999},"type":"city","name":"Berlin"},{"weight":52767,"index_strings":["luis munoz marin international airport","sju","san juan","puerto rico","pr"],"code":"SJU","country_name":"Puerto Rico","timezone":"America\/Puerto_Rico","searchable":true,"country_code":"PR","coordinates":{"lat":18.4663338,"lon":-66.1057217},"type":"city","name":"San Juan"},{"weight":52719,"index_strings":["eleftherios venizelos international airport","ath","athens","greece","gr"],"code":"ATH","country_name":"Greece","timezone":"Europe\/Athens","searchable":true,"country_code":"GR","coordinates":{"lat":37.93635,"lon":23.946486},"type":"city","name":"Athens"},{"weight":52024,"index_strings":["san","san diego","united states","us"],"code":"SAN","country_name":"United States","timezone":"America\/Los_Angeles","searchable":true,"country_code":"US","coordinates":{"lat":32.7153292,"lon":-117.1572551},"type":"city","name":"San Diego"},{"country_name":"United States","weight":51926,"type":"airport","code":"SAN","searchable":true,"coordinates":{"lat":32.731937,"lon":-117.19731},"index_strings":["san","san diego international airport","san diego","united states","us"],"city_code":"SAN","city_name":"San Diego","state_code":"CA","country_code":"US","name":"San Diego International Airport","timezone":"America\/Los_Angeles"},{"weight":50755,"index_strings":["iev","kiev","ukraine","ua"],"code":"IEV","country_name":"Ukraine","timezone":"Europe\/Kiev","searchable":true,"country_code":"UA","coordinates":{"lat":50.45,"lon":30.5},"type":"city","name":"Kiev"},{"weight":50187,"index_strings":["tpa","tampa","united states","us"],"code":"TPA","country_name":"United States","timezone":"America\/New_York","searchable":true,"country_code":"US","coordinates":{"lat":27.949436,"lon":-82.4651441},"type":"city","name":"Tampa"},{"country_name":"United States","weight":49861,"type":"airport","code":"TPA","searchable":true,"coordinates":{"lat":27.97987,"lon":-82.535416},"index_strings":["tpa","tampa international airport","tampa","united states","us"],"city_code":"TPA","city_name":"Tampa","state_code":"FL","country_code":"US","name":"Tampa International Airport","timezone":"America\/New_York"},{"weight":49283,"index_strings":["chiang mai international airport","cnx","chiang mai","thailand","th"],"code":"CNX","country_name":"Thailand","timezone":"Asia\/Bangkok","searchable":true,"country_code":"TH","coordinates":{"lat":18.769573,"lon":98.96841000000001},"type":"city","name":"Chiang Mai"},{"weight":48091,"index_strings":["chennai airport","maa","chennai","india","in"],"code":"MAA","country_name":"India","timezone":"Asia\/Kolkata","searchable":true,"country_code":"IN","coordinates":{"lat":12.982267,"lon":80.16378},"type":"city","name":"Chennai"},{"weight":47694,"index_strings":["muc","munich","germany","de"],"code":"MUC","country_name":"Germany","timezone":"Europe\/Berlin","searchable":true,"country_code":"DE","coordinates":{"lat":48.1391265,"lon":11.5801863},"type":"city","name":"Munich"},{"country_name":"Germany","weight":47621,"type":"airport","code":"MUC","searchable":true,"index_strings":["muc","franz josef strauss airport","munich","germany","de"],"coordinates":{"lat":48.353004,"lon":11.790143},"city_code":"MUC","city_name":"Munich","timezone":"Europe\/Berlin","country_code":"DE","name":"Franz Josef Strauss Airport"},{"weight":46849,"index_strings":["king khaled international airport","ruh","riyadh","saudi arabia","sa"],"code":"RUH","country_name":"Saudi Arabia","timezone":"Asia\/Riyadh","searchable":true,"country_code":"SA","coordinates":{"lat":24.95929,"lon":46.702877},"type":"city","name":"Riyadh"},{"weight":46325,"index_strings":["phx","phoenix","united states","us"],"code":"PHX","country_name":"United States","timezone":"America\/Phoenix","searchable":true,"country_code":"US","coordinates":{"lat":33.4483771,"lon":-112.0740373},"type":"city","name":"Phoenix"},{"weight":46184,"index_strings":["beirut-rafic hariri international airport","bey","beirut","lebanon","lb"],"code":"BEY","country_name":"Lebanon","timezone":"Asia\/Beirut","searchable":true,"country_code":"LB","coordinates":{"lat":33.826073,"lon":35.49308},"type":"city","name":"Beirut"},{"weight":45429,"index_strings":["tpe","taipei","taiwan","tw"],"code":"TPE","country_name":"Taiwan","timezone":"Asia\/Taipei","searchable":true,"country_code":"TW","coordinates":{"lat":25.091075,"lon":121.5598345},"type":"city","name":"Taipei"},{"country_name":"Taiwan","weight":45019,"type":"airport","code":"TPE","searchable":true,"index_strings":["tpe","taiwan taoyuan international airport","taipei","taiwan","tw"],"coordinates":{"lat":25.07639,"lon":121.22389},"city_code":"TPE","city_name":"Taipei","timezone":"Asia\/Taipei","country_code":"TW","name":"Taiwan Taoyuan International Airport"},{"country_name":"United States","weight":44524,"type":"airport","code":"PHX","searchable":true,"coordinates":{"lat":33.435036,"lon":-112.00016},"index_strings":["phx","phoenix sky harbor international airport","phoenix","united states","us"],"city_code":"PHX","city_name":"Phoenix","state_code":"AZ","country_code":"US","name":"Phoenix Sky Harbor International Airport","timezone":"America\/Phoenix"},{"weight":44524,"index_strings":["mex","mexico city","mexico","mx"],"code":"MEX","country_name":"Mexico","timezone":"America\/Mexico_City","searchable":true,"country_code":"MX","coordinates":{"lat":19.4270499,"lon":-99.1275711},"type":"city","name":"Mexico City"},{"weight":44511,"index_strings":["mel","melbourne","australia","au"],"code":"MEL","country_name":"Australia","timezone":"Australia\/Melbourne","searchable":true,"country_code":"AU","coordinates":{"lat":-37.8131869,"lon":144.9629796},"type":"city","name":"Melbourne"},{"country_name":"Mexico","weight":44468,"type":"airport","code":"MEX","searchable":true,"index_strings":["mex","benito juarez international airport","mexico city","mexico","mx"],"coordinates":{"lat":19.435278,"lon":-99.07277999999999},"city_code":"MEX","city_name":"Mexico City","timezone":"America\/Mexico_City","country_code":"MX","name":"Benito Juarez International Airport"},{"country_name":"Australia","weight":44380,"type":"airport","code":"MEL","searchable":true,"coordinates":{"lat":-37.669613,"lon":144.84978},"index_strings":["mel","tullamarine airport","melbourne","australia","au"],"city_code":"MEL","city_name":"Melbourne","state_code":"VI","country_code":"AU","name":"Tullamarine Airport","timezone":"Australia\/Melbourne"},{"weight":44169,"index_strings":["sha","shanghai","china","cn"],"code":"SHA","country_name":"China","timezone":"Asia\/Shanghai","searchable":true,"country_code":"CN","coordinates":{"lat":31.230393,"lon":121.473704},"type":"city","name":"Shanghai"},{"country_name":"Ukraine","weight":43413,"type":"airport","code":"IEV","searchable":true,"index_strings":["iev","kyiv international airport","kiev","ukraine","ua"],"coordinates":{"lat":50.401943,"lon":30.450832},"city_code":"IEV","city_name":"Kiev","timezone":"Europe\/Kiev","country_code":"UA","name":"Kyiv International Airport"},{"weight":43010,"index_strings":["queen alia international airport","amm","amman","jordan","jo"],"code":"AMM","country_name":"Jordan","timezone":"Asia\/Amman","searchable":true,"country_code":"JO","coordinates":{"lat":31.722534,"lon":35.98932},"type":"city","name":"Amman"},{"country_name":"China","weight":41364,"type":"airport","code":"SHA","searchable":true,"index_strings":["sha","shanghai hongqiao international airport","shanghai","china","cn"],"coordinates":{"lat":31.196815,"lon":121.34197},"city_code":"SHA","city_name":"Shanghai","timezone":"Asia\/Shanghai","country_code":"CN","name":"Shanghai Hongqiao International Airport"},{"weight":40860,"index_strings":["tlv","tel aviv-yafo","israel","il"],"code":"TLV","country_name":"Israel","timezone":"Asia\/Jerusalem","searchable":true,"country_code":"IL","coordinates":{"lat":32.000454,"lon":34.870743},"type":"city","name":"Tel Aviv-Yafo"},{"country_name":"Israel","weight":40787,"type":"airport","code":"TLV","searchable":true,"index_strings":["tlv","ben gurion international airport","tel aviv-yafo","israel","il"],"coordinates":{"lat":32.000454,"lon":34.870743},"city_code":"TLV","city_name":"Tel Aviv-Yafo","timezone":"Asia\/Jerusalem","country_code":"IL","name":"Ben Gurion International Airport"},{"weight":40718,"index_strings":["rajiv gandhi international airport","hyd","hyderabad","india","in"],"code":"HYD","country_name":"India","timezone":"Asia\/Kolkata","searchable":true,"country_code":"IN","coordinates":{"lat":17.385044,"lon":78.486671},"type":"city","name":"Hyderabad"},{"weight":40652,"index_strings":["cochin international airport","cok","kochi","india","in"],"code":"COK","country_name":"India","timezone":"Asia\/Kolkata","searchable":true,"country_code":"IN","coordinates":{"lat":10.155644,"lon":76.39053},"type":"city","name":"Kochi"},{"weight":39623,"index_strings":["vaclav havel airport prague","prg","prague","czech republic","cz"],"code":"PRG","country_name":"Czech Republic","timezone":"Europe\/Prague","searchable":true,"country_code":"CZ","coordinates":{"lat":50.0878114,"lon":14.4204598},"type":"city","name":"Prague"},{"weight":39619,"index_strings":["dublin airport","dub","dublin","ireland","ie"],"code":"DUB","country_name":"Ireland","timezone":"Europe\/Dublin","searchable":true,"country_code":"IE","coordinates":{"lat":53.42728,"lon":-6.24357},"type":"city","name":"Dublin"},{"weight":39030,"index_strings":["phl","philadelphia","united states","us"],"code":"PHL","country_name":"United States","timezone":"America\/New_York","searchable":true,"country_code":"US","coordinates":{"lat":39.952335,"lon":-75.16378899999999},"type":"city","name":"Philadelphia"},{"country_name":"United States","weight":38816,"type":"airport","code":"PHL","searchable":true,"coordinates":{"lat":39.87641,"lon":-75.2433},"index_strings":["phl","philadelphia international airport","philadelphia","united states","us"],"city_code":"PHL","city_name":"Philadelphia","state_code":"PA","country_code":"US","name":"Philadelphia International Airport","timezone":"America\/New_York"},{"weight":38597,"index_strings":["bru","brussels","belgium","be"],"code":"BRU","country_name":"Belgium","timezone":"Europe\/Brussels","searchable":true,"country_code":"BE","coordinates":{"lat":50.8503396,"lon":4.3517103},"type":"city","name":"Brussels"},{"weight":38493,"index_strings":["mohamed v international airport","cas","casablanca","morocco","ma"],"code":"CAS","country_name":"Morocco","timezone":"Africa\/Casablanca","searchable":true,"country_code":"MA","coordinates":{"lat":33.533333,"lon":-7.583333},"type":"city","name":"Casablanca"},{"country_name":"Belgium","weight":38093,"type":"airport","code":"BRU","searchable":true,"index_strings":["bru","brussels airport","brussels","belgium","be"],"coordinates":{"lat":50.89717,"lon":4.483602},"city_code":"BRU","city_name":"Brussels","timezone":"Europe\/Brussels","country_code":"BE","name":"Brussels Airport"},{"weight":38048,"index_strings":["vienna international airport","vie","vienna","austria","at"],"code":"VIE","country_name":"Austria","timezone":"Europe\/Vienna","searchable":true,"country_code":"AT","coordinates":{"lat":48.2081743,"lon":16.3738189},"type":"city","name":"Vienna"},{"weight":37679,"index_strings":["tan son nhat international airport","sgn","ho chi minh city","vietnam","vn"],"code":"SGN","country_name":"Vietnam","timezone":"Asia\/Ho_Chi_Minh","searchable":true,"country_code":"VN","coordinates":{"lat":10.813045,"lon":106.662476},"type":"city","name":"Ho Chi Minh City"},{"weight":37448,"index_strings":["lisbon portela airport","lis","lisbon","portugal","pt"],"code":"LIS","country_name":"Portugal","timezone":"Europe\/Lisbon","searchable":true,"country_code":"PT","coordinates":{"lat":38.706932,"lon":-9.1356321},"type":"city","name":"Lisbon"},{"weight":36959,"index_strings":["бали","bali","ngurah rai international airport","dps","denpasar","indonesia","id"],"code":"DPS","country_name":"Indonesia","timezone":"Asia\/Makassar","searchable":true,"country_code":"ID","coordinates":{"lat":-8.74446,"lon":115.16331},"type":"city","name":"Denpasar"},{"weight":34973,"index_strings":["kempegowda international airport","blr","bengaluru","india","in"],"code":"BLR","country_name":"India","timezone":"Asia\/Kolkata","searchable":true,"country_code":"IN","coordinates":{"lat":13.198889,"lon":77.70556000000001},"type":"city","name":"Bengaluru"},{"weight":34369,"index_strings":["kuwait international airport","kwi","kuwait","kw"],"code":"KWI","country_name":"Kuwait","timezone":"Asia\/Kuwait","searchable":true,"country_code":"KW","coordinates":{"lat":29.240116,"lon":47.971252},"type":"city","name":"Kuwait"},{"weight":33836,"index_strings":["antalya airport","ayt","antalya","turkey","tr"],"code":"AYT","country_name":"Turkey","timezone":"Europe\/Istanbul","searchable":true,"country_code":"TR","coordinates":{"lat":36.89928,"lon":30.80135},"type":"city","name":"Antalya"},{"weight":33356,"index_strings":["yvr","vancouver","canada","ca"],"code":"YVR","country_name":"Canada","timezone":"America\/Vancouver","searchable":true,"country_code":"CA","coordinates":{"lat":49.261226,"lon":-123.1139268},"type":"city","name":"Vancouver"},{"country_name":"Canada","weight":33319,"type":"airport","code":"YVR","searchable":true,"coordinates":{"lat":49.1947,"lon":-123.17919},"index_strings":["yvr","vancouver international airport","vancouver","canada","ca"],"city_code":"YVR","city_name":"Vancouver","state_code":"BC","country_code":"CA","name":"Vancouver International Airport","timezone":"America\/Vancouver"},{"weight":32704,"index_strings":["msy","new orleans","united states","us"],"code":"MSY","country_name":"United States","timezone":"America\/Chicago","searchable":true,"country_code":"US","coordinates":{"lat":29.9647222,"lon":-90.07055560000001},"type":"city","name":"New Orleans"},{"country_name":"United States","weight":32669,"type":"airport","code":"MSY","searchable":true,"coordinates":{"lat":29.984564,"lon":-90.25639},"index_strings":["msy","louis armstrong new orleans international airport","new orleans","united states","us"],"city_code":"MSY","city_name":"New Orleans","state_code":"LA","country_code":"US","name":"Louis Armstrong New Orleans International Airport","timezone":"America\/Chicago"},{"weight":32493,"index_strings":["portland international airport","pdx","portland","united states","us"],"code":"PDX","country_name":"United States","timezone":"America\/Los_Angeles","searchable":true,"country_code":"US","coordinates":{"lat":45.588997,"lon":-122.5929},"type":"city","name":"Portland"},{"weight":31604,"index_strings":["tbilisi international airport","tbs","tbilisi","georgia","ge"],"code":"TBS","country_name":"Georgia","timezone":"Asia\/Tbilisi","searchable":true,"country_code":"GE","coordinates":{"lat":41.674065,"lon":44.958958},"type":"city","name":"Tbilisi"},{"weight":31532,"index_strings":["allama iqbal international airport","lhe","lahore","pakistan","pk"],"code":"LHE","country_name":"Pakistan","timezone":"Asia\/Karachi","searchable":true,"country_code":"PK","coordinates":{"lat":31.520832,"lon":74.40278000000001},"type":"city","name":"Lahore"},{"weight":31047,"index_strings":["netaji subhas chandra bose airport","ccu","kolkata","india","in"],"code":"CCU","country_name":"India","timezone":"Asia\/Kolkata","searchable":true,"country_code":"IN","coordinates":{"lat":22.64531,"lon":88.43931000000001},"type":"city","name":"Kolkata"},{"weight":30992,"index_strings":["don miguel hidal y costilla international airport","gdl","guadalajara","mexico","mx"],"code":"GDL","country_name":"Mexico","timezone":"America\/Mexico_City","searchable":true,"country_code":"MX","coordinates":{"lat":20.525198,"lon":-103.29921},"type":"city","name":"Guadalajara"},{"weight":30676,"index_strings":["calicut international airport","ccj","kozhikode","india","in"],"code":"CCJ","country_name":"India","timezone":"Asia\/Kolkata","searchable":true,"country_code":"IN","coordinates":{"lat":11.14025,"lon":75.95058400000001},"type":"city","name":"Kozhikode"},{"weight":30524,"index_strings":["bandaranaike international airport","cmb","colombo","sri lanka","lk"],"code":"CMB","country_name":"Sri Lanka","timezone":"Asia\/Colombo","searchable":true,"country_code":"LK","coordinates":{"lat":6.927468,"lon":79.848358},"type":"city","name":"Colombo"},{"weight":29731,"index_strings":["tribhuvan international airport","ktm","kathmandu","nepal","np"],"code":"KTM","country_name":"Nepal","timezone":"Asia\/Kathmandu","searchable":true,"country_code":"NP","coordinates":{"lat":27.699905,"lon":85.35657},"type":"city","name":"Kathmandu"},{"weight":29525,"index_strings":["benazir bhutto international airport","isb","islamabad","pakistan","pk"],"code":"ISB","country_name":"Pakistan","timezone":"Asia\/Karachi","searchable":true,"country_code":"PK","coordinates":{"lat":33.609707,"lon":73.10509999999999},"type":"city","name":"Islamabad"},{"weight":29409,"index_strings":["hamad international airport","doh","doha","qatar","qa"],"code":"DOH","country_name":"Qatar","timezone":"Asia\/Qatar","searchable":true,"country_code":"QA","coordinates":{"lat":25.267569,"lon":51.558067},"type":"city","name":"Doha"},{"weight":29127,"index_strings":["las americas international airport","sdq","santo domingo","dominican republic","do"],"code":"SDQ","country_name":"Dominican Republic","timezone":"America\/Santo_Domingo","searchable":true,"country_code":"DO","coordinates":{"lat":18.5,"lon":-69.9833333},"type":"city","name":"Santo Domingo"},{"country_name":"Dominican Republic","weight":29116,"type":"airport","code":"SDQ","searchable":true,"index_strings":["sdq","las americas international airport","santo domingo","dominican republic","do"],"coordinates":{"lat":18.430124,"lon":-69.67674},"city_code":"SDQ","city_name":"Santo Domingo","timezone":"America\/Santo_Domingo","country_code":"DO","name":"Las Americas International Airport"},{"weight":29085,"index_strings":["guangzhou baiyun international airport","can","guangzhou","china","cn"],"code":"CAN","country_name":"China","timezone":"Asia\/Shanghai","searchable":true,"country_code":"CN","coordinates":{"lat":23.387861,"lon":113.29734},"type":"city","name":"Guangzhou"},{"weight":28516,"index_strings":["budapest ferenc liszt international airport","bud","budapest","hungary","hu"],"code":"BUD","country_name":"Hungary","timezone":"Europe\/Budapest","searchable":true,"country_code":"HU","coordinates":{"lat":47.4984056,"lon":19.0407578},"type":"city","name":"Budapest"},{"weight":27971,"index_strings":["auckland airport","akl","auckland","new zealand","nz"],"code":"AKL","country_name":"New Zealand","timezone":"Pacific\/Auckland","searchable":true,"country_code":"NZ","coordinates":{"lat":-36.8484597,"lon":174.7633315},"type":"city","name":"Auckland"},{"weight":27827,"index_strings":["msp","minneapolis","united states","us"],"code":"MSP","country_name":"United States","timezone":"America\/Chicago","searchable":true,"country_code":"US","coordinates":{"lat":44.9799654,"lon":-93.26383610000001},"type":"city","name":"Minneapolis"},{"country_name":"United States","weight":27817,"type":"airport","code":"MSP","searchable":true,"coordinates":{"lat":44.883015,"lon":-93.21092},"index_strings":["msp","minneapolis-st. paul international airport","minneapolis","united states","us"],"city_code":"MSP","city_name":"Minneapolis","state_code":"MN","country_code":"US","name":"Minneapolis-St. Paul International Airport","timezone":"America\/Chicago"},{"weight":26543,"index_strings":["abu dhabi international airport","auh","abu dhabi","united arab emirates","ae"],"code":"AUH","country_name":"United Arab Emirates","timezone":"Asia\/Dubai","searchable":true,"country_code":"AE","coordinates":{"lat":24.4666667,"lon":54.3666667},"type":"city","name":"Abu Dhabi"},{"weight":26527,"index_strings":["dus","dusseldorf","germany","de"],"code":"DUS","country_name":"Germany","timezone":"Europe\/Berlin","searchable":true,"country_code":"DE","coordinates":{"lat":51.2249429,"lon":6.7756524},"type":"city","name":"Dusseldorf"},{"country_name":"Germany","weight":26142,"type":"airport","code":"DUS","searchable":true,"index_strings":["dus","dusseldorf international airport","dusseldorf","germany","de"],"coordinates":{"lat":51.278328,"lon":6.76558},"city_code":"DUS","city_name":"Dusseldorf","timezone":"Europe\/Berlin","country_code":"DE","name":"Dusseldorf International Airport"},{"weight":25878,"index_strings":["copenhagen airport","cph","copenhagen","denmark","dk"],"code":"CPH","country_name":"Denmark","timezone":"Europe\/Copenhagen","searchable":true,"country_code":"DK","coordinates":{"lat":55.693403,"lon":12.583046},"type":"city","name":"Copenhagen"},{"weight":25844,"index_strings":["malaga airport","agp","malaga","spain","es"],"code":"AGP","country_name":"Spain","timezone":"Europe\/Madrid","searchable":true,"country_code":"ES","coordinates":{"lat":36.7196484,"lon":-4.4200163},"type":"city","name":"Malaga"},{"weight":25798,"index_strings":["zurich airport","zrh","zurich","switzerland","ch"],"code":"ZRH","country_name":"Switzerland","timezone":"Europe\/Zurich","searchable":true,"country_code":"CH","coordinates":{"lat":47.367347,"lon":8.5500025},"type":"city","name":"Zurich"},{"weight":25659,"index_strings":["vce","venice","italy","it"],"code":"VCE","country_name":"Italy","timezone":"Europe\/Rome","searchable":true,"country_code":"IT","coordinates":{"lat":45.4343363,"lon":12.3387844},"type":"city","name":"Venice"},{"country_name":"Italy","weight":25378,"type":"airport","code":"VCE","searchable":true,"index_strings":["vce","venice marco polo airport","venice","italy","it"],"coordinates":{"lat":45.502285,"lon":12.337947},"city_code":"VCE","city_name":"Venice","timezone":"Europe\/Rome","country_code":"IT","name":"Venice Marco Polo Airport"},{"weight":24889,"index_strings":["southwest florida international airport","fmy","fort myers","united states","us"],"code":"FMY","country_name":"United States","timezone":"America\/New_York","searchable":true,"country_code":"US","coordinates":{"lat":26.640628,"lon":-81.87230839999999},"type":"city","name":"Fort Myers"},{"weight":24822,"index_strings":["manchester airport","man","manchester","united kingdom","gb"],"code":"MAN","country_name":"United Kingdom","timezone":"Europe\/London","searchable":true,"country_code":"GB","coordinates":{"lat":53.4807125,"lon":-2.2343765},"type":"city","name":"Manchester"},{"country_name":"Poland","weight":24649,"type":"airport","code":"WAW","searchable":true,"index_strings":["waw","frederic chopin airport","warsaw","poland","pl"],"coordinates":{"lat":52.170906,"lon":20.97329},"city_code":"WAW","city_name":"Warsaw","timezone":"Europe\/Warsaw","country_code":"PL","name":"Frederic Chopin Airport"},{"weight":24648,"index_strings":["waw","warsaw","poland","pl"],"code":"WAW","country_name":"Poland","timezone":"Europe\/Warsaw","searchable":true,"country_code":"PL","coordinates":{"lat":52.170906,"lon":20.97329},"type":"city","name":"Warsaw"},{"weight":24522,"index_strings":["trivandrum international airport","trv","thiruvananthapuram","india","in"],"code":"TRV","country_name":"India","timezone":"Asia\/Kolkata","searchable":true,"country_code":"IN","coordinates":{"lat":8.476126000000001,"lon":76.91907},"type":"city","name":"Thiruvananthapuram"},{"weight":24356,"index_strings":["thr","tehran","iran","ir"],"code":"THR","country_name":"Iran","timezone":"Asia\/Tehran","searchable":true,"country_code":"IR","coordinates":{"lat":35.6961111,"lon":51.4230556},"type":"city","name":"Tehran"},{"weight":24200,"index_strings":["ahmedabad airport","amd","ahmedabad","india","in"],"code":"AMD","country_name":"India","timezone":"Asia\/Kolkata","searchable":true,"country_code":"IN","coordinates":{"lat":23.06639,"lon":72.62417000000001},"type":"city","name":"Ahmedabad"},{"weight":23757,"index_strings":["dabolim airport","goi","goa","india","in"],"code":"GOI","country_name":"India","timezone":"Asia\/Kolkata","searchable":true,"country_code":"IN","coordinates":{"lat":15.384534,"lon":73.83983000000001},"type":"city","name":"Goa"},{"weight":23299,"index_strings":["jinnah international airport","khi","karachi","pakistan","pk"],"code":"KHI","country_name":"Pakistan","timezone":"Asia\/Karachi","searchable":true,"country_code":"PK","coordinates":{"lat":24.899986,"lon":67.16828},"type":"city","name":"Karachi"},{"weight":23252,"index_strings":["palma de mallorca airport","pmi","palma mallorca","spain","es"],"code":"PMI","country_name":"Spain","timezone":"Europe\/Madrid","searchable":true,"country_code":"ES","coordinates":{"lat":39.547653,"lon":2.730388},"type":"city","name":"Palma Mallorca"},{"weight":23209,"index_strings":["jorge chavez international airport","lim","lima","peru","pe"],"code":"LIM","country_name":"Peru","timezone":"America\/Lima","searchable":true,"country_code":"PE","coordinates":{"lat":-12.019421,"lon":-77.10766599999999},"type":"city","name":"Lima"},{"weight":23109,"index_strings":["baltimore\/wash international thurgood marshall airport","bwi","baltimore","united states","us"],"code":"BWI","country_name":"United States","timezone":"America\/New_York","searchable":true,"country_code":"US","coordinates":{"lat":39.286389,"lon":-76.61499999999999},"type":"city","name":"Baltimore"},{"weight":23036,"index_strings":["sankt petersburg","st petersburg","leningrad","ленинград","питер","спб","pulkovo airport","led","saint petersburg","russia","ru"],"code":"LED","country_name":"Russia","timezone":"Europe\/Moscow","searchable":true,"country_code":"RU","coordinates":{"lat":59.939039,"lon":30.315785},"type":"city","name":"Saint Petersburg"},{"weight":22858,"index_strings":["charlotte douglas international airport","clt","charlotte","united states","us"],"code":"CLT","country_name":"United States","timezone":"America\/New_York","searchable":true,"country_code":"US","coordinates":{"lat":35.2270869,"lon":-80.8431267},"type":"city","name":"Charlotte"},{"country_name":"Iran","weight":22603,"type":"airport","code":"THR","searchable":true,"index_strings":["thr","mehrabad international airport","tehran","iran","ir"],"coordinates":{"lat":35.691532,"lon":51.32187},"city_code":"THR","city_name":"Tehran","timezone":"Asia\/Tehran","country_code":"IR","name":"Mehrabad International Airport"},{"weight":22150,"index_strings":["hazrat shahjalal international airport","dac","dhaka","bangladesh","bd"],"code":"DAC","country_name":"Bangladesh","timezone":"Asia\/Dhaka","searchable":true,"country_code":"BD","coordinates":{"lat":23.848648,"lon":90.40587600000001},"type":"city","name":"Dhaka"},{"weight":22062,"index_strings":["king fahd international airport","dmm","dammam","saudi arabia","sa"],"code":"DMM","country_name":"Saudi Arabia","timezone":"Asia\/Riyadh","searchable":true,"country_code":"SA","coordinates":{"lat":26.471111,"lon":49.79778},"type":"city","name":"Dammam"},{"weight":21737,"index_strings":["austin-bergstrom international airport","aus","austin","united states","us"],"code":"AUS","country_name":"United States","timezone":"America\/Chicago","searchable":true,"country_code":"US","coordinates":{"lat":30.267153,"lon":-97.74306079999999},"type":"city","name":"Austin"},{"weight":21664,"index_strings":["jose marti international airport","hav","havana","cuba","cu"],"code":"HAV","country_name":"Cuba","timezone":"America\/Havana","searchable":true,"country_code":"CU","coordinates":{"lat":22.99845,"lon":-82.40818},"type":"city","name":"Havana"},{"weight":21286,"index_strings":["brisbane airport","bne","brisbane","australia","au"],"code":"BNE","country_name":"Australia","timezone":"Australia\/Brisbane","searchable":true,"country_code":"AU","coordinates":{"lat":-27.4709331,"lon":153.0235024},"type":"city","name":"Brisbane"},{"weight":20701,"index_strings":["salt lake city international airport","slc","salt lake city","united states","us"],"code":"SLC","country_name":"United States","timezone":"America\/Denver","searchable":true,"country_code":"US","coordinates":{"lat":40.785645,"lon":-111.980675},"type":"city","name":"Salt Lake City"},{"weight":20663,"index_strings":["hat yai international airport","hdy","hat yai","thailand","th"],"code":"HDY","country_name":"Thailand","timezone":"Asia\/Bangkok","searchable":true,"country_code":"TH","coordinates":{"lat":6.936764,"lon":100.39356},"type":"city","name":"Hat Yai"},{"weight":20390,"index_strings":["nashville international airport","bna","nashville","united states","us"],"code":"BNA","country_name":"United States","timezone":"America\/Chicago","searchable":true,"country_code":"US","coordinates":{"lat":36.13174,"lon":-86.66894499999999},"type":"city","name":"Nashville"},{"weight":20251,"index_strings":["minsk national airport","msq","minsk","belarus","by"],"code":"MSQ","country_name":"Belarus","timezone":"Europe\/Minsk","searchable":true,"country_code":"BY","coordinates":{"lat":53.9,"lon":27.5666667},"type":"city","name":"Minsk"},{"weight":19637,"index_strings":["osl","oslo","norway","no"],"code":"OSL","country_name":"Norway","timezone":"Europe\/Oslo","searchable":true,"country_code":"NO","coordinates":{"lat":59.9138688,"lon":10.7522454},"type":"city","name":"Oslo"},{"weight":19556,"index_strings":["jnb","johannesburg","south africa","za"],"code":"JNB","country_name":"South Africa","timezone":"Africa\/Johannesburg","searchable":true,"country_code":"ZA","coordinates":{"lat":-26.2041028,"lon":28.0473051},"type":"city","name":"Johannesburg"},{"weight":19393,"index_strings":["ibiza airport","ibz","ibiza","spain","es"],"code":"IBZ","country_name":"Spain","timezone":"Europe\/Madrid","searchable":true,"country_code":"ES","coordinates":{"lat":38.876595,"lon":1.367803},"type":"city","name":"Ibiza"},{"country_name":"South Africa","weight":19309,"type":"airport","code":"JNB","searchable":true,"index_strings":["jnb","o.r. tambo international airport","johannesburg","south africa","za"],"coordinates":{"lat":-26.132664,"lon":28.231314},"city_code":"JNB","city_name":"Johannesburg","timezone":"Africa\/Johannesburg","country_code":"ZA","name":"O.R. Tambo International Airport"},{"country_name":"Norway","weight":19198,"type":"airport","code":"OSL","searchable":true,"index_strings":["osl","oslo airport gardermoen","oslo","norway","no"],"coordinates":{"lat":60.19419,"lon":11.100411},"city_code":"OSL","city_name":"Oslo","timezone":"Europe\/Oslo","country_code":"NO","name":"Oslo Airport Gardermoen"},{"weight":19185,"index_strings":["male international airport","mle","male","maldives","mv"],"code":"MLE","country_name":"Maldives","timezone":"Indian\/Maldives","searchable":true,"country_code":"MV","coordinates":{"lat":4.201389,"lon":73.524445},"type":"city","name":"Male"},{"weight":18887,"index_strings":["geneve airport","gva","geneva","switzerland","ch"],"code":"GVA","country_name":"Switzerland","timezone":"Europe\/Zurich","searchable":true,"country_code":"CH","coordinates":{"lat":46.1983922,"lon":6.1422961},"type":"city","name":"Geneva"},{"weight":18822,"index_strings":["el salvador international airport","sal","san salvador","el salvador","sv"],"code":"SAL","country_name":"El Salvador","timezone":"America\/El_Salvador","searchable":true,"country_code":"SV","coordinates":{"lat":13.445126,"lon":-89.05723},"type":"city","name":"San Salvador"},{"weight":18713,"index_strings":["juan santamaria international airport","sjo","san jose","costa rica","cr"],"code":"SJO","country_name":"Costa Rica","timezone":"America\/Costa_Rica","searchable":true,"country_code":"CR","coordinates":{"lat":9.998238000000001,"lon":-84.20408},"type":"city","name":"San Jose"},{"weight":18436,"index_strings":["durham","дарем","raleigh-durham international airport","rdu","raleigh\/durham","united states","us"],"code":"RDU","country_name":"United States","timezone":"America\/New_York","searchable":true,"country_code":"US","coordinates":{"lat":35.873592,"lon":-78.79086},"type":"city","name":"Raleigh\/Durham"},{"weight":18229,"index_strings":["bahrain international airport","bah","bahrain","bh"],"code":"BAH","country_name":"Bahrain","timezone":"Asia\/Bahrain","searchable":true,"country_code":"BH","coordinates":{"lat":26.26918,"lon":50.62605},"type":"city","name":"Bahrain"},{"weight":18137,"index_strings":["nyc","new york","united states","us"],"code":"NYC","country_name":"United States","timezone":"America\/New_York","searchable":true,"country_code":"US","coordinates":{"lat":40.7143528,"lon":-74.00597310000001},"type":"city","name":"New York"},{"weight":17977,"index_strings":["cibao international airport","sti","santiago","dominican republic","do"],"code":"STI","country_name":"Dominican Republic","timezone":"America\/Santo_Domingo","searchable":true,"country_code":"DO","coordinates":{"lat":19.401829,"lon":-70.60208},"type":"city","name":"Santiago"},{"weight":17820,"index_strings":["muscat international airport","mct","muscat","oman","om"],"code":"MCT","country_name":"Oman","timezone":"Asia\/Muscat","searchable":true,"country_code":"OM","coordinates":{"lat":23.588078,"lon":58.29022},"type":"city","name":"Muscat"},{"country_name":"Oman","weight":17820,"type":"airport","code":"MCT","searchable":true,"index_strings":["mct","muscat international airport","muscat","oman","om"],"coordinates":{"lat":23.588078,"lon":58.29022},"city_code":"MCT","city_name":"Muscat","timezone":"Asia\/Muscat","country_code":"OM","name":"Muscat International Airport"},{"weight":17781,"index_strings":["sac","sacramento","united states","us"],"code":"SAC","country_name":"United States","timezone":"America\/Los_Angeles","searchable":true,"country_code":"US","coordinates":{"lat":38.575278,"lon":-121.486111},"type":"city","name":"Sacramento"},{"weight":17637,"index_strings":["esenboga international airport","ank","ankara","turkey","tr"],"code":"ANK","country_name":"Turkey","timezone":"Europe\/Istanbul","searchable":true,"country_code":"TR","coordinates":{"lat":39.866667,"lon":39.866667},"type":"city","name":"Ankara"},{"weight":17489,"index_strings":["murtala muhammed international airport","los","lagos","nigeria","ng"],"code":"LOS","country_name":"Nigeria","timezone":"Africa\/Lagos","searchable":true,"country_code":"NG","coordinates":{"lat":6.577871,"lon":3.321178},"type":"city","name":"Lagos"},{"weight":17306,"index_strings":["menara airport","rak","marrakech","morocco","ma"],"code":"RAK","country_name":"Morocco","timezone":"Africa\/Casablanca","searchable":true,"country_code":"MA","coordinates":{"lat":31.601875,"lon":-8.026902},"type":"city","name":"Marrakech"},{"weight":17239,"index_strings":["stl","saint louis","united states","us"],"code":"STL","country_name":"United States","timezone":"America\/Chicago","searchable":true,"country_code":"US","coordinates":{"lat":38.6270025,"lon":-90.1994042},"type":"city","name":"Saint Louis"},{"country_name":"United States","weight":17205,"type":"airport","code":"STL","searchable":true,"coordinates":{"lat":38.74228,"lon":-90.36587},"index_strings":["stl","lambert-st. louis international airport","saint louis","united states","us"],"city_code":"STL","city_name":"Saint Louis","state_code":"MO","country_code":"US","name":"Lambert-St. Louis International Airport","timezone":"America\/Chicago"},{"weight":16996,"index_strings":["san antonio international airport","sat","san antonio","united states","us"],"code":"SAT","country_name":"United States","timezone":"America\/Chicago","searchable":true,"country_code":"US","coordinates":{"lat":29.4241219,"lon":-98.4936282},"type":"city","name":"San Antonio"},{"weight":16806,"index_strings":["el dorado international airport","bog","bogota","colombia","co"],"code":"BOG","country_name":"Colombia","timezone":"America\/Bogota","searchable":true,"country_code":"CO","coordinates":{"lat":4.698602,"lon":-74.143135},"type":"city","name":"Bogota"},{"country_name":"United States","weight":16796,"type":"airport","code":"SAC","searchable":true,"coordinates":{"lat":38.05,"lon":-121.933334},"index_strings":["sac","sacramento executive airport","sacramento","united states","us"],"city_code":"SAC","city_name":"Sacramento","state_code":"CA","country_code":"US","name":"Sacramento Executive Airport","timezone":"America\/Los_Angeles"},{"weight":16723,"index_strings":["zvartnots international airport","evn","yerevan","armenia","am"],"code":"EVN","country_name":"Armenia","timezone":"Asia\/Yerevan","searchable":true,"country_code":"AM","coordinates":{"lat":40.15272,"lon":44.39805},"type":"city","name":"Yerevan"},{"weight":16502,"index_strings":["ham","hamburg","germany","de"],"code":"HAM","country_name":"Germany","timezone":"Europe\/Berlin","searchable":true,"country_code":"DE","coordinates":{"lat":53.553813,"lon":9.991586},"type":"city","name":"Hamburg"},{"country_name":"Germany","weight":16389,"type":"airport","code":"HAM","searchable":true,"index_strings":["ham","hamburg airport","hamburg","germany","de"],"coordinates":{"lat":53.63128,"lon":10.006414},"city_code":"HAM","city_name":"Hamburg","timezone":"Europe\/Berlin","country_code":"DE","name":"Hamburg Airport"},{"weight":16232,"index_strings":["sharjah international airport","shj","sharjah","united arab emirates","ae"],"code":"SHJ","country_name":"United Arab Emirates","timezone":"Asia\/Dubai","searchable":true,"country_code":"AE","coordinates":{"lat":25.320873,"lon":55.52029},"type":"city","name":"Sharjah"},{"weight":15909,"index_strings":["sharm el sheikh airport","ssh","sharm el sheikh","egypt","eg"],"code":"SSH","country_name":"Egypt","timezone":"Africa\/Cairo","searchable":true,"country_code":"EG","coordinates":{"lat":27.979357,"lon":34.385254},"type":"city","name":"Sharm el Sheikh"},{"weight":15839,"index_strings":["punta cana international airport","puj","punta cana","dominican republic","do"],"code":"PUJ","country_name":"Dominican Republic","timezone":"America\/Santo_Domingo","searchable":true,"country_code":"DO","coordinates":{"lat":18.562477,"lon":-68.364},"type":"city","name":"Punta Cana"},{"weight":15665,"index_strings":["miami","майами","迈阿密","palm beach international airport","pbi","west palm beach","united states","us"],"code":"PBI","country_name":"United States","timezone":"America\/New_York","searchable":true,"country_code":"US","coordinates":{"lat":26.7153424,"lon":-80.0533746},"type":"city","name":"West Palm Beach"},{"weight":15612,"index_strings":["alicante-elche airport","alc","alicante","spain","es"],"code":"ALC","country_name":"Spain","timezone":"Europe\/Madrid","searchable":true,"country_code":"ES","coordinates":{"lat":38.34521,"lon":-0.4809945},"type":"city","name":"Alicante"},{"weight":15567,"index_strings":["perth airport","per","perth","australia","au"],"code":"PER","country_name":"Australia","timezone":"Australia\/Perth","searchable":true,"country_code":"AU","coordinates":{"lat":-31.9522222,"lon":115.8588889},"type":"city","name":"Perth"},{"weight":15398,"index_strings":["mkc","kansas city","united states","us"],"code":"MKC","country_name":"United States","timezone":"America\/Chicago","searchable":true,"country_code":"US","coordinates":{"lat":39.05,"lon":-94.583333},"type":"city","name":"Kansas City"},{"weight":15364,"index_strings":["borg el arab airport","aly","alexandria","egypt","eg"],"code":"ALY","country_name":"Egypt","timezone":"Africa\/Cairo","searchable":true,"country_code":"EG","coordinates":{"lat":31.2135,"lon":29.9443},"type":"city","name":"Alexandria"},{"weight":15336,"index_strings":["norman y. mineta san jose international airport","sjc","san jose","united states","us"],"code":"SJC","country_name":"United States","timezone":"America\/Los_Angeles","searchable":true,"country_code":"US","coordinates":{"lat":37.3393857,"lon":-121.8949555},"type":"city","name":"San Jose"},{"weight":15279,"index_strings":["kotoka international airport","acc","accra","ghana","gh"],"code":"ACC","country_name":"Ghana","timezone":"Africa\/Accra","searchable":true,"country_code":"GH","coordinates":{"lat":5.60737,"lon":-0.171769},"type":"city","name":"Accra"},{"weight":15273,"index_strings":["lon","london","united kingdom","gb"],"code":"LON","country_name":"United Kingdom","timezone":"Europe\/London","searchable":true,"country_code":"GB","coordinates":{"lat":51.51,"lon":0.06},"type":"city","name":"London"},{"weight":15210,"index_strings":["mactan-cebu international airport","ceb","cebu city","philippines","ph"],"code":"CEB","country_name":"Philippines","timezone":"Asia\/Manila","searchable":true,"country_code":"PH","coordinates":{"lat":10.313333,"lon":123.98278},"type":"city","name":"Cebu City"},{"weight":15190,"index_strings":["cle","cleveland","united states","us"],"code":"CLE","country_name":"United States","timezone":"America\/New_York","searchable":true,"country_code":"US","coordinates":{"lat":41.4994954,"lon":-81.6954088},"type":"city","name":"Cleveland"},{"country_name":"United States","weight":15188,"type":"airport","code":"CLE","searchable":true,"coordinates":{"lat":41.410854,"lon":-81.83821},"index_strings":["cle","cleveland hopkins international airport","cleveland","united states","us"],"city_code":"CLE","city_name":"Cleveland","state_code":"OH","country_code":"US","name":"Cleveland Hopkins International Airport","timezone":"America\/New_York"},{"weight":15182,"index_strings":["krabi airport","kbv","krabi","thailand","th"],"code":"KBV","country_name":"Thailand","timezone":"Asia\/Bangkok","searchable":true,"country_code":"TH","coordinates":{"lat":8.097281000000001,"lon":98.98062},"type":"city","name":"Krabi"},{"weight":15126,"index_strings":["noi bai international airport","han","hanoi","vietnam","vn"],"code":"HAN","country_name":"Vietnam","timezone":"Asia\/Ho_Chi_Minh","searchable":true,"country_code":"VN","coordinates":{"lat":21.214184,"lon":105.802826},"type":"city","name":"Hanoi"},{"weight":14868,"index_strings":["metropolitan oakland international airport","oak","oakland","united states","us"],"code":"OAK","country_name":"United States","timezone":"America\/Los_Angeles","searchable":true,"country_code":"US","coordinates":{"lat":37.8043637,"lon":-122.2711137},"type":"city","name":"Oakland"},{"weight":14814,"index_strings":["john wayne airport","sna","santa ana","united states","us"],"code":"SNA","country_name":"United States","timezone":"America\/Los_Angeles","searchable":true,"country_code":"US","coordinates":{"lat":33.7174708,"lon":-117.8311428},"type":"city","name":"Santa Ana"},{"weight":14726,"index_strings":["toussaint louverture international airport","pap","port au prince","haiti","ht"],"code":"PAP","country_name":"Haiti","timezone":"America\/Port-au-Prince","searchable":true,"country_code":"HT","coordinates":{"lat":18.575394,"lon":-72.29470999999999},"type":"city","name":"Port Au Prince"},{"weight":14493,"index_strings":["porto airport","opo","porto","portugal","pt"],"code":"OPO","country_name":"Portugal","timezone":"Europe\/Lisbon","searchable":true,"country_code":"PT","coordinates":{"lat":41.149968,"lon":-8.610242599999999},"type":"city","name":"Porto"},{"country_name":"United States","weight":14489,"type":"airport","code":"MKC","searchable":true,"coordinates":{"lat":39.12417,"lon":-94.59193999999999},"index_strings":["mkc","charles b. wheeler downtown airport","kansas city","united states","us"],"city_code":"MKC","city_name":"Kansas City","state_code":"MO","country_code":"US","name":"Charles B. Wheeler Downtown Airport","timezone":"America\/Chicago"},{"weight":14442,"index_strings":["cote d'azur airport","nce","nice","france","fr"],"code":"NCE","country_name":"France","timezone":"Europe\/Paris","searchable":true,"country_code":"FR","coordinates":{"lat":43.66049,"lon":7.205232},"type":"city","name":"Nice"},{"weight":14374,"index_strings":["sangster international airport","mbj","montego bay","jamaica","jm"],"code":"MBJ","country_name":"Jamaica","timezone":"America\/Jamaica","searchable":true,"country_code":"JM","coordinates":{"lat":18.498465,"lon":-77.91663},"type":"city","name":"Montego Bay"},{"weight":14333,"index_strings":["tunis-carthage international airport","tun","tunis","tunisia","tn"],"code":"TUN","country_name":"Tunisia","timezone":"Africa\/Tunis","searchable":true,"country_code":"TN","coordinates":{"lat":36.847622,"lon":10.21709},"type":"city","name":"Tunis"},{"weight":14327,"index_strings":["jacksonville international airport","jax","jacksonville","united states","us"],"code":"JAX","country_name":"United States","timezone":"America\/New_York","searchable":true,"country_code":"US","coordinates":{"lat":30.3321838,"lon":-81.65565100000001},"type":"city","name":"Jacksonville"},{"weight":14262,"index_strings":["larnaca international airport","lca","larnaca","cyprus","cy"],"code":"LCA","country_name":"Cyprus","timezone":"Asia\/Nicosia","searchable":true,"country_code":"CY","coordinates":{"lat":34.880867,"lon":33.62599},"type":"city","name":"Larnaca"},{"weight":14170,"index_strings":["nbo","nairobi","kenya","ke"],"code":"NBO","country_name":"Kenya","timezone":"Africa\/Nairobi","searchable":true,"country_code":"KE","coordinates":{"lat":-1.2833333,"lon":36.8166667},"type":"city","name":"Nairobi"},{"weight":14122,"index_strings":["kish international airport","kih","kish island","iran","ir"],"code":"KIH","country_name":"Iran","timezone":"Asia\/Tehran","searchable":true,"country_code":"IR","coordinates":{"lat":26.532276,"lon":53.972084},"type":"city","name":"Kish Island"},{"country_name":"Kenya","weight":14034,"type":"airport","code":"NBO","searchable":true,"index_strings":["nbo","jomo kenyatta international airport","nairobi","kenya","ke"],"coordinates":{"lat":-1.319167,"lon":36.92578},"city_code":"NBO","city_name":"Nairobi","timezone":"Africa\/Nairobi","country_code":"KE","name":"Jomo Kenyatta International Airport"},{"weight":13813,"index_strings":["chaudhary charan singh international airport","lko","lucknow","india","in"],"code":"LKO","country_name":"India","timezone":"Asia\/Kolkata","searchable":true,"country_code":"IN","coordinates":{"lat":26.764257,"lon":80.884186},"type":"city","name":"Lucknow"},{"weight":13771,"index_strings":["calgary international airport","yyc","calgary","canada","ca"],"code":"YYC","country_name":"Canada","timezone":"America\/Edmonton","searchable":true,"country_code":"CA","coordinates":{"lat":51.131393,"lon":-114.01055},"type":"city","name":"Calgary"},{"weight":13625,"index_strings":["tirana international airport","tia","tirana","albania","al"],"code":"TIA","country_name":"Albania","timezone":"Europe\/Tirane","searchable":true,"country_code":"AL","coordinates":{"lat":41.419132,"lon":19.71328},"type":"city","name":"Tirana"},{"weight":13438,"index_strings":["cape town international airport","cpt","cape town","south africa","za"],"code":"CPT","country_name":"South Africa","timezone":"Africa\/Johannesburg","searchable":true,"country_code":"ZA","coordinates":{"lat":-33.968906,"lon":18.596489},"type":"city","name":"Cape Town"},{"weight":13357,"index_strings":["okinawa","окинава","naha airport","oka","japan","jp"],"code":"OKA","country_name":"Japan","timezone":"Asia\/Tokyo","searchable":true,"country_code":"JP","coordinates":{"lat":26.2285302,"lon":127.6891103},"type":"city","name":"Okinawa"},{"weight":13178,"index_strings":["sofia airport","sof","sofia","bulgaria","bg"],"code":"SOF","country_name":"Bulgaria","timezone":"Europe\/Sofia","searchable":true,"country_code":"BG","coordinates":{"lat":42.688343,"lon":23.41443},"type":"city","name":"Sofia"},{"weight":13000,"index_strings":["indianapolis international airport","ind","indianapolis","united states","us"],"code":"IND","country_name":"United States","timezone":"America\/Indiana\/Indianapolis","searchable":true,"country_code":"US","coordinates":{"lat":39.714516,"lon":-86.29805},"type":"city","name":"Indianapolis"},{"weight":12868,"index_strings":["jaipur airport","jai","jaipur","india","in"],"code":"JAI","country_name":"India","timezone":"Asia\/Kolkata","searchable":true,"country_code":"IN","coordinates":{"lat":26.820772,"lon":75.80150999999999},"type":"city","name":"Jaipur"},{"weight":12811,"index_strings":["kahului airport","ogg","kahului","united states","us"],"code":"OGG","country_name":"United States","timezone":"Pacific\/Honolulu","searchable":true,"country_code":"US","coordinates":{"lat":20.892883,"lon":-156.43863},"type":"city","name":"Kahului"},{"weight":12752,"index_strings":["khartoum international airport","krt","khartoum","sudan","sd"],"code":"KRT","country_name":"Sudan","timezone":"Africa\/Khartoum","searchable":true,"country_code":"SD","coordinates":{"lat":15.592217,"lon":32.549698},"type":"city","name":"Khartoum"},{"weight":12751,"index_strings":["pty","panama city","panama","pa"],"code":"PTY","country_name":"Panama","timezone":"America\/Panama","searchable":true,"country_code":"PA","coordinates":{"lat":8.994268999999999,"lon":-79.518792},"type":"city","name":"Panama City"},{"weight":12731,"index_strings":["la aurora international airport","gua","guatemala city","guatemala","gt"],"code":"GUA","country_name":"Guatemala","timezone":"America\/Guatemala","searchable":true,"country_code":"GT","coordinates":{"lat":14.588071,"lon":-90.53068},"type":"city","name":"Guatemala City"},{"weight":12712,"index_strings":["udon thani international airport","uth","udon thani","thailand","th"],"code":"UTH","country_name":"Thailand","timezone":"Asia\/Bangkok","searchable":true,"country_code":"TH","coordinates":{"lat":17.38661,"lon":102.774506},"type":"city","name":"Udon Thani"},{"weight":12669,"index_strings":["houari boumediene airport","alg","algiers","algeria","dz"],"code":"ALG","country_name":"Algeria","timezone":"Africa\/Algiers","searchable":true,"country_code":"DZ","coordinates":{"lat":36.70058,"lon":3.21167},"type":"city","name":"Algiers"},{"country_name":"Panama","weight":12668,"type":"airport","code":"PTY","searchable":true,"index_strings":["pty","tocumen international airport","panama city","panama","pa"],"coordinates":{"lat":9.066897000000001,"lon":-79.38764},"city_code":"PTY","city_name":"Panama City","timezone":"America\/Panama","country_code":"PA","name":"Tocumen International Airport"},{"weight":12636,"index_strings":["arturo merino benitez airport","scl","santiago","chile","cl"],"code":"SCL","country_name":"Chile","timezone":"America\/Santiago","searchable":true,"country_code":"CL","coordinates":{"lat":-33.4166667,"lon":-70.55},"type":"city","name":"Santiago"},{"weight":12533,"index_strings":["catania-fontanarossa airport","cta","catania","italy","it"],"code":"CTA","country_name":"Italy","timezone":"Europe\/Rome","searchable":true,"country_code":"IT","coordinates":{"lat":37.47066,"lon":15.065877},"type":"city","name":"Catania"},{"weight":12304,"index_strings":["los cabos international airport","sjd","san jose cabo","mexico","mx"],"code":"SJD","country_name":"Mexico","timezone":"America\/Mazatlan","searchable":true,"country_code":"MX","coordinates":{"lat":23.162354,"lon":-109.717285},"type":"city","name":"San Jose Cabo"},{"weight":12222,"index_strings":["belgrad nikola tesla airport","beg","belgrade","serbia","rs"],"code":"BEG","country_name":"Serbia","timezone":"Europe\/Belgrade","searchable":true,"country_code":"RS","coordinates":{"lat":44.802416,"lon":20.465601},"type":"city","name":"Belgrade"},{"weight":12215,"index_strings":["thessaloniki international airport","skg","thessaloniki","greece","gr"],"code":"SKG","country_name":"Greece","timezone":"Europe\/Athens","searchable":true,"country_code":"GR","coordinates":{"lat":40.520832,"lon":22.972221},"type":"city","name":"Thessaloniki"},{"weight":12183,"index_strings":["naples international airport","nap","naples","italy","it"],"code":"NAP","country_name":"Italy","timezone":"Europe\/Rome","searchable":true,"country_code":"IT","coordinates":{"lat":40.8400969,"lon":14.2516357},"type":"city","name":"Naples"},{"weight":12153,"index_strings":["riga international airport","rix","riga","latvia","lv"],"code":"RIX","country_name":"Latvia","timezone":"Europe\/Riga","searchable":true,"country_code":"LV","coordinates":{"lat":56.92208,"lon":23.979807},"type":"city","name":"Riga"},{"weight":12009,"index_strings":["cmh","columbus","united states","us"],"code":"CMH","country_name":"United States","timezone":"America\/New_York","searchable":true,"country_code":"US","coordinates":{"lat":39.9611755,"lon":-82.99879420000001},"type":"city","name":"Columbus"},{"country_name":"United States","weight":11995,"type":"airport","code":"CMH","searchable":true,"coordinates":{"lat":39.99818,"lon":-82.884964},"index_strings":["cmh","john glenn columbus international airport","columbus","united states","us"],"city_code":"CMH","city_name":"Columbus","state_code":"OH","country_code":"US","name":"John Glenn Columbus International Airport","timezone":"America\/New_York"},{"country_name":"United States","weight":11903,"type":"airport","code":"JFK","searchable":true,"coordinates":{"lat":40.642334,"lon":-73.78816999999999},"index_strings":["jfk","john f. kennedy international airport","new york","nyc","united states","us"],"city_code":"NYC","city_name":"New York","state_code":"NY","country_code":"US","name":"John F. Kennedy International Airport","timezone":"America\/New_York"},{"weight":11897,"index_strings":["jay prakash narayan international airport","pat","patna","india","in"],"code":"PAT","country_name":"India","timezone":"Asia\/Kolkata","searchable":true,"country_code":"IN","coordinates":{"lat":25.59489,"lon":85.09067},"type":"city","name":"Patna"},{"weight":11873,"index_strings":["helsinki","хельсинки","helsinki-vantaa airport","hel","finland","fi"],"code":"HEL","country_name":"Finland","timezone":"Europe\/Helsinki","searchable":true,"country_code":"FI","coordinates":{"lat":60.2943605,"lon":25.0402427},"type":"city","name":"Helsinki"},{"weight":11863,"index_strings":["surat thani airport","urt","surat thani","thailand","th"],"code":"URT","country_name":"Thailand","timezone":"Asia\/Bangkok","searchable":true,"country_code":"TH","coordinates":{"lat":9.133865,"lon":99.143196},"type":"city","name":"Surat Thani"},{"weight":11818,"index_strings":["thira","тира","santorini international airport","jtr","greece","gr"],"code":"JTR","country_name":"Greece","timezone":"Europe\/Athens","searchable":true,"country_code":"GR","coordinates":{"lat":36.4,"lon":25.483334},"type":"city","name":"Thira"},{"country_name":"United States","weight":11756,"type":"airport","code":"PIT","searchable":true,"coordinates":{"lat":40.49585,"lon":-80.25657},"index_strings":["pit","pittsburgh international airport","pittsburgh","united states","us"],"city_code":"PIT","city_name":"Pittsburgh","state_code":"PA","country_code":"US","name":"Pittsburgh International Airport","timezone":"America\/New_York"},{"weight":11756,"index_strings":["pit","pittsburgh","united states","us"],"code":"PIT","country_name":"United States","timezone":"America\/New_York","searchable":true,"country_code":"US","coordinates":{"lat":40.4406248,"lon":-79.9958864},"type":"city","name":"Pittsburgh"},{"weight":11690,"index_strings":["stuttgart airport","str","stuttgart","germany","de"],"code":"STR","country_name":"Germany","timezone":"Europe\/Berlin","searchable":true,"country_code":"DE","coordinates":{"lat":48.7771056,"lon":9.180768799999999},"type":"city","name":"Stuttgart"},{"weight":11654,"index_strings":["koh samui airport","usm","koh samui","thailand","th"],"code":"USM","country_name":"Thailand","timezone":"Asia\/Bangkok","searchable":true,"country_code":"TH","coordinates":{"lat":9.555315,"lon":100.0628},"type":"city","name":"Koh Samui"},{"weight":11294,"index_strings":["baghdad international airport","bgw","baghdad","iraq","iq"],"code":"BGW","country_name":"Iraq","timezone":"Asia\/Baghdad","searchable":true,"country_code":"IQ","coordinates":{"lat":33.255554,"lon":44.225},"type":"city","name":"Baghdad"},{"weight":11283,"index_strings":["edinburgh airport","edi","edinburgh","united kingdom","gb"],"code":"EDI","country_name":"United Kingdom","timezone":"Europe\/London","searchable":true,"country_code":"GB","coordinates":{"lat":55.9501755,"lon":-3.1875359},"type":"city","name":"Edinburgh"},{"weight":11159,"index_strings":["sochi","сочи","sochi international airport","aer","adler\/sochi","russia","ru"],"code":"AER","country_name":"Russia","timezone":"Europe\/Moscow","searchable":true,"country_code":"RU","coordinates":{"lat":43.44884,"lon":39.941105},"type":"city","name":"Adler\/Sochi"},{"weight":11157,"index_strings":["cologne bonn airport","cgn","cologne","germany","de"],"code":"CGN","country_name":"Germany","timezone":"Europe\/Berlin","searchable":true,"country_code":"DE","coordinates":{"lat":50.9406645,"lon":6.9599115},"type":"city","name":"Cologne"},{"weight":11141,"index_strings":["marseille provence airport","mrs","marseille","france","fr"],"code":"MRS","country_name":"France","timezone":"Europe\/Paris","searchable":true,"country_code":"FR","coordinates":{"lat":43.296482,"lon":5.36978},"type":"city","name":"Marseille"},{"weight":10997,"index_strings":["simferopol international airport","sip","simferopol","crimea","kx"],"code":"SIP","country_name":"Crimea","timezone":"Europe\/Simferopol","searchable":true,"country_code":"KX","coordinates":{"lat":45.020657,"lon":33.99819},"type":"city","name":"Simferopol"},{"weight":10989,"index_strings":["guglielmo marconi airport","blq","bologna","italy","it"],"code":"BLQ","country_name":"Italy","timezone":"Europe\/Rome","searchable":true,"country_code":"IT","coordinates":{"lat":44.4941903,"lon":11.3465185},"type":"city","name":"Bologna"},{"weight":10959,"index_strings":["gustavo diaz ordaz international airport","pvr","puerto vallarta","mexico","mx"],"code":"PVR","country_name":"Mexico","timezone":"America\/Mexico_City","searchable":true,"country_code":"MX","coordinates":{"lat":20.678297,"lon":-105.24898},"type":"city","name":"Puerto Vallarta"},{"weight":10922,"index_strings":["malta international airport","mla","malta","mt"],"code":"MLA","country_name":"Malta","timezone":"Europe\/Malta","searchable":true,"country_code":"MT","coordinates":{"lat":35.849777,"lon":14.495401},"type":"city","name":"Malta"},{"weight":10693,"index_strings":["phnom penh international airport","pnh","phnom penh","cambodia","kh"],"code":"PNH","country_name":"Cambodia","timezone":"Asia\/Phnom_Penh","searchable":true,"country_code":"KH","coordinates":{"lat":11.546111,"lon":104.84778},"type":"city","name":"Phnom Penh"},{"weight":10627,"index_strings":["sri guru ram dass jee international airport","atq","amritsar","india","in"],"code":"ATQ","country_name":"India","timezone":"Asia\/Kolkata","searchable":true,"country_code":"IN","coordinates":{"lat":31.706741,"lon":74.8073},"type":"city","name":"Amritsar"},{"weight":10582,"index_strings":["los angeles","лос-анджелес","洛杉矶","ontario international airport","ont","ontario","united states","us"],"code":"ONT","country_name":"United States","timezone":"America\/Los_Angeles","searchable":true,"country_code":"US","coordinates":{"lat":34.05,"lon":-117.64},"type":"city","name":"Ontario"},{"weight":10474,"index_strings":["j. paul ii international airport krakow-balice","krk","krakow","poland","pl"],"code":"KRK","country_name":"Poland","timezone":"Europe\/Warsaw","searchable":true,"country_code":"PL","coordinates":{"lat":50.075493,"lon":19.793743},"type":"city","name":"Krakow"},{"weight":10328,"index_strings":["yangon international airport","rgn","yangon","myanmar","mm"],"code":"RGN","country_name":"Myanmar","timezone":"Asia\/Rangoon","searchable":true,"country_code":"MM","coordinates":{"lat":16.900068,"lon":96.13415500000001},"type":"city","name":"Yangon"},{"weight":10328,"index_strings":["norman manley international airport","kin","kingston","jamaica","jm"],"code":"KIN","country_name":"Jamaica","timezone":"America\/Jamaica","searchable":true,"country_code":"JM","coordinates":{"lat":17.992731,"lon":-76.79200899999999},"type":"city","name":"Kingston"},{"weight":10273,"index_strings":["gran canaria airport","lpa","las palmas","spain","es"],"code":"LPA","country_name":"Spain","timezone":"Atlantic\/Canary","searchable":true,"country_code":"ES","coordinates":{"lat":27.938944,"lon":-15.389351},"type":"city","name":"Las Palmas"},{"weight":10158,"index_strings":["addis ababa bole international airport","add","addis ababa","ethiopia","et"],"code":"ADD","country_name":"Ethiopia","timezone":"Africa\/Addis_Ababa","searchable":true,"country_code":"ET","coordinates":{"lat":8.983758999999999,"lon":38.7959},"type":"city","name":"Addis Ababa"},{"weight":10124,"index_strings":["buffalo niagara international airport","buf","buffalo","united states","us"],"code":"BUF","country_name":"United States","timezone":"America\/New_York","searchable":true,"country_code":"US","coordinates":{"lat":42.8864468,"lon":-78.8783689},"type":"city","name":"Buffalo"},{"weight":10020,"index_strings":["par","paris","france","fr"],"code":"PAR","country_name":"France","timezone":"Europe\/Paris","searchable":true,"country_code":"FR","coordinates":{"lat":48.856614,"lon":2.3522219},"type":"city","name":"Paris"},{"weight":10003,"index_strings":["vilnius international airport","vno","vilnius","lithuania","lt"],"code":"VNO","country_name":"Lithuania","timezone":"Europe\/Vilnius","searchable":true,"country_code":"LT","coordinates":{"lat":54.643078,"lon":25.279606},"type":"city","name":"Vilnius"},{"weight":9999,"index_strings":["deputado luis eduardo magalhaes international airport","ssa","salvador","brazil","br"],"code":"SSA","country_name":"Brazil","timezone":"America\/Bahia","searchable":true,"country_code":"BR","coordinates":{"lat":-12.913988,"lon":-38.335197},"type":"city","name":"Salvador"},{"weight":9970,"index_strings":["jeju international airport","cju","jeju","south korea","kr"],"code":"CJU","country_name":"South Korea","timezone":"Asia\/Seoul","searchable":true,"country_code":"KR","coordinates":{"lat":33.4996213,"lon":126.5311884},"type":"city","name":"Jeju"},{"weight":9946,"index_strings":["mariscal sucre international airport","uio","quito","ecuador","ec"],"code":"UIO","country_name":"Ecuador","timezone":"America\/Guayaquil","searchable":true,"country_code":"EC","coordinates":{"lat":-0.145528,"lon":-78.49053000000001},"type":"city","name":"Quito"},{"weight":9843,"index_strings":["ramon villeda morales international airport","sap","san pedro sula","honduras","hn"],"code":"SAP","country_name":"Honduras","timezone":"America\/Tegucigalpa","searchable":true,"country_code":"HN","coordinates":{"lat":15.456245,"lon":-87.927795},"type":"city","name":"San Pedro Sula"},{"weight":9825,"index_strings":["mangalore airport","ixe","mangalore","india","in"],"code":"IXE","country_name":"India","timezone":"Asia\/Kolkata","searchable":true,"country_code":"IN","coordinates":{"lat":12.963543,"lon":74.89014400000001},"type":"city","name":"Mangalore"},{"weight":9781,"index_strings":["prince mohammad bin abdulaziz international airport","med","madinah","saudi arabia","sa"],"code":"MED","country_name":"Saudi Arabia","timezone":"Asia\/Riyadh","searchable":true,"country_code":"SA","coordinates":{"lat":24.544369,"lon":39.698967},"type":"city","name":"Madinah"},{"weight":9723,"index_strings":["memphis international airport","mem","memphis","united states","us"],"code":"MEM","country_name":"United States","timezone":"America\/Chicago","searchable":true,"country_code":"US","coordinates":{"lat":35.1495343,"lon":-90.04898009999999},"type":"city","name":"Memphis"},{"weight":9695,"index_strings":["yuzhny airport","tas","tashkent","uzbekistan","uz"],"code":"TAS","country_name":"Uzbekistan","timezone":"Asia\/Tashkent","searchable":true,"country_code":"UZ","coordinates":{"lat":41.262714,"lon":69.26618999999999},"type":"city","name":"Tashkent"},{"weight":9643,"index_strings":["fukuoka airport","fuk","fukuoka","japan","jp"],"code":"FUK","country_name":"Japan","timezone":"Asia\/Tokyo","searchable":true,"country_code":"JP","coordinates":{"lat":33.584286,"lon":130.4439},"type":"city","name":"Fukuoka"},{"weight":9586,"index_strings":["sarajevo international airport","sjj","sarajevo","bosnia and herzegovina","ba"],"code":"SJJ","country_name":"Bosnia and Herzegovina","timezone":"Europe\/Sarajevo","searchable":true,"country_code":"BA","coordinates":{"lat":43.826687,"lon":18.336065},"type":"city","name":"Sarajevo"},{"weight":9579,"index_strings":["lynden pindling international airport","nas","nassau","bahamas","bs"],"code":"NAS","country_name":"Bahamas","timezone":"America\/Nassau","searchable":true,"country_code":"BS","coordinates":{"lat":25.06,"lon":-77.345},"type":"city","name":"Nassau"},{"weight":9564,"index_strings":["firenze-peretola airport","flr","florence","italy","it"],"code":"FLR","country_name":"Italy","timezone":"Europe\/Rome","searchable":true,"country_code":"IT","coordinates":{"lat":43.7687324,"lon":11.2569013},"type":"city","name":"Florence"},{"country_name":"United Kingdom","weight":9541,"type":"airport","code":"LHR","searchable":true,"index_strings":["lhr","london heathrow airport","london","lon","united kingdom","gb"],"coordinates":{"lat":51.469604,"lon":-0.453566},"city_code":"LON","city_name":"London","timezone":"Europe\/London","country_code":"GB","name":"London Heathrow Airport"},{"weight":9408,"index_strings":["chiang rai international airport","cei","chiang rai","thailand","th"],"code":"CEI","country_name":"Thailand","timezone":"Asia\/Bangkok","searchable":true,"country_code":"TH","coordinates":{"lat":19.954609,"lon":99.878815},"type":"city","name":"Chiang Rai"},{"weight":9401,"index_strings":["falcone-borsellino airport","pmo","palermo","italy","it"],"code":"PMO","country_name":"Italy","timezone":"Europe\/Rome","searchable":true,"country_code":"IT","coordinates":{"lat":38.186523,"lon":13.104779},"type":"city","name":"Palermo"},{"weight":9209,"index_strings":["myrtle beach international airport","myr","myrtle beach","united states","us"],"code":"MYR","country_name":"United States","timezone":"America\/New_York","searchable":true,"country_code":"US","coordinates":{"lat":33.6890603,"lon":-78.8866943},"type":"city","name":"Myrtle Beach"},{"weight":9200,"index_strings":["jose joaquin de olmedo airport","gye","guayaquil","ecuador","ec"],"code":"GYE","country_name":"Ecuador","timezone":"America\/Guayaquil","searchable":true,"country_code":"EC","coordinates":{"lat":-2.142654,"lon":-79.88032},"type":"city","name":"Guayaquil"},{"weight":9143,"index_strings":["trabzon airport","tzx","trabzon","turkey","tr"],"code":"TZX","country_name":"Turkey","timezone":"Europe\/Istanbul","searchable":true,"country_code":"TR","coordinates":{"lat":40.99419,"lon":39.78168},"type":"city","name":"Trabzon"},{"weight":9062,"index_strings":["tiruchirapalli international airport","trz","tiruchirappalli","india","in"],"code":"TRZ","country_name":"India","timezone":"Asia\/Kolkata","searchable":true,"country_code":"IN","coordinates":{"lat":10.762168,"lon":78.70724},"type":"city","name":"Tiruchirappalli"},{"weight":9028,"index_strings":["valencia airport","vlc","valencia","spain","es"],"code":"VLC","country_name":"Spain","timezone":"Europe\/Madrid","searchable":true,"country_code":"ES","coordinates":{"lat":39.4907322,"lon":-0.4558824},"type":"city","name":"Valencia"},{"weight":8944,"index_strings":["krasnodar international airport","krr","krasnodar","russia","ru"],"code":"KRR","country_name":"Russia","timezone":"Europe\/Moscow","searchable":true,"country_code":"RU","coordinates":{"lat":45.034138,"lon":39.139004},"type":"city","name":"Krasnodar"},{"weight":8928,"index_strings":["pinto martins airport","for","fortaleza","brazil","br"],"code":"FOR","country_name":"Brazil","timezone":"America\/Fortaleza","searchable":true,"country_code":"BR","coordinates":{"lat":-3.779073,"lon":-38.540836},"type":"city","name":"Fortaleza"},{"weight":8923,"index_strings":["chisinau international airport","kiv","chisinau","moldova","md"],"code":"KIV","country_name":"Moldova","timezone":"Europe\/Chisinau","searchable":true,"country_code":"MD","coordinates":{"lat":46.935444,"lon":28.934967},"type":"city","name":"Chisinau"},{"weight":8906,"index_strings":["tyo","tokyo","japan","jp"],"code":"TYO","country_name":"Japan","timezone":"Asia\/Tokyo","searchable":true,"country_code":"JP","coordinates":{"lat":35.6894875,"lon":139.6917064},"type":"city","name":"Tokyo"},{"country_name":"United States","weight":8872,"type":"airport","code":"ORF","searchable":true,"coordinates":{"lat":36.898582,"lon":-76.20629},"index_strings":["orf","norfolk international airport","norfolk","united states","us"],"city_code":"ORF","city_name":"Norfolk","state_code":"VA","country_code":"US","name":"Norfolk International Airport","timezone":"America\/New_York"},{"weight":8872,"index_strings":["orf","norfolk","united states","us"],"code":"ORF","country_name":"United States","timezone":"America\/New_York","searchable":true,"country_code":"US","coordinates":{"lat":36.8507689,"lon":-76.2858726},"type":"city","name":"Norfolk"},{"weight":8804,"index_strings":["reina beatrix international airport","aua","aruba","aw"],"code":"AUA","country_name":"Aruba","timezone":"America\/Aruba","searchable":true,"country_code":"AW","coordinates":{"lat":12.502222,"lon":-70.013885},"type":"city","name":"Aruba"},{"weight":8752,"index_strings":["will rogers world airport","okc","oklahoma city","united states","us"],"code":"OKC","country_name":"United States","timezone":"America\/Chicago","searchable":true,"country_code":"US","coordinates":{"lat":35.4675602,"lon":-97.5164276},"type":"city","name":"Oklahoma City"},{"weight":8750,"index_strings":["odessa international airport","ods","odessa","ukraine","ua"],"code":"ODS","country_name":"Ukraine","timezone":"Europe\/Kiev","searchable":true,"country_code":"UA","coordinates":{"lat":46.44101,"lon":30.676718},"type":"city","name":"Odessa"},{"weight":8658,"index_strings":["ted stevens anchorage international airport","anc","anchorage","united states","us"],"code":"ANC","country_name":"United States","timezone":"America\/Anchorage","searchable":true,"country_code":"US","coordinates":{"lat":61.2180556,"lon":-149.9002778},"type":"city","name":"Anchorage"},{"weight":8654,"index_strings":["lys","lyon","france","fr"],"code":"LYS","country_name":"France","timezone":"Europe\/Paris","searchable":true,"country_code":"FR","coordinates":{"lat":45.764043,"lon":4.835659},"type":"city","name":"Lyon"},{"weight":8623,"index_strings":["palese airport","bri","bari","italy","it"],"code":"BRI","country_name":"Italy","timezone":"Europe\/Rome","searchable":true,"country_code":"IT","coordinates":{"lat":41.1259998,"lon":16.8683784},"type":"city","name":"Bari"},{"weight":8604,"index_strings":["charleston international airport","chs","charleston","united states","us"],"code":"CHS","country_name":"United States","timezone":"America\/New_York","searchable":true,"country_code":"US","coordinates":{"lat":32.884354,"lon":-80.037155},"type":"city","name":"Charleston"},{"weight":8589,"index_strings":["kabul international airport","kbl","kabul","afghanistan","af"],"code":"KBL","country_name":"Afghanistan","timezone":"Asia\/Kabul","searchable":true,"country_code":"AF","coordinates":{"lat":34.56069,"lon":69.21151999999999},"type":"city","name":"Kabul"},{"weight":8558,"index_strings":["augusto c sandino international airport","mga","managua","nicaragua","ni"],"code":"MGA","country_name":"Nicaragua","timezone":"America\/Managua","searchable":true,"country_code":"NI","coordinates":{"lat":12.144838,"lon":-86.17126500000001},"type":"city","name":"Managua"},{"weight":8558,"index_strings":["mashhad international airport","mhd","mashad","iran","ir"],"code":"MHD","country_name":"Iran","timezone":"Asia\/Tehran","searchable":true,"country_code":"IR","coordinates":{"lat":36.227173,"lon":59.64165},"type":"city","name":"Mashad"},{"weight":8535,"index_strings":["lal bahadur shastri international airport","vns","varanasi","india","in"],"code":"VNS","country_name":"India","timezone":"Asia\/Kolkata","searchable":true,"country_code":"IN","coordinates":{"lat":25.449697,"lon":82.85373},"type":"city","name":"Varanasi"},{"country_name":"France","weight":8526,"type":"airport","code":"LYS","searchable":true,"index_strings":["lys","lyon saint-exupery international airport","lyon","france","fr"],"coordinates":{"lat":45.721424,"lon":5.080334},"city_code":"LYS","city_name":"Lyon","timezone":"Europe\/Paris","country_code":"FR","name":"Lyon Saint-Exupery International Airport"},{"weight":8473,"index_strings":["pune airport","pnq","pune","india","in"],"code":"PNQ","country_name":"India","timezone":"Asia\/Kolkata","searchable":true,"country_code":"IN","coordinates":{"lat":18.581388,"lon":73.92055499999999},"type":"city","name":"Pune"},{"weight":8417,"index_strings":["gold coast airport","ool","coolangatta (gold coast)","australia","au"],"code":"OOL","country_name":"Australia","timezone":"Australia\/Brisbane","searchable":true,"country_code":"AU","coordinates":{"lat":-28.166164,"lon":153.51314},"type":"city","name":"Coolangatta (Gold Coast)"},{"country_name":"France","weight":8352,"type":"airport","code":"CDG","searchable":true,"index_strings":["cdg","charles de gaulle airport","paris","par","france","fr"],"coordinates":{"lat":49.003197,"lon":2.567023},"city_code":"PAR","city_name":"Paris","timezone":"Europe\/Paris","country_code":"FR","name":"Charles de Gaulle Airport"},{"weight":8258,"index_strings":["zagreb international airport","zag","zagreb","croatia","hr"],"code":"ZAG","country_name":"Croatia","timezone":"Europe\/Zagreb","searchable":true,"country_code":"HR","coordinates":{"lat":45.733242,"lon":16.06152},"type":"city","name":"Zagreb"},{"weight":8254,"index_strings":["richmond international airport (byrd field)","ric","richmond","united states","us"],"code":"RIC","country_name":"United States","timezone":"America\/New_York","searchable":true,"country_code":"US","coordinates":{"lat":37.542979,"lon":-77.469092},"type":"city","name":"Richmond"},{"weight":8250,"index_strings":["faro airport","fao","faro","portugal","pt"],"code":"FAO","country_name":"Portugal","timezone":"Europe\/Lisbon","searchable":true,"country_code":"PT","coordinates":{"lat":37.0153597,"lon":-7.935113},"type":"city","name":"Faro"},{"weight":8211,"index_strings":["general mitchell international airport","mke","milwaukee","united states","us"],"code":"MKE","country_name":"United States","timezone":"America\/Chicago","searchable":true,"country_code":"US","coordinates":{"lat":43.0389025,"lon":-87.9064736},"type":"city","name":"Milwaukee"},{"weight":8171,"index_strings":["srinagar international airport","sxr","srinagar","india","in"],"code":"SXR","country_name":"India","timezone":"Asia\/Kolkata","searchable":true,"country_code":"IN","coordinates":{"lat":34.002308,"lon":74.76263400000001},"type":"city","name":"Srinagar"},{"weight":8154,"index_strings":["birmingham international airport","bhx","birmingham","united kingdom","gb"],"code":"BHX","country_name":"United Kingdom","timezone":"Europe\/London","searchable":true,"country_code":"GB","coordinates":{"lat":52.4829614,"lon":-1.893592},"type":"city","name":"Birmingham"},{"weight":8079,"index_strings":["pristina international airport","prn","pristina","kosovo","xk"],"code":"PRN","country_name":"Kosovo","timezone":"Europe\/Belgrade","searchable":true,"country_code":"XK","coordinates":{"lat":42.573612,"lon":21.035557},"type":"city","name":"Pristina"},{"weight":8060,"index_strings":["seville airport","svq","sevilla","spain","es"],"code":"SVQ","country_name":"Spain","timezone":"Europe\/Madrid","searchable":true,"country_code":"ES","coordinates":{"lat":37.38264,"lon":-5.9962951},"type":"city","name":"Sevilla"},{"weight":8034,"index_strings":["simon bolivar international airport","ccs","caracas","venezuela","ve"],"code":"CCS","country_name":"Venezuela","timezone":"America\/Caracas","searchable":true,"country_code":"VE","coordinates":{"lat":10.596942,"lon":-67.00551},"type":"city","name":"Caracas"},{"weight":8031,"index_strings":["al-najaf international airport","njf","al-najaf","iraq","iq"],"code":"NJF","country_name":"Iraq","timezone":"Asia\/Baghdad","searchable":true,"country_code":"IQ","coordinates":{"lat":31.993563,"lon":44.389187},"type":"city","name":"Al-Najaf"},{"weight":8011,"index_strings":["mde","medellin","colombia","co"],"code":"MDE","country_name":"Colombia","timezone":"America\/Bogota","searchable":true,"country_code":"CO","coordinates":{"lat":6.235925,"lon":-75.575137},"type":"city","name":"Medellin"},{"weight":7978,"index_strings":["bradley international airport","bdl","hartford","united states","us"],"code":"BDL","country_name":"United States","timezone":"America\/New_York","searchable":true,"country_code":"US","coordinates":{"lat":41.92953,"lon":-72.68470000000001},"type":"city","name":"Hartford"},{"weight":7945,"index_strings":["erbil international airport","ebl","erbil","iraq","iq"],"code":"EBL","country_name":"Iraq","timezone":"Asia\/Baghdad","searchable":true,"country_code":"IQ","coordinates":{"lat":36.2375,"lon":43.963055},"type":"city","name":"Erbil"},{"country_name":"Colombia","weight":7942,"type":"airport","code":"MDE","searchable":true,"index_strings":["mde","jose maria cordova international airport","medellin","colombia","co"],"coordinates":{"lat":6.171382,"lon":-75.42821000000001},"city_code":"MDE","city_name":"Medellin","timezone":"America\/Bogota","country_code":"CO","name":"Jose Maria Cordova International Airport"},{"weight":7911,"index_strings":["brasilia international airport","bsb","brasilia","brazil","br"],"code":"BSB","country_name":"Brazil","timezone":"America\/Sao_Paulo","searchable":true,"country_code":"BR","coordinates":{"lat":-15.869807,"lon":-47.921486},"type":"city","name":"Brasilia"},{"weight":7813,"index_strings":["tucson international airport","tus","tucson","united states","us"],"code":"TUS","country_name":"United States","timezone":"America\/Phoenix","searchable":true,"country_code":"US","coordinates":{"lat":32.2217429,"lon":-110.926479},"type":"city","name":"Tucson"},{"weight":7793,"index_strings":["gla","glasgow","united kingdom","gb"],"code":"GLA","country_name":"United Kingdom","timezone":"Europe\/London","searchable":true,"country_code":"GB","coordinates":{"lat":55.8656274,"lon":-4.2572227},"type":"city","name":"Glasgow"},{"weight":7772,"index_strings":["elp","el paso","united states","us"],"code":"ELP","country_name":"United States","timezone":"America\/Denver","searchable":true,"country_code":"US","coordinates":{"lat":31.7587198,"lon":-106.4869314},"type":"city","name":"El Paso"},{"country_name":"United States","weight":7772,"type":"airport","code":"ELP","searchable":true,"coordinates":{"lat":31.798948,"lon":-106.396},"index_strings":["elp","el paso international airport","el paso","united states","us"],"city_code":"ELP","city_name":"El Paso","state_code":"TX","country_code":"US","name":"El Paso International Airport","timezone":"America\/Denver"},{"weight":7687,"index_strings":["guararapes-gilberto freyre international airport","rec","recife","brazil","br"],"code":"REC","country_name":"Brazil","timezone":"America\/Recife","searchable":true,"country_code":"BR","coordinates":{"lat":-8.131506999999999,"lon":-34.91792},"type":"city","name":"Recife"},{"weight":7681,"index_strings":["guanajuato international airport","bjx","leon\/guanajuato","mexico","mx"],"code":"BJX","country_name":"Mexico","timezone":"America\/Mexico_City","searchable":true,"country_code":"MX","coordinates":{"lat":20.985699,"lon":-101.479},"type":"city","name":"Leon\/Guanajuato"},{"weight":7648,"index_strings":["albuquerque international sunport","abq","albuquerque","united states","us"],"code":"ABQ","country_name":"United States","timezone":"America\/Denver","searchable":true,"country_code":"US","coordinates":{"lat":35.049625,"lon":-106.617195},"type":"city","name":"Albuquerque"},{"country_name":"United Kingdom","weight":7641,"type":"airport","code":"GLA","searchable":true,"index_strings":["gla","glasgow international airport","glasgow","united kingdom","gb"],"coordinates":{"lat":55.864212,"lon":-4.431782},"city_code":"GLA","city_name":"Glasgow","timezone":"Europe\/London","country_code":"GB","name":"Glasgow International Airport"},{"weight":7614,"index_strings":["skopje alexander the great airport","skp","skopje","macedonia","mk"],"code":"SKP","country_name":"Macedonia","timezone":"Europe\/Skopje","searchable":true,"country_code":"MK","coordinates":{"lat":41.95649,"lon":21.62872},"type":"city","name":"Skopje"},{"weight":7486,"index_strings":["piarco international airport","pos","port of spain","trinidad and tobago","tt"],"code":"POS","country_name":"Trinidad and Tobago","timezone":"America\/Port_of_Spain","searchable":true,"country_code":"TT","coordinates":{"lat":10.602089,"lon":-61.339413},"type":"city","name":"Port Of Spain"},{"weight":7417,"index_strings":["pensacola international airport","pns","pensacola","united states","us"],"code":"PNS","country_name":"United States","timezone":"America\/Chicago","searchable":true,"country_code":"US","coordinates":{"lat":30.421309,"lon":-87.21691490000001},"type":"city","name":"Pensacola"},{"weight":7388,"index_strings":["adelaide airport","adl","adelaide","australia","au"],"code":"ADL","country_name":"Australia","timezone":"Australia\/Adelaide","searchable":true,"country_code":"AU","coordinates":{"lat":-34.9286212,"lon":138.5999594},"type":"city","name":"Adelaide"},{"weight":7388,"index_strings":["reno\/tahoe international airport","rno","reno","united states","us"],"code":"RNO","country_name":"United States","timezone":"America\/Los_Angeles","searchable":true,"country_code":"US","coordinates":{"lat":39.505783,"lon":-119.775696},"type":"city","name":"Reno"},{"country_name":"Ukraine","weight":7338,"type":"airport","code":"KBP","searchable":true,"index_strings":["kbp","boryspil international airport","kiev","iev","ukraine","ua"],"coordinates":{"lat":50.341244,"lon":30.895206},"city_code":"IEV","city_name":"Kiev","timezone":"Europe\/Kiev","country_code":"UA","name":"Boryspil International Airport"},{"weight":7220,"index_strings":["penang international airport","pen","penang","malaysia","my"],"code":"PEN","country_name":"Malaysia","timezone":"Asia\/Kuala_Lumpur","searchable":true,"country_code":"MY","coordinates":{"lat":5.292961,"lon":100.265175},"type":"city","name":"Penang"},{"weight":7188,"index_strings":["mfm","macau","mo"],"code":"MFM","country_name":"Macau","timezone":"Asia\/Macau","searchable":true,"country_code":"MO","coordinates":{"lat":22.1638446,"lon":113.5549937},"type":"city","name":"Macau"},{"country_name":"Macau","weight":7183,"type":"airport","code":"MFM","searchable":true,"index_strings":["mfm","macau international airport","macau","mo"],"coordinates":{"lat":22.156588,"lon":113.57285},"city_code":"MFM","city_name":"Macau","timezone":"Asia\/Macau","country_code":"MO","name":"Macau International Airport"},{"weight":7165,"index_strings":["siem reap international airport","rep","siem reap","cambodia","kh"],"code":"REP","country_name":"Cambodia","timezone":"Asia\/Phnom_Penh","searchable":true,"country_code":"KH","coordinates":{"lat":13.408436,"lon":103.815926},"type":"city","name":"Siem Reap"},{"weight":7137,"index_strings":["cvg","cincinnati","united states","us"],"code":"CVG","country_name":"United States","timezone":"America\/New_York","searchable":true,"country_code":"US","coordinates":{"lat":39.0836712,"lon":-84.5085536},"type":"city","name":"Cincinnati"},{"weight":7118,"index_strings":["hurghada international airport","hrg","hurghada","egypt","eg"],"code":"HRG","country_name":"Egypt","timezone":"Africa\/Cairo","searchable":true,"country_code":"EG","coordinates":{"lat":27.189156,"lon":33.8055},"type":"city","name":"Hurghada"},{"weight":7108,"index_strings":["kona international airport at keahole","koa","kailua-kona","united states","us"],"code":"KOA","country_name":"United States","timezone":"Pacific\/Honolulu","searchable":true,"country_code":"US","coordinates":{"lat":19.736174,"lon":-156.04108},"type":"city","name":"Kailua-Kona"},{"country_name":"United States","weight":7108,"type":"airport","code":"CVG","searchable":true,"coordinates":{"lat":39.0555,"lon":-84.66145},"index_strings":["cvg","cincinnati\/northern kentucky airport","cincinnati","united states","us"],"city_code":"CVG","city_name":"Cincinnati","state_code":"OH","country_code":"US","name":"Cincinnati\/Northern Kentucky Airport","timezone":"America\/New_York"},{"weight":7003,"index_strings":["lviv international airport","lwo","lviv","ukraine","ua"],"code":"LWO","country_name":"Ukraine","timezone":"Europe\/Kiev","searchable":true,"country_code":"UA","coordinates":{"lat":49.816418,"lon":23.955318},"type":"city","name":"Lviv"},{"weight":6955,"index_strings":["gimhae international airport","pus","busan","south korea","kr"],"code":"PUS","country_name":"South Korea","timezone":"Asia\/Seoul","searchable":true,"country_code":"KR","coordinates":{"lat":35.179317,"lon":128.94873},"type":"city","name":"Busan"},