[{"name":"United States","weight":2612438,"type":"country","code":"US","searchable":true,"index_strings":["us","united states"]},{"name":"India","weight":706250,"type":"country","code":"IN","searchable":true,"index_strings":["in","india"]},{"name":"Thailand","weight":526611,"type":"country","code":"TH","searchable":true,"index_strings":["th","thailand"]},{"name":"Turkey","weight":349027,"type":"country","code":"TR","searchable":true,"index_strings":["tr","turkey"]},{"name":"Spain","weight":317554,"type":"country","code":"ES","searchable":true,"index_strings":["es","spain"]},{"name":"Bangkok","country_name":"Thailand","country_code":"TH","code":"BKK","index_strings":["bkk","bangkok","thailand","th"],"timezone":"Asia\/Bangkok","weight":291166,"coordinates":{"lat":13.7234186,"lon":100.4762319},"type":"city","searchable":true},{"name":"Suvarnabhumi Airport","country_name":"Thailand","city_code":"BKK","city_name":"Bangkok","code":"BKK","country_code":"TH","index_strings":["bkk","suvarnabhumi airport","bangkok","thailand","th"],"timezone":"Asia\/Bangkok","weight":284282,"coordinates":{"lat":13.693062,"lon":100.752045},"type":"airport","searchable":true},{"name":"Germany","weight":253312,"type":"country","code":"DE","searchable":true,"index_strings":["de","germany"]},{"name":"Mexico","weight":231253,"type":"country","code":"MX","searchable":true,"index_strings":["mx","mexico"]},{"name":"Istanbul","country_name":"Turkey","country_code":"TR","code":"IST","index_strings":["ist","istanbul","turkey","tr"],"timezone":"Europe\/Istanbul","weight":229112,"coordinates":{"lat":40.976665,"lon":28.815277},"type":"city","searchable":true},{"name":"Istanbul Ataturk Airport","country_name":"Turkey","city_code":"IST","city_name":"Istanbul","code":"IST","country_code":"TR","index_strings":["ist","istanbul ataturk airport","istanbul","turkey","tr"],"timezone":"Europe\/Istanbul","weight":227384,"coordinates":{"lat":40.976665,"lon":28.815277},"type":"airport","searchable":true},{"name":"United Arab Emirates","weight":226466,"type":"country","code":"AE","searchable":true,"index_strings":["ae","united arab emirates"]},{"name":"Los Angeles","country_name":"United States","country_code":"US","code":"LAX","index_strings":["lax","los angeles","united states","us"],"timezone":"America\/Los_Angeles","weight":221065,"coordinates":{"lat":34.0522342,"lon":-118.2436849},"type":"city","searchable":true},{"name":"Los Angeles International Airport","city_code":"LAX","city_name":"Los Angeles","state_code":"CA","coordinates":{"lat":33.943398,"lon":-118.40828},"type":"airport","country_name":"United States","country_code":"US","code":"LAX","index_strings":["lax","los angeles international airport","los angeles","united states","us"],"timezone":"America\/Los_Angeles","weight":221046,"searchable":true},{"name":"Australia","weight":182179,"type":"country","code":"AU","searchable":true,"index_strings":["au","australia"]},{"name":"Dubai","country_name":"United Arab Emirates","country_code":"AE","code":"DXB","index_strings":["dxb","dubai","united arab emirates","ae"],"timezone":"Asia\/Dubai","weight":181450,"coordinates":{"lat":25.2644444,"lon":55.3116667},"type":"city","searchable":true},{"name":"Dubai Airport","country_name":"United Arab Emirates","city_code":"DXB","city_name":"Dubai","code":"DXB","country_code":"AE","index_strings":["dxb","dubai airport","dubai","united arab emirates","ae"],"timezone":"Asia\/Dubai","weight":179906,"coordinates":{"lat":25.248665,"lon":55.352917},"type":"airport","searchable":true},{"name":"China","weight":169789,"type":"country","code":"CN","searchable":true,"index_strings":["cn","china"]},{"name":"Las Vegas","country_name":"United States","country_code":"US","code":"LAS","index_strings":["las","las vegas","united states","us"],"timezone":"America\/Los_Angeles","weight":165444,"coordinates":{"lat":36.114646,"lon":-115.172816},"type":"city","searchable":true},{"name":"McCarran International Airport","city_code":"LAS","city_name":"Las Vegas","state_code":"NV","coordinates":{"lat":36.086945,"lon":-115.1486},"type":"airport","country_name":"United States","country_code":"US","code":"LAS","index_strings":["las","mccarran international airport","las vegas","united states","us"],"timezone":"America\/Los_Angeles","weight":165407,"searchable":true},{"name":"Saudi Arabia","weight":162037,"type":"country","code":"SA","searchable":true,"index_strings":["sa","saudi arabia"]},{"name":"Philippines","weight":155688,"type":"country","code":"PH","searchable":true,"index_strings":["ph","philippines"]},{"name":"Italy","weight":150720,"type":"country","code":"IT","searchable":true,"index_strings":["it","italy"]},{"name":"Miami","country_name":"United States","country_code":"US","code":"MIA","index_strings":["mia","miami","united states","us"],"timezone":"America\/New_York","weight":144071,"coordinates":{"lat":25.7889689,"lon":-80.2264393},"type":"city","searchable":true},{"name":"Miami International Airport","city_code":"MIA","city_name":"Miami","state_code":"FL","coordinates":{"lat":25.796,"lon":-80.27824},"type":"airport","country_name":"United States","country_code":"US","code":"MIA","index_strings":["mia","miami international airport","miami","united states","us"],"timezone":"America\/New_York","weight":144055,"searchable":true},{"name":"Orlando","country_name":"United States","country_code":"US","code":"ORL","index_strings":["orl","orlando","united states","us"],"timezone":"America\/New_York","weight":139221,"coordinates":{"lat":28.533611,"lon":-81.386667},"type":"city","searchable":true},{"name":"Egypt","weight":135280,"type":"country","code":"EG","searchable":true,"index_strings":["eg","egypt"]},{"name":"Russia","weight":128954,"type":"country","code":"RU","searchable":true,"index_strings":["ru","russia"]},{"name":"Delhi","country_name":"India","country_code":"IN","code":"DEL","index_strings":["indira gandhi international airport","del","delhi","india","in"],"timezone":"Asia\/Kolkata","weight":121432,"coordinates":{"lat":28.556555,"lon":77.10079},"type":"city","searchable":true},{"name":"Indira Gandhi International Airport","country_name":"India","city_code":"DEL","city_name":"Delhi","code":"DEL","country_code":"IN","index_strings":["del","indira gandhi international airport","delhi","india","in"],"timezone":"Asia\/Kolkata","weight":121430,"coordinates":{"lat":28.556555,"lon":77.10079},"type":"airport","searchable":false},{"name":"Pakistan","weight":119137,"type":"country","code":"PK","searchable":true,"index_strings":["pk","pakistan"]},{"name":"Chicago","country_name":"United States","country_code":"US","code":"CHI","index_strings":["chi","chicago","united states","us"],"timezone":"America\/Chicago","weight":114714,"coordinates":{"lat":41.8781136,"lon":-87.6297982},"type":"city","searchable":true},{"name":"Brazil","weight":113657,"type":"country","code":"BR","searchable":true,"index_strings":["br","brazil"]},{"name":"Greece","weight":112351,"type":"country","code":"GR","searchable":true,"index_strings":["gr","greece"]},{"name":"Malaysia","weight":109059,"type":"country","code":"MY","searchable":true,"index_strings":["my","malaysia"]},{"name":"Manila","country_name":"Philippines","country_code":"PH","code":"MNL","index_strings":["ninoy aquino international airport","mnl","manila","philippines","ph"],"timezone":"Asia\/Manila","weight":102960,"coordinates":{"lat":14.5995124,"lon":120.9842195},"type":"city","searchable":true},{"name":"Ninoy Aquino International Airport","country_name":"Philippines","city_code":"MNL","city_name":"Manila","code":"MNL","country_code":"PH","index_strings":["mnl","ninoy aquino international airport","manila","philippines","ph"],"timezone":"Asia\/Manila","weight":102955,"coordinates":{"lat":14.509602,"lon":121.01251},"type":"airport","searchable":false},{"name":"San Francisco","country_name":"United States","country_code":"US","code":"SFO","index_strings":["san francisco international airport","sfo","san francisco","united states","us"],"timezone":"America\/Los_Angeles","weight":102805,"coordinates":{"lat":37.7749295,"lon":-122.4194155},"type":"city","searchable":true},{"name":"San Francisco International Airport","city_code":"SFO","city_name":"San Francisco","state_code":"CA","coordinates":{"lat":37.615215,"lon":-122.38988},"type":"airport","country_name":"United States","country_code":"US","code":"SFO","index_strings":["sfo","san francisco international airport","san francisco","united states","us"],"timezone":"America\/Los_Angeles","weight":102798,"searchable":false},{"name":"Barcelona","country_name":"Spain","country_code":"ES","code":"BCN","index_strings":["barcelona-el prat airport","bcn","barcelona","spain","es"],"timezone":"Europe\/Madrid","weight":100932,"coordinates":{"lat":41.387917,"lon":2.1699187},"type":"city","searchable":true},{"name":"Barcelona-El Prat Airport","country_name":"Spain","city_code":"BCN","city_name":"Barcelona","code":"BCN","country_code":"ES","index_strings":["bcn","barcelona-el prat airport","barcelona","spain","es"],"timezone":"Europe\/Madrid","weight":100917,"coordinates":{"lat":41.30303,"lon":2.07593},"type":"airport","searchable":false},{"name":"Canada","weight":99700,"type":"country","code":"CA","searchable":true,"index_strings":["ca","canada"]},{"name":"Netherlands","weight":99077,"type":"country","code":"NL","searchable":true,"index_strings":["nl","netherlands"]},{"name":"United Kingdom","weight":98779,"type":"country","code":"GB","searchable":true,"index_strings":["gb","united kingdom"]},{"name":"Cairo","country_name":"Egypt","country_code":"EG","code":"CAI","index_strings":["cairo international airport","cai","cairo","egypt","eg"],"timezone":"Africa\/Cairo","weight":90037,"coordinates":{"lat":30.120106,"lon":31.40647},"type":"city","searchable":true},{"name":"Cairo International Airport","country_name":"Egypt","city_code":"CAI","city_name":"Cairo","code":"CAI","country_code":"EG","index_strings":["cai","cairo international airport","cairo","egypt","eg"],"timezone":"Africa\/Cairo","weight":90035,"coordinates":{"lat":30.120106,"lon":31.40647},"type":"airport","searchable":false},{"name":"Amsterdam","country_name":"Netherlands","country_code":"NL","code":"AMS","index_strings":["amsterdam airport schiphol","ams","amsterdam","netherlands","nl"],"timezone":"Europe\/Amsterdam","weight":90020,"coordinates":{"lat":52.3730556,"lon":4.8922222},"type":"city","searchable":true},{"name":"Amsterdam Airport Schiphol","country_name":"Netherlands","city_code":"AMS","city_name":"Amsterdam","code":"AMS","country_code":"NL","index_strings":["ams","amsterdam airport schiphol","amsterdam","netherlands","nl"],"timezone":"Europe\/Amsterdam","weight":89972,"coordinates":{"lat":52.30907,"lon":4.763385},"type":"airport","searchable":false},{"name":"Morocco","weight":89838,"type":"country","code":"MA","searchable":true,"index_strings":["ma","morocco"]},{"name":"Ukraine","weight":83494,"type":"country","code":"UA","searchable":true,"index_strings":["ua","ukraine"]},{"name":"Chhatrapati Shivaji International Airport","country_name":"India","city_code":"BOM","city_name":"Mumbai","code":"BOM","country_code":"IN","index_strings":["bom","chhatrapati shivaji international airport","mumbai","india","in"],"timezone":"Asia\/Kolkata","weight":82660,"coordinates":{"lat":19.095509,"lon":72.87497},"type":"airport","searchable":false},{"name":"Mumbai","country_name":"India","country_code":"IN","code":"BOM","index_strings":["бомбей","bombay","chhatrapati shivaji international airport","bom","mumbai","india","in"],"timezone":"Asia\/Kolkata","weight":82660,"coordinates":{"lat":19.095509,"lon":72.87497},"type":"city","searchable":true},{"name":"Singapore","weight":82637,"type":"country","code":"SG","searchable":true,"index_strings":["sg","singapore"]},{"name":"Singapore","country_name":"Singapore","country_code":"SG","code":"SIN","index_strings":["changi international airport","sin","singapore","sg"],"timezone":"Asia\/Singapore","weight":82632,"coordinates":{"lat":1.2894365,"lon":103.8499802},"type":"city","searchable":true},{"name":"Changi International Airport","country_name":"Singapore","city_code":"SIN","city_name":"Singapore","code":"SIN","country_code":"SG","index_strings":["sin","changi international airport","singapore","sg"],"timezone":"Asia\/Singapore","weight":82598,"coordinates":{"lat":1.361173,"lon":103.990204},"type":"airport","searchable":false},{"name":"France","weight":81044,"type":"country","code":"FR","searchable":true,"index_strings":["fr","france"]},{"name":"Fort Lauderdale","country_name":"United States","country_code":"US","code":"FLL","index_strings":["miami","майами","迈阿密","fll","fort lauderdale","united states","us"],"timezone":"America\/New_York","weight":79034,"coordinates":{"lat":26.1223084,"lon":-80.14337860000001},"type":"city","searchable":true},{"name":"Fort Lauderdale-Hollywood International Airport","city_code":"FLL","city_name":"Fort Lauderdale","state_code":"FL","coordinates":{"lat":26.071491,"lon":-80.14490499999999},"type":"airport","country_name":"United States","country_code":"US","code":"FLL","index_strings":["fll","fort lauderdale-hollywood international airport","fort lauderdale","united states","us"],"timezone":"America\/New_York","weight":79009,"searchable":true},{"name":"Kuala Lumpur","country_name":"Malaysia","country_code":"MY","code":"KUL","index_strings":["kul","kuala lumpur","malaysia","my"],"timezone":"Asia\/Kuala_Lumpur","weight":78660,"coordinates":{"lat":3.139003,"lon":101.686855},"type":"city","searchable":true},{"name":"Kuala Lumpur International Airport","country_name":"Malaysia","city_code":"KUL","city_name":"Kuala Lumpur","code":"KUL","country_code":"MY","index_strings":["kul","kuala lumpur international airport","kuala lumpur","malaysia","my"],"timezone":"Asia\/Kuala_Lumpur","weight":77010,"coordinates":{"lat":2.755672,"lon":101.70539},"type":"airport","searchable":true},{"name":"Hong Kong","weight":76895,"type":"country","code":"HK","searchable":false,"index_strings":["hk","hong kong"]},{"name":"Hong Kong","country_name":"Hong Kong","country_code":"HK","code":"HKG","index_strings":["hkg","hong kong","hk"],"timezone":"Asia\/Hong_Kong","weight":76889,"coordinates":{"lat":22.2478599,"lon":114.2033843},"type":"city","searchable":true},{"name":"Hong Kong International Airport","country_name":"Hong Kong","city_code":"HKG","city_name":"Hong Kong","code":"HKG","country_code":"HK","index_strings":["hkg","hong kong international airport","hong kong","hk"],"timezone":"Asia\/Hong_Kong","weight":76879,"coordinates":{"lat":22.315248,"lon":113.93649},"type":"airport","searchable":true},{"name":"Dallas\/Fort Worth International Airport","city_code":"DFW","city_name":"Dallas","state_code":"TX","coordinates":{"lat":32.89746,"lon":-97.036125},"type":"airport","country_name":"United States","country_code":"US","code":"DFW","index_strings":["dfw","dallas\/fort worth international airport","dallas","united states","us"],"timezone":"America\/Chicago","weight":74749,"searchable":true},{"name":"Dallas","country_name":"United States","country_code":"US","code":"DFW","index_strings":["dfw","dallas","united states","us"],"timezone":"America\/Chicago","weight":74639,"coordinates":{"lat":32.802955,"lon":-96.76992300000001},"type":"city","searchable":true},{"name":"Atlanta","country_name":"United States","country_code":"US","code":"ATL","index_strings":["atl","atlanta","united states","us"],"timezone":"America\/New_York","weight":73152,"coordinates":{"lat":33.7489954,"lon":-84.3879824},"type":"city","searchable":true},{"name":"Hartsfield-Jackson Atlanta International Airport","city_code":"ATL","city_name":"Atlanta","state_code":"GA","coordinates":{"lat":33.640068,"lon":-84.44403},"type":"airport","country_name":"United States","country_code":"US","code":"ATL","index_strings":["atl","hartsfield-jackson atlanta international airport","atlanta","united states","us"],"timezone":"America\/New_York","weight":73141,"searchable":true},{"name":"Dominican Republic","weight":70648,"type":"country","code":"DO","searchable":true,"index_strings":["do","dominican republic"]},{"name":"Indonesia","weight":70440,"type":"country","code":"ID","searchable":true,"index_strings":["id","indonesia"]},{"name":"Madrid","country_name":"Spain","country_code":"ES","code":"MAD","index_strings":["mad","madrid","spain","es"],"timezone":"Europe\/Madrid","weight":67127,"coordinates":{"lat":40.4166909,"lon":-3.7003454},"type":"city","searchable":true},{"name":"Adolfo Suarez Madrid-Barajas Airport","country_name":"Spain","city_code":"MAD","city_name":"Madrid","code":"MAD","country_code":"ES","index_strings":["mad","adolfo suarez madrid-barajas airport","madrid","spain","es"],"timezone":"Europe\/Madrid","weight":67104,"coordinates":{"lat":40.46515,"lon":-3.570209},"type":"airport","searchable":true},{"name":"Boston","country_name":"United States","country_code":"US","code":"BOS","index_strings":["bos","boston","united states","us"],"timezone":"America\/New_York","weight":66708,"coordinates":{"lat":42.3584308,"lon":-71.0597732},"type":"city","searchable":true},{"name":"Logan International Airport","city_code":"BOS","city_name":"Boston","state_code":"MA","coordinates":{"lat":42.36646,"lon":-71.02018},"type":"airport","country_name":"United States","country_code":"US","code":"BOS","index_strings":["bos","logan international airport","boston","united states","us"],"timezone":"America\/New_York","weight":66699,"searchable":true},{"name":"Portugal","weight":66617,"type":"country","code":"PT","searchable":true,"index_strings":["pt","portugal"]},{"name":"Vietnam","weight":62719,"type":"country","code":"VN","searchable":true,"index_strings":["vn","vietnam"]},{"name":"Cancun","country_name":"Mexico","country_code":"MX","code":"CUN","index_strings":["cancun international airport","cun","cancun","mexico","mx"],"timezone":"America\/Cancun","weight":61618,"coordinates":{"lat":21.040457,"lon":-86.87443500000001},"type":"city","searchable":true},{"name":"Cancun International Airport","country_name":"Mexico","city_code":"CUN","city_name":"Cancun","code":"CUN","country_code":"MX","index_strings":["cun","cancun international airport","cancun","mexico","mx"],"timezone":"America\/Cancun","weight":61617,"coordinates":{"lat":21.040457,"lon":-86.87443500000001},"type":"airport","searchable":false},{"name":"Frankfurt","country_name":"Germany","country_code":"DE","code":"FRA","index_strings":["fra","frankfurt","germany","de"],"timezone":"Europe\/Berlin","weight":60747,"coordinates":{"lat":50.050735,"lon":8.570773000000001},"type":"city","searchable":true},{"name":"Seattle","country_name":"United States","country_code":"US","code":"SEA","index_strings":["tacoma","такома","塔科马","sea","seattle","united states","us"],"timezone":"America\/Los_Angeles","weight":60462,"coordinates":{"lat":47.6062095,"lon":-122.3320708},"type":"city","searchable":true},{"name":"Frankfurt Airport","country_name":"Germany","city_code":"FRA","city_name":"Frankfurt","code":"FRA","country_code":"DE","index_strings":["fra","frankfurt airport","frankfurt","germany","de"],"timezone":"Europe\/Berlin","weight":60453,"coordinates":{"lat":50.050735,"lon":8.570773000000001},"type":"airport","searchable":true},{"name":"Seattle-Tacoma International Airport","city_code":"SEA","city_name":"Seattle","state_code":"WA","coordinates":{"lat":47.44384,"lon":-122.301735},"type":"airport","country_name":"United States","country_code":"US","code":"SEA","index_strings":["sea","seattle-tacoma international airport","seattle","united states","us"],"timezone":"America\/Los_Angeles","weight":60350,"searchable":true},{"name":"Houston","country_name":"United States","country_code":"US","code":"HOU","index_strings":["hou","houston","united states","us"],"timezone":"America\/Chicago","weight":59643,"coordinates":{"lat":29.762778,"lon":-95.383056},"type":"city","searchable":true},{"name":"Denver","country_name":"United States","country_code":"US","code":"DEN","index_strings":["den","denver","united states","us"],"timezone":"America\/Denver","weight":59406,"coordinates":{"lat":39.7391536,"lon":-104.9847034},"type":"city","searchable":true},{"name":"Denver International Airport","city_code":"DEN","city_name":"Denver","state_code":"CO","coordinates":{"lat":39.84939,"lon":-104.672844},"type":"airport","country_name":"United States","country_code":"US","code":"DEN","index_strings":["den","denver international airport","denver","united states","us"],"timezone":"America\/Denver","weight":59340,"searchable":true},{"name":"Sydney","country_name":"Australia","country_code":"AU","code":"SYD","index_strings":["sydney (kingsford smith) airport","syd","sydney","australia","au"],"timezone":"Australia\/Sydney","weight":59296,"coordinates":{"lat":-33.8689009,"lon":151.2070914},"type":"city","searchable":true},{"name":"Sydney (Kingsford Smith) Airport","city_code":"SYD","city_name":"Sydney","state_code":"NS","coordinates":{"lat":-33.932922,"lon":151.1799},"type":"airport","country_name":"Australia","country_code":"AU","code":"SYD","index_strings":["syd","sydney (kingsford smith) airport","sydney","australia","au"],"timezone":"Australia\/Sydney","weight":59269,"searchable":false},{"name":"Jeddah","country_name":"Saudi Arabia","country_code":"SA","code":"JED","index_strings":["king abdulaziz international airport","jed","jeddah","saudi arabia","sa"],"timezone":"Asia\/Riyadh","weight":59180,"coordinates":{"lat":21.670233,"lon":39.150578},"type":"city","searchable":true},{"name":"King Abdulaziz International Airport","country_name":"Saudi Arabia","city_code":"JED","city_name":"Jeddah","code":"JED","country_code":"SA","index_strings":["jed","king abdulaziz international airport","jeddah","saudi arabia","sa"],"timezone":"Asia\/Riyadh","weight":59179,"coordinates":{"lat":21.670233,"lon":39.150578},"type":"airport","searchable":false},{"name":"Puerto Rico","weight":58470,"type":"country","code":"PR","searchable":true,"index_strings":["pr","puerto rico"]},{"name":"Iran","weight":58124,"type":"country","code":"IR","searchable":true,"index_strings":["ir","iran"]},{"name":"Honolulu","country_name":"United States","country_code":"US","code":"HNL","index_strings":["honolulu international airport","hnl","honolulu","united states","us"],"timezone":"Pacific\/Honolulu","weight":57304,"coordinates":{"lat":21.3069444,"lon":-157.8583333},"type":"city","searchable":true},{"name":"Honolulu International Airport","city_code":"HNL","city_name":"Honolulu","state_code":"HI","coordinates":{"lat":21.325832,"lon":-157.92166},"type":"airport","country_name":"United States","country_code":"US","code":"HNL","index_strings":["hnl","honolulu international airport","honolulu","united states","us"],"timezone":"Pacific\/Honolulu","weight":57303,"searchable":false},{"name":"William P. Hobby Airport","city_code":"HOU","city_name":"Houston","state_code":"TX","coordinates":{"lat":29.654512,"lon":-95.277016},"type":"airport","country_name":"United States","country_code":"US","code":"HOU","index_strings":["hou","william p. hobby airport","houston","united states","us"],"timezone":"America\/Chicago","weight":57271,"searchable":true},{"name":"Phuket","country_name":"Thailand","country_code":"TH","code":"HKT","index_strings":["phuket international airport","hkt","phuket","thailand","th"],"timezone":"Asia\/Bangkok","weight":56495,"coordinates":{"lat":8.107619,"lon":98.30643499999999},"type":"city","searchable":true},{"name":"Phuket International Airport","country_name":"Thailand","city_code":"HKT","city_name":"Phuket","code":"HKT","country_code":"TH","index_strings":["hkt","phuket international airport","phuket","thailand","th"],"timezone":"Asia\/Bangkok","weight":56489,"coordinates":{"lat":8.107619,"lon":98.30643499999999},"type":"airport","searchable":false},{"name":"Poland","weight":53985,"type":"country","code":"PL","searchable":true,"index_strings":["pl","poland"]},{"name":"Berlin","country_name":"Germany","country_code":"DE","code":"BER","index_strings":["ber","berlin","germany","de"],"timezone":"Europe\/Berlin","weight":53647,"coordinates":{"lat":52.5234051,"lon":13.4113999},"type":"city","searchable":true},{"name":"San Juan","country_name":"Puerto Rico","country_code":"PR","code":"SJU","index_strings":["luis munoz marin international airport","sju","san juan","puerto rico","pr"],"timezone":"America\/Puerto_Rico","weight":52767,"coordinates":{"lat":18.4663338,"lon":-66.1057217},"type":"city","searchable":true},{"name":"Luis Munoz Marin International Airport","country_name":"Puerto Rico","city_code":"SJU","city_name":"San Juan","code":"SJU","country_code":"PR","index_strings":["sju","luis munoz marin international airport","san juan","puerto rico","pr"],"timezone":"America\/Puerto_Rico","weight":52748,"coordinates":{"lat":18.437403,"lon":-66.004684},"type":"airport","searchable":false},{"name":"Athens","country_name":"Greece","country_code":"GR","code":"ATH","index_strings":["eleftherios venizelos international airport","ath","athens","greece","gr"],"timezone":"Europe\/Athens","weight":52719,"coordinates":{"lat":37.93635,"lon":23.946486},"type":"city","searchable":true},{"name":"Eleftherios Venizelos International Airport","country_name":"Greece","city_code":"ATH","city_name":"Athens","code":"ATH","country_code":"GR","index_strings":["ath","eleftherios venizelos international airport","athens","greece","gr"],"timezone":"Europe\/Athens","weight":52717,"coordinates":{"lat":37.93635,"lon":23.946486},"type":"airport","searchable":false},{"name":"Japan","weight":52125,"type":"country","code":"JP","searchable":true,"index_strings":["jp","japan"]},{"name":"San Diego","country_name":"United States","country_code":"US","code":"SAN","index_strings":["san","san diego","united states","us"],"timezone":"America\/Los_Angeles","weight":52024,"coordinates":{"lat":32.7153292,"lon":-117.1572551},"type":"city","searchable":true},{"name":"Taiwan","weight":51993,"type":"country","code":"TW","searchable":true,"index_strings":["tw","taiwan"]},{"name":"San Diego International Airport","city_code":"SAN","city_name":"San Diego","state_code":"CA","coordinates":{"lat":32.731937,"lon":-117.19731},"type":"airport","country_name":"United States","country_code":"US","code":"SAN","index_strings":["san","san diego international airport","san diego","united states","us"],"timezone":"America\/Los_Angeles","weight":51926,"searchable":true},{"name":"Kiev","country_name":"Ukraine","country_code":"UA","code":"IEV","index_strings":["iev","kiev","ukraine","ua"],"timezone":"Europe\/Kiev","weight":50755,"coordinates":{"lat":50.45,"lon":30.5},"type":"city","searchable":true},{"name":"Tampa","country_name":"United States","country_code":"US","code":"TPA","index_strings":["tpa","tampa","united states","us"],"timezone":"America\/New_York","weight":50187,"coordinates":{"lat":27.949436,"lon":-82.4651441},"type":"city","searchable":true},{"name":"Tampa International Airport","city_code":"TPA","city_name":"Tampa","state_code":"FL","coordinates":{"lat":27.97987,"lon":-82.535416},"type":"airport","country_name":"United States","country_code":"US","code":"TPA","index_strings":["tpa","tampa international airport","tampa","united states","us"],"timezone":"America\/New_York","weight":49861,"searchable":true},{"name":"Chiang Mai","country_name":"Thailand","country_code":"TH","code":"CNX","index_strings":["chiang mai international airport","cnx","chiang mai","thailand","th"],"timezone":"Asia\/Bangkok","weight":49283,"coordinates":{"lat":18.769573,"lon":98.96841000000001},"type":"city","searchable":true},{"name":"Chiang Mai International Airport","country_name":"Thailand","city_code":"CNX","city_name":"Chiang Mai","code":"CNX","country_code":"TH","index_strings":["cnx","chiang mai international airport","chiang mai","thailand","th"],"timezone":"Asia\/Bangkok","weight":49278,"coordinates":{"lat":18.769573,"lon":98.96841000000001},"type":"airport","searchable":false},{"name":"Chennai","country_name":"India","country_code":"IN","code":"MAA","index_strings":["chennai airport","maa","chennai","india","in"],"timezone":"Asia\/Kolkata","weight":48091,"coordinates":{"lat":12.982267,"lon":80.16378},"type":"city","searchable":true},{"name":"Chennai Airport","country_name":"India","city_code":"MAA","city_name":"Chennai","code":"MAA","country_code":"IN","index_strings":["maa","chennai airport","chennai","india","in"],"timezone":"Asia\/Kolkata","weight":48090,"coordinates":{"lat":12.982267,"lon":80.16378},"type":"airport","searchable":false},{"name":"Switzerland","weight":47758,"type":"country","code":"CH","searchable":true,"index_strings":["ch","switzerland"]},{"name":"Munich","country_name":"Germany","country_code":"DE","code":"MUC","index_strings":["muc","munich","germany","de"],"timezone":"Europe\/Berlin","weight":47694,"coordinates":{"lat":48.1391265,"lon":11.5801863},"type":"city","searchable":true},{"name":"Franz Josef Strauss Airport","country_name":"Germany","city_code":"MUC","city_name":"Munich","code":"MUC","country_code":"DE","index_strings":["muc","franz josef strauss airport","munich","germany","de"],"timezone":"Europe\/Berlin","weight":47621,"coordinates":{"lat":48.353004,"lon":11.790143},"type":"airport","searchable":true},{"name":"Riyadh","country_name":"Saudi Arabia","country_code":"SA","code":"RUH","index_strings":["king khaled international airport","ruh","riyadh","saudi arabia","sa"],"timezone":"Asia\/Riyadh","weight":46849,"coordinates":{"lat":24.95929,"lon":46.702877},"type":"city","searchable":true},{"name":"King Khaled International Airport","country_name":"Saudi Arabia","city_code":"RUH","city_name":"Riyadh","code":"RUH","country_code":"SA","index_strings":["ruh","king khaled international airport","riyadh","saudi arabia","sa"],"timezone":"Asia\/Riyadh","weight":46849,"coordinates":{"lat":24.95929,"lon":46.702877},"type":"airport","searchable":false},{"name":"Ireland","weight":46716,"type":"country","code":"IE","searchable":true,"index_strings":["ie","ireland"]},{"name":"Phoenix","country_name":"United States","country_code":"US","code":"PHX","index_strings":["phx","phoenix","united states","us"],"timezone":"America\/Phoenix","weight":46325,"coordinates":{"lat":33.4483771,"lon":-112.0740373},"type":"city","searchable":true},{"name":"Lebanon","weight":46204,"type":"country","code":"LB","searchable":true,"index_strings":["lb","lebanon"]},{"name":"Beirut","country_name":"Lebanon","country_code":"LB","code":"BEY","index_strings":["beirut-rafic hariri international airport","bey","beirut","lebanon","lb"],"timezone":"Asia\/Beirut","weight":46184,"coordinates":{"lat":33.826073,"lon":35.49308},"type":"city","searchable":true},{"name":"Beirut-Rafic Hariri International Airport","country_name":"Lebanon","city_code":"BEY","city_name":"Beirut","code":"BEY","country_code":"LB","index_strings":["bey","beirut-rafic hariri international airport","beirut","lebanon","lb"],"timezone":"Asia\/Beirut","weight":46184,"coordinates":{"lat":33.826073,"lon":35.49308},"type":"airport","searchable":false},{"name":"Colombia","weight":45819,"type":"country","code":"CO","searchable":true,"index_strings":["co","colombia"]},{"name":"Taipei","country_name":"Taiwan","country_code":"TW","code":"TPE","index_strings":["tpe","taipei","taiwan","tw"],"timezone":"Asia\/Taipei","weight":45429,"coordinates":{"lat":25.091075,"lon":121.5598345},"type":"city","searchable":true},{"name":"Taiwan Taoyuan International Airport","country_name":"Taiwan","city_code":"TPE","city_name":"Taipei","code":"TPE","country_code":"TW","index_strings":["tpe","taiwan taoyuan international airport","taipei","taiwan","tw"],"timezone":"Asia\/Taipei","weight":45019,"coordinates":{"lat":25.07639,"lon":121.22389},"type":"airport","searchable":true},{"name":"Phoenix Sky Harbor International Airport","city_code":"PHX","city_name":"Phoenix","state_code":"AZ","coordinates":{"lat":33.435036,"lon":-112.00016},"type":"airport","country_name":"United States","country_code":"US","code":"PHX","index_strings":["phx","phoenix sky harbor international airport","phoenix","united states","us"],"timezone":"America\/Phoenix","weight":44524,"searchable":true},{"name":"Mexico City","country_name":"Mexico","country_code":"MX","code":"MEX","index_strings":["mex","mexico city","mexico","mx"],"timezone":"America\/Mexico_City","weight":44524,"coordinates":{"lat":19.4270499,"lon":-99.1275711},"type":"city","searchable":true},{"name":"Melbourne","country_name":"Australia","country_code":"AU","code":"MEL","index_strings":["mel","melbourne","australia","au"],"timezone":"Australia\/Melbourne","weight":44511,"coordinates":{"lat":-37.8131869,"lon":144.9629796},"type":"city","searchable":true},{"name":"Benito Juarez International Airport","country_name":"Mexico","city_code":"MEX","city_name":"Mexico City","code":"MEX","country_code":"MX","index_strings":["mex","benito juarez international airport","mexico city","mexico","mx"],"timezone":"America\/Mexico_City","weight":44468,"coordinates":{"lat":19.435278,"lon":-99.07277999999999},"type":"airport","searchable":true},{"name":"Tullamarine Airport","city_code":"MEL","city_name":"Melbourne","state_code":"VI","coordinates":{"lat":-37.669613,"lon":144.84978},"type":"airport","country_name":"Australia","country_code":"AU","code":"MEL","index_strings":["mel","tullamarine airport","melbourne","australia","au"],"timezone":"Australia\/Melbourne","weight":44380,"searchable":true},{"name":"Austria","weight":44344,"type":"country","code":"AT","searchable":true,"index_strings":["at","austria"]},{"name":"Shanghai","country_name":"China","country_code":"CN","code":"SHA","index_strings":["sha","shanghai","china","cn"],"timezone":"Asia\/Shanghai","weight":44169,"coordinates":{"lat":31.230393,"lon":121.473704},"type":"city","searchable":true},{"name":"Jordan","weight":44149,"type":"country","code":"JO","searchable":true,"index_strings":["jo","jordan"]},{"name":"Israel","weight":43568,"type":"country","code":"IL","searchable":true,"index_strings":["il","israel"]},{"name":"Kyiv International Airport","country_name":"Ukraine","city_code":"IEV","city_name":"Kiev","code":"IEV","country_code":"UA","index_strings":["iev","kyiv international airport","kiev","ukraine","ua"],"timezone":"Europe\/Kiev","weight":43413,"coordinates":{"lat":50.401943,"lon":30.450832},"type":"airport","searchable":true},{"name":"Amman","country_name":"Jordan","country_code":"JO","code":"AMM","index_strings":["queen alia international airport","amm","amman","jordan","jo"],"timezone":"Asia\/Amman","weight":43010,"coordinates":{"lat":31.722534,"lon":35.98932},"type":"city","searchable":true},{"name":"Queen Alia International Airport","country_name":"Jordan","city_code":"AMM","city_name":"Amman","code":"AMM","country_code":"JO","index_strings":["amm","queen alia international airport","amman","jordan","jo"],"timezone":"Asia\/Amman","weight":42974,"coordinates":{"lat":31.722534,"lon":35.98932},"type":"airport","searchable":false},{"name":"New Zealand","weight":42752,"type":"country","code":"NZ","searchable":true,"index_strings":["nz","new zealand"]},{"name":"Czech Republic","weight":41661,"type":"country","code":"CZ","searchable":true,"index_strings":["cz","czech republic"]},{"name":"Belgium","weight":41514,"type":"country","code":"BE","searchable":true,"index_strings":["be","belgium"]},{"name":"Shanghai Hongqiao International Airport","country_name":"China","city_code":"SHA","city_name":"Shanghai","code":"SHA","country_code":"CN","index_strings":["sha","shanghai hongqiao international airport","shanghai","china","cn"],"timezone":"Asia\/Shanghai","weight":41364,"coordinates":{"lat":31.196815,"lon":121.34197},"type":"airport","searchable":true},{"name":"Georgia","weight":41343,"type":"country","code":"GE","searchable":true,"index_strings":["ge","georgia"]},{"name":"Tel Aviv-Yafo","country_name":"Israel","country_code":"IL","code":"TLV","index_strings":["tlv","tel aviv-yafo","israel","il"],"timezone":"Asia\/Jerusalem","weight":40860,"coordinates":{"lat":32.000454,"lon":34.870743},"type":"city","searchable":true},{"name":"South Africa","weight":40813,"type":"country","code":"ZA","searchable":true,"index_strings":["za","south africa"]},{"name":"Ben Gurion International Airport","country_name":"Israel","city_code":"TLV","city_name":"Tel Aviv-Yafo","code":"TLV","country_code":"IL","index_strings":["tlv","ben gurion international airport","tel aviv-yafo","israel","il"],"timezone":"Asia\/Jerusalem","weight":40787,"coordinates":{"lat":32.000454,"lon":34.870743},"type":"airport","searchable":true},{"name":"Hyderabad","country_name":"India","country_code":"IN","code":"HYD","index_strings":["rajiv gandhi international airport","hyd","hyderabad","india","in"],"timezone":"Asia\/Kolkata","weight":40718,"coordinates":{"lat":17.385044,"lon":78.486671},"type":"city","searchable":true},{"name":"Rajiv Gandhi International Airport","country_name":"India","city_code":"HYD","city_name":"Hyderabad","code":"HYD","country_code":"IN","index_strings":["hyd","rajiv gandhi international airport","hyderabad","india","in"],"timezone":"Asia\/Kolkata","weight":40685,"coordinates":{"lat":17.24,"lon":78.428055},"type":"airport","searchable":false},{"name":"Kochi","country_name":"India","country_code":"IN","code":"COK","index_strings":["cochin international airport","cok","kochi","india","in"],"timezone":"Asia\/Kolkata","weight":40652,"coordinates":{"lat":10.155644,"lon":76.39053},"type":"city","searchable":true},{"name":"Cochin International Airport","country_name":"India","city_code":"COK","city_name":"Kochi","code":"COK","country_code":"IN","index_strings":["cok","cochin international airport","kochi","india","in"],"timezone":"Asia\/Kolkata","weight":40652,"coordinates":{"lat":10.155644,"lon":76.39053},"type":"airport","searchable":false},{"name":"Prague","country_name":"Czech Republic","country_code":"CZ","code":"PRG","index_strings":["vaclav havel airport prague","prg","prague","czech republic","cz"],"timezone":"Europe\/Prague","weight":39623,"coordinates":{"lat":50.0878114,"lon":14.4204598},"type":"city","searchable":true},{"name":"Dublin","country_name":"Ireland","country_code":"IE","code":"DUB","index_strings":["dublin airport","dub","dublin","ireland","ie"],"timezone":"Europe\/Dublin","weight":39619,"coordinates":{"lat":53.42728,"lon":-6.24357},"type":"city","searchable":true},{"name":"Dublin Airport","country_name":"Ireland","city_code":"DUB","city_name":"Dublin","code":"DUB","country_code":"IE","index_strings":["dub","dublin airport","dublin","ireland","ie"],"timezone":"Europe\/Dublin","weight":39617,"coordinates":{"lat":53.42728,"lon":-6.24357},"type":"airport","searchable":false},{"name":"Vaclav Havel Airport Prague","country_name":"Czech Republic","city_code":"PRG","city_name":"Prague","code":"PRG","country_code":"CZ","index_strings":["prg","vaclav havel airport prague","prague","czech republic","cz"],"timezone":"Europe\/Prague","weight":39571,"coordinates":{"lat":50.10619,"lon":14.266638},"type":"airport","searchable":false},{"name":"Philadelphia","country_name":"United States","country_code":"US","code":"PHL","index_strings":["phl","philadelphia","united states","us"],"timezone":"America\/New_York","weight":39030,"coordinates":{"lat":39.952335,"lon":-75.16378899999999},"type":"city","searchable":true},{"name":"Philadelphia International Airport","city_code":"PHL","city_name":"Philadelphia","state_code":"PA","coordinates":{"lat":39.87641,"lon":-75.2433},"type":"airport","country_name":"United States","country_code":"US","code":"PHL","index_strings":["phl","philadelphia international airport","philadelphia","united states","us"],"timezone":"America\/New_York","weight":38816,"searchable":true},{"name":"Brussels","country_name":"Belgium","country_code":"BE","code":"BRU","index_strings":["bru","brussels","belgium","be"],"timezone":"Europe\/Brussels","weight":38597,"coordinates":{"lat":50.8503396,"lon":4.3517103},"type":"city","searchable":true},{"name":"Casablanca","country_name":"Morocco","country_code":"MA","code":"CAS","index_strings":["mohamed v international airport","cas","casablanca","morocco","ma"],"timezone":"Africa\/Casablanca","weight":38493,"coordinates":{"lat":33.533333,"lon":-7.583333},"type":"city","searchable":true},{"name":"Brussels Airport","country_name":"Belgium","city_code":"BRU","city_name":"Brussels","code":"BRU","country_code":"BE","index_strings":["bru","brussels airport","brussels","belgium","be"],"timezone":"Europe\/Brussels","weight":38093,"coordinates":{"lat":50.89717,"lon":4.483602},"type":"airport","searchable":true},{"name":"Vienna","country_name":"Austria","country_code":"AT","code":"VIE","index_strings":["vienna international airport","vie","vienna","austria","at"],"timezone":"Europe\/Vienna","weight":38048,"coordinates":{"lat":48.2081743,"lon":16.3738189},"type":"city","searchable":true},{"name":"Vienna International Airport","country_name":"Austria","city_code":"VIE","city_name":"Vienna","code":"VIE","country_code":"AT","index_strings":["vie","vienna international airport","vienna","austria","at"],"timezone":"Europe\/Vienna","weight":37978,"coordinates":{"lat":48.11972,"lon":16.563583},"type":"airport","searchable":false},{"name":"Ho Chi Minh City","country_name":"Vietnam","country_code":"VN","code":"SGN","index_strings":["tan son nhat international airport","sgn","ho chi minh city","vietnam","vn"],"timezone":"Asia\/Ho_Chi_Minh","weight":37679,"coordinates":{"lat":10.813045,"lon":106.662476},"type":"city","searchable":true},{"name":"Tan Son Nhat International Airport","country_name":"Vietnam","city_code":"SGN","city_name":"Ho Chi Minh City","code":"SGN","country_code":"VN","index_strings":["sgn","tan son nhat international airport","ho chi minh city","vietnam","vn"],"timezone":"Asia\/Ho_Chi_Minh","weight":37677,"coordinates":{"lat":10.813045,"lon":106.662476},"type":"airport","searchable":false},{"name":"Lisbon","country_name":"Portugal","country_code":"PT","code":"LIS","index_strings":["lisbon portela airport","lis","lisbon","portugal","pt"],"timezone":"Europe\/Lisbon","weight":37448,"coordinates":{"lat":38.706932,"lon":-9.1356321},"type":"city","searchable":true},{"name":"Lisbon Portela Airport","country_name":"Portugal","city_code":"LIS","city_name":"Lisbon","code":"LIS","country_code":"PT","index_strings":["lis","lisbon portela airport","lisbon","portugal","pt"],"timezone":"Europe\/Lisbon","weight":37448,"coordinates":{"lat":38.770042,"lon":-9.128164999999999},"type":"airport","searchable":false},{"name":"Denpasar","country_name":"Indonesia","country_code":"ID","code":"DPS","index_strings":["бали","bali","ngurah rai international airport","dps","denpasar","indonesia","id"],"timezone":"Asia\/Makassar","weight":36959,"coordinates":{"lat":-8.74446,"lon":115.16331},"type":"city","searchable":true},{"name":"Ngurah Rai International Airport","country_name":"Indonesia","city_code":"DPS","city_name":"Denpasar","code":"DPS","country_code":"ID","index_strings":["dps","ngurah rai international airport","denpasar","indonesia","id"],"timezone":"Asia\/Makassar","weight":36958,"coordinates":{"lat":-8.74446,"lon":115.16331},"type":"airport","searchable":false},{"name":"Kempegowda International Airport","country_name":"India","city_code":"BLR","city_name":"Bengaluru","code":"BLR","country_code":"IN","index_strings":["blr","kempegowda international airport","bengaluru","india","in"],"timezone":"Asia\/Kolkata","weight":34973,"coordinates":{"lat":13.198889,"lon":77.70556000000001},"type":"airport","searchable":false},{"name":"Bengaluru","country_name":"India","country_code":"IN","code":"BLR","index_strings":["kempegowda international airport","blr","bengaluru","india","in"],"timezone":"Asia\/Kolkata","weight":34973,"coordinates":{"lat":13.198889,"lon":77.70556000000001},"type":"city","searchable":true},{"name":"Kuwait International Airport","country_name":"Kuwait","city_code":"KWI","city_name":"Kuwait","code":"KWI","country_code":"KW","index_strings":["kwi","kuwait international airport","kuwait","kw"],"timezone":"Asia\/Kuwait","weight":34369,"coordinates":{"lat":29.240116,"lon":47.971252},"type":"airport","searchable":false},{"name":"Kuwait","weight":34369,"type":"country","code":"KW","searchable":true,"index_strings":["kw","kuwait"]},{"name":"Kuwait","country_name":"Kuwait","country_code":"KW","code":"KWI","index_strings":["kuwait international airport","kwi","kuwait","kw"],"timezone":"Asia\/Kuwait","weight":34369,"coordinates":{"lat":29.240116,"lon":47.971252},"type":"city","searchable":true},{"name":"Antalya","country_name":"Turkey","country_code":"TR","code":"AYT","index_strings":["antalya airport","ayt","antalya","turkey","tr"],"timezone":"Europe\/Istanbul","weight":33836,"coordinates":{"lat":36.89928,"lon":30.80135},"type":"city","searchable":true},{"name":"Antalya Airport","country_name":"Turkey","city_code":"AYT","city_name":"Antalya","code":"AYT","country_code":"TR","index_strings":["ayt","antalya airport","antalya","turkey","tr"],"timezone":"Europe\/Istanbul","weight":33836,"coordinates":{"lat":36.89928,"lon":30.80135},"type":"airport","searchable":false},{"name":"Nepal","weight":33506,"type":"country","code":"NP","searchable":true,"index_strings":["np","nepal"]},{"name":"Vancouver","country_name":"Canada","country_code":"CA","code":"YVR","index_strings":["yvr","vancouver","canada","ca"],"timezone":"America\/Vancouver","weight":33356,"coordinates":{"lat":49.261226,"lon":-123.1139268},"type":"city","searchable":true},{"name":"Vancouver International Airport","city_code":"YVR","city_name":"Vancouver","state_code":"BC","coordinates":{"lat":49.1947,"lon":-123.17919},"type":"airport","country_name":"Canada","country_code":"CA","code":"YVR","index_strings":["yvr","vancouver international airport","vancouver","canada","ca"],"timezone":"America\/Vancouver","weight":33319,"searchable":true},{"name":"New Orleans","country_name":"United States","country_code":"US","code":"MSY","index_strings":["msy","new orleans","united states","us"],"timezone":"America\/Chicago","weight":32704,"coordinates":{"lat":29.9647222,"lon":-90.07055560000001},"type":"city","searchable":true},{"name":"Louis Armstrong New Orleans International Airport","city_code":"MSY","city_name":"New Orleans","state_code":"LA","coordinates":{"lat":29.984564,"lon":-90.25639},"type":"airport","country_name":"United States","country_code":"US","code":"MSY","index_strings":["msy","louis armstrong new orleans international airport","new orleans","united states","us"],"timezone":"America\/Chicago","weight":32669,"searchable":true},{"name":"Iraq","weight":32617,"type":"country","code":"IQ","searchable":true,"index_strings":["iq","iraq"]},{"name":"Portland","country_name":"United States","country_code":"US","code":"PDX","index_strings":["portland international airport","pdx","portland","united states","us"],"timezone":"America\/Los_Angeles","weight":32493,"coordinates":{"lat":45.588997,"lon":-122.5929},"type":"city","searchable":true},{"name":"Portland International Airport","city_code":"PDX","city_name":"Portland","state_code":"OR","coordinates":{"lat":45.588997,"lon":-122.5929},"type":"airport","country_name":"United States","country_code":"US","code":"PDX","index_strings":["pdx","portland international airport","portland","united states","us"],"timezone":"America\/Los_Angeles","weight":32493,"searchable":false},{"name":"Tbilisi","country_name":"Georgia","country_code":"GE","code":"TBS","index_strings":["tbilisi international airport","tbs","tbilisi","georgia","ge"],"timezone":"Asia\/Tbilisi","weight":31604,"coordinates":{"lat":41.674065,"lon":44.958958},"type":"city","searchable":true},{"name":"Tbilisi International Airport","country_name":"Georgia","city_code":"TBS","city_name":"Tbilisi","code":"TBS","country_code":"GE","index_strings":["tbs","tbilisi international airport","tbilisi","georgia","ge"],"timezone":"Asia\/Tbilisi","weight":31600,"coordinates":{"lat":41.674065,"lon":44.958958},"type":"airport","searchable":false},{"name":"Sri Lanka","weight":31543,"type":"country","code":"LK","searchable":true,"index_strings":["lk","sri lanka"]},{"name":"Allama Iqbal International Airport","country_name":"Pakistan","city_code":"LHE","city_name":"Lahore","code":"LHE","country_code":"PK","index_strings":["lhe","allama iqbal international airport","lahore","pakistan","pk"],"timezone":"Asia\/Karachi","weight":31532,"coordinates":{"lat":31.520832,"lon":74.40278000000001},"type":"airport","searchable":false},{"name":"Lahore","country_name":"Pakistan","country_code":"PK","code":"LHE","index_strings":["allama iqbal international airport","lhe","lahore","pakistan","pk"],"timezone":"Asia\/Karachi","weight":31532,"coordinates":{"lat":31.520832,"lon":74.40278000000001},"type":"city","searchable":true},{"name":"Netaji Subhas Chandra Bose Airport","country_name":"India","city_code":"CCU","city_name":"Kolkata","code":"CCU","country_code":"IN","index_strings":["ccu","netaji subhas chandra bose airport","kolkata","india","in"],"timezone":"Asia\/Kolkata","weight":31047,"coordinates":{"lat":22.64531,"lon":88.43931000000001},"type":"airport","searchable":false},{"name":"Kolkata","country_name":"India","country_code":"IN","code":"CCU","index_strings":["netaji subhas chandra bose airport","ccu","kolkata","india","in"],"timezone":"Asia\/Kolkata","weight":31047,"coordinates":{"lat":22.64531,"lon":88.43931000000001},"type":"city","searchable":true},{"name":"Don Miguel Hidal Y Costilla International Airport","country_name":"Mexico","city_code":"GDL","city_name":"Guadalajara","code":"GDL","country_code":"MX","index_strings":["gdl","don miguel hidal y costilla international airport","guadalajara","mexico","mx"],"timezone":"America\/Mexico_City","weight":30992,"coordinates":{"lat":20.525198,"lon":-103.29921},"type":"airport","searchable":false},{"name":"Guadalajara","country_name":"Mexico","country_code":"MX","code":"GDL","index_strings":["don miguel hidal y costilla international airport","gdl","guadalajara","mexico","mx"],"timezone":"America\/Mexico_City","weight":30992,"coordinates":{"lat":20.525198,"lon":-103.29921},"type":"city","searchable":true},{"name":"Norway","weight":30982,"type":"country","code":"NO","searchable":true,"index_strings":["no","norway"]},{"name":"Kozhikode","country_name":"India","country_code":"IN","code":"CCJ","index_strings":["calicut international airport","ccj","kozhikode","india","in"],"timezone":"Asia\/Kolkata","weight":30676,"coordinates":{"lat":11.14025,"lon":75.95058400000001},"type":"city","searchable":true},{"name":"Calicut International Airport","country_name":"India","city_code":"CCJ","city_name":"Kozhikode","code":"CCJ","country_code":"IN","index_strings":["ccj","calicut international airport","kozhikode","india","in"],"timezone":"Asia\/Kolkata","weight":30676,"coordinates":{"lat":11.14025,"lon":75.95058400000001},"type":"airport","searchable":false},{"name":"Colombo","country_name":"Sri Lanka","country_code":"LK","code":"CMB","index_strings":["bandaranaike international airport","cmb","colombo","sri lanka","lk"],"timezone":"Asia\/Colombo","weight":30524,"coordinates":{"lat":6.927468,"lon":79.848358},"type":"city","searchable":true},{"name":"Bandaranaike International Airport","country_name":"Sri Lanka","city_code":"CMB","city_name":"Colombo","code":"CMB","country_code":"LK","index_strings":["cmb","bandaranaike international airport","colombo","sri lanka","lk"],"timezone":"Asia\/Colombo","weight":30512,"coordinates":{"lat":7.174112,"lon":79.8865},"type":"airport","searchable":false},{"name":"Cuba","weight":29970,"type":"country","code":"CU","searchable":true,"index_strings":["cu","cuba"]},{"name":"Kathmandu","country_name":"Nepal","country_code":"NP","code":"KTM","index_strings":["tribhuvan international airport","ktm","kathmandu","nepal","np"],"timezone":"Asia\/Kathmandu","weight":29731,"coordinates":{"lat":27.699905,"lon":85.35657},"type":"city","searchable":true},{"name":"Tribhuvan International Airport","country_name":"Nepal","city_code":"KTM","city_name":"Kathmandu","code":"KTM","country_code":"NP","index_strings":["ktm","tribhuvan international airport","kathmandu","nepal","np"],"timezone":"Asia\/Kathmandu","weight":29731,"coordinates":{"lat":27.699905,"lon":85.35657},"type":"airport","searchable":false},{"name":"Denmark","weight":29711,"type":"country","code":"DK","searchable":true,"index_strings":["dk","denmark"]},{"name":"Peru","weight":29536,"type":"country","code":"PE","searchable":true,"index_strings":["pe","peru"]},{"name":"Nigeria","weight":29532,"type":"country","code":"NG","searchable":true,"index_strings":["ng","nigeria"]},{"name":"Islamabad","country_name":"Pakistan","country_code":"PK","code":"ISB","index_strings":["benazir bhutto international airport","isb","islamabad","pakistan","pk"],"timezone":"Asia\/Karachi","weight":29525,"coordinates":{"lat":33.609707,"lon":73.10509999999999},"type":"city","searchable":true},{"name":"Benazir Bhutto International Airport","country_name":"Pakistan","city_code":"ISB","city_name":"Islamabad","code":"ISB","country_code":"PK","index_strings":["isb","benazir bhutto international airport","islamabad","pakistan","pk"],"timezone":"Asia\/Karachi","weight":29525,"coordinates":{"lat":33.609707,"lon":73.10509999999999},"type":"airport","searchable":false},{"name":"Qatar","weight":29456,"type":"country","code":"QA","searchable":true,"index_strings":["qa","qatar"]},{"name":"Hamad International Airport","country_name":"Qatar","city_code":"DOH","city_name":"Doha","code":"DOH","country_code":"QA","index_strings":["doh","hamad international airport","doha","qatar","qa"],"timezone":"Asia\/Qatar","weight":29409,"coordinates":{"lat":25.267569,"lon":51.558067},"type":"airport","searchable":false},{"name":"Doha","country_name":"Qatar","country_code":"QA","code":"DOH","index_strings":["hamad international airport","doh","doha","qatar","qa"],"timezone":"Asia\/Qatar","weight":29409,"coordinates":{"lat":25.267569,"lon":51.558067},"type":"city","searchable":true},{"name":"Hungary","weight":29394,"type":"country","code":"HU","searchable":true,"index_strings":["hu","hungary"]},{"name":"Bangladesh","weight":29263,"type":"country","code":"BD","searchable":true,"index_strings":["bd","bangladesh"]},{"name":"Santo Domingo","country_name":"Dominican Republic","country_code":"DO","code":"SDQ","index_strings":["las americas international airport","sdq","santo domingo","dominican republic","do"],"timezone":"America\/Santo_Domingo","weight":29127,"coordinates":{"lat":18.5,"lon":-69.9833333},"type":"city","searchable":true},{"name":"Las Americas International Airport","country_name":"Dominican Republic","city_code":"SDQ","city_name":"Santo Domingo","code":"SDQ","country_code":"DO","index_strings":["sdq","las americas international airport","santo domingo","dominican republic","do"],"timezone":"America\/Santo_Domingo","weight":29116,"coordinates":{"lat":18.430124,"lon":-69.67674},"type":"airport","searchable":true},{"name":"Guangzhou","country_name":"China","country_code":"CN","code":"CAN","index_strings":["guangzhou baiyun international airport","can","guangzhou","china","cn"],"timezone":"Asia\/Shanghai","weight":29085,"coordinates":{"lat":23.387861,"lon":113.29734},"type":"city","searchable":true},{"name":"Guangzhou Baiyun International Airport","country_name":"China","city_code":"CAN","city_name":"Guangzhou","code":"CAN","country_code":"CN","index_strings":["can","guangzhou baiyun international airport","guangzhou","china","cn"],"timezone":"Asia\/Shanghai","weight":29085,"coordinates":{"lat":23.387861,"lon":113.29734},"type":"airport","searchable":false},{"name":"Budapest","country_name":"Hungary","country_code":"HU","code":"BUD","index_strings":["budapest ferenc liszt international airport","bud","budapest","hungary","hu"],"timezone":"Europe\/Budapest","weight":28516,"coordinates":{"lat":47.4984056,"lon":19.0407578},"type":"city","searchable":true},{"name":"Budapest Ferenc Liszt International Airport","country_name":"Hungary","city_code":"BUD","city_name":"Budapest","code":"BUD","country_code":"HU","index_strings":["bud","budapest ferenc liszt international airport","budapest","hungary","hu"],"timezone":"Europe\/Budapest","weight":28514,"coordinates":{"lat":47.433037,"lon":19.261621},"type":"airport","searchable":false},{"name":"Auckland","country_name":"New Zealand","country_code":"NZ","code":"AKL","index_strings":["auckland airport","akl","auckland","new zealand","nz"],"timezone":"Pacific\/Auckland","weight":27971,"coordinates":{"lat":-36.8484597,"lon":174.7633315},"type":"city","searchable":true},{"name":"Auckland Airport","country_name":"New Zealand","city_code":"AKL","city_name":"Auckland","code":"AKL","country_code":"NZ","index_strings":["akl","auckland airport","auckland","new zealand","nz"],"timezone":"Pacific\/Auckland","weight":27957,"coordinates":{"lat":-37.004787,"lon":174.78352},"type":"airport","searchable":false},{"name":"Minneapolis","country_name":"United States","country_code":"US","code":"MSP","index_strings":["msp","minneapolis","united states","us"],"timezone":"America\/Chicago","weight":27827,"coordinates":{"lat":44.9799654,"lon":-93.26383610000001},"type":"city","searchable":true},{"name":"Minneapolis-St. Paul International Airport","city_code":"MSP","city_name":"Minneapolis","state_code":"MN","coordinates":{"lat":44.883015,"lon":-93.21092},"type":"airport","country_name":"United States","country_code":"US","code":"MSP","index_strings":["msp","minneapolis-st. paul international airport","minneapolis","united states","us"],"timezone":"America\/Chicago","weight":27817,"searchable":true},{"name":"Abu Dhabi","country_name":"United Arab Emirates","country_code":"AE","code":"AUH","index_strings":["abu dhabi international airport","auh","abu dhabi","united arab emirates","ae"],"timezone":"Asia\/Dubai","weight":26543,"coordinates":{"lat":24.4666667,"lon":54.3666667},"type":"city","searchable":true},{"name":"Dusseldorf","country_name":"Germany","country_code":"DE","code":"DUS","index_strings":["dus","dusseldorf","germany","de"],"timezone":"Europe\/Berlin","weight":26527,"coordinates":{"lat":51.2249429,"lon":6.7756524},"type":"city","searchable":true},{"name":"Abu Dhabi International Airport","country_name":"United Arab Emirates","city_code":"AUH","city_name":"Abu Dhabi","code":"AUH","country_code":"AE","index_strings":["auh","abu dhabi international airport","abu dhabi","united arab emirates","ae"],"timezone":"Asia\/Dubai","weight":26517,"coordinates":{"lat":24.426912,"lon":54.645973},"type":"airport","searchable":false},{"name":"Dusseldorf International Airport","country_name":"Germany","city_code":"DUS","city_name":"Dusseldorf","code":"DUS","country_code":"DE","index_strings":["dus","dusseldorf international airport","dusseldorf","germany","de"],"timezone":"Europe\/Berlin","weight":26142,"coordinates":{"lat":51.278328,"lon":6.76558},"type":"airport","searchable":true},{"name":"Copenhagen","country_name":"Denmark","country_code":"DK","code":"CPH","index_strings":["copenhagen airport","cph","copenhagen","denmark","dk"],"timezone":"Europe\/Copenhagen","weight":25878,"coordinates":{"lat":55.693403,"lon":12.583046},"type":"city","searchable":true},{"name":"Malaga","country_name":"Spain","country_code":"ES","code":"AGP","index_strings":["malaga airport","agp","malaga","spain","es"],"timezone":"Europe\/Madrid","weight":25844,"coordinates":{"lat":36.7196484,"lon":-4.4200163},"type":"city","searchable":true},{"name":"Copenhagen Airport","country_name":"Denmark","city_code":"CPH","city_name":"Copenhagen","code":"CPH","country_code":"DK","index_strings":["cph","copenhagen airport","copenhagen","denmark","dk"],"timezone":"Europe\/Copenhagen","weight":25842,"coordinates":{"lat":55.62905,"lon":12.647601},"type":"airport","searchable":false},{"name":"Malaga Airport","country_name":"Spain","city_code":"AGP","city_name":"Malaga","code":"AGP","country_code":"ES","index_strings":["agp","malaga airport","malaga","spain","es"],"timezone":"Europe\/Madrid","weight":25835,"coordinates":{"lat":36.675182,"lon":-4.489616},"type":"airport","searchable":false},{"name":"Zurich","country_name":"Switzerland","country_code":"CH","code":"ZRH","index_strings":["zurich airport","zrh","zurich","switzerland","ch"],"timezone":"Europe\/Zurich","weight":25798,"coordinates":{"lat":47.367347,"lon":8.5500025},"type":"city","searchable":true},{"name":"Zurich Airport","country_name":"Switzerland","city_code":"ZRH","city_name":"Zurich","code":"ZRH","country_code":"CH","index_strings":["zrh","zurich airport","zurich","switzerland","ch"],"timezone":"Europe\/Zurich","weight":25794,"coordinates":{"lat":47.450603,"lon":8.561745999999999},"type":"airport","searchable":false},{"name":"Jamaica","weight":25675,"type":"country","code":"JM","searchable":true,"index_strings":["jm","jamaica"]},{"name":"Venice","country_name":"Italy","country_code":"IT","code":"VCE","index_strings":["vce","venice","italy","it"],"timezone":"Europe\/Rome","weight":25659,"coordinates":{"lat":45.4343363,"lon":12.3387844},"type":"city","searchable":true},{"name":"Croatia","weight":25639,"type":"country","code":"HR","searchable":true,"index_strings":["hr","croatia"]},{"name":"Venice Marco Polo Airport","country_name":"Italy","city_code":"VCE","city_name":"Venice","code":"VCE","country_code":"IT","index_strings":["vce","venice marco polo airport","venice","italy","it"],"timezone":"Europe\/Rome","weight":25378,"coordinates":{"lat":45.502285,"lon":12.337947},"type":"airport","searchable":true},{"name":"Cyprus","weight":24950,"type":"country","code":"CY","searchable":true,"index_strings":["cy","cyprus"]},{"name":"South Korea","weight":24948,"type":"country","code":"KR","searchable":true,"index_strings":["kr","south korea"]},{"name":"Fort Myers","country_name":"United States","country_code":"US","code":"FMY","index_strings":["southwest florida international airport","fmy","fort myers","united states","us"],"timezone":"America\/New_York","weight":24889,"coordinates":{"lat":26.640628,"lon":-81.87230839999999},"type":"city","searchable":true},{"name":"Manchester","country_name":"United Kingdom","country_code":"GB","code":"MAN","index_strings":["manchester airport","man","manchester","united kingdom","gb"],"timezone":"Europe\/London","weight":24822,"coordinates":{"lat":53.4807125,"lon":-2.2343765},"type":"city","searchable":true},{"name":"Manchester Airport","country_name":"United Kingdom","city_code":"MAN","city_name":"Manchester","code":"MAN","country_code":"GB","index_strings":["man","manchester airport","manchester","united kingdom","gb"],"timezone":"Europe\/London","weight":24821,"coordinates":{"lat":53.362907,"lon":-2.273354},"type":"airport","searchable":false},{"name":"Frederic Chopin Airport","country_name":"Poland","city_code":"WAW","city_name":"Warsaw","code":"WAW","country_code":"PL","index_strings":["waw","frederic chopin airport","warsaw","poland","pl"],"timezone":"Europe\/Warsaw","weight":24649,"coordinates":{"lat":52.170906,"lon":20.97329},"type":"airport","searchable":true},{"name":"Warsaw","country_name":"Poland","country_code":"PL","code":"WAW","index_strings":["waw","warsaw","poland","pl"],"timezone":"Europe\/Warsaw","weight":24648,"coordinates":{"lat":52.170906,"lon":20.97329},"type":"city","searchable":true},{"name":"Thiruvananthapuram","country_name":"India","country_code":"IN","code":"TRV","index_strings":["trivandrum international airport","trv","thiruvananthapuram","india","in"],"timezone":"Asia\/Kolkata","weight":24522,"coordinates":{"lat":8.476126000000001,"lon":76.91907},"type":"city","searchable":true},{"name":"Trivandrum International Airport","country_name":"India","city_code":"TRV","city_name":"Thiruvananthapuram","code":"TRV","country_code":"IN","index_strings":["trv","trivandrum international airport","thiruvananthapuram","india","in"],"timezone":"Asia\/Kolkata","weight":24522,"coordinates":{"lat":8.476126000000001,"lon":76.91907},"type":"airport","searchable":false},{"name":"Tehran","country_name":"Iran","country_code":"IR","code":"THR","index_strings":["thr","tehran","iran","ir"],"timezone":"Asia\/Tehran","weight":24356,"coordinates":{"lat":35.6961111,"lon":51.4230556},"type":"city","searchable":true},{"name":"Ahmedabad","country_name":"India","country_code":"IN","code":"AMD","index_strings":["ahmedabad airport","amd","ahmedabad","india","in"],"timezone":"Asia\/Kolkata","weight":24200,"coordinates":{"lat":23.06639,"lon":72.62417000000001},"type":"city","searchable":true},{"name":"Ahmedabad Airport","country_name":"India","city_code":"AMD","city_name":"Ahmedabad","code":"AMD","country_code":"IN","index_strings":["amd","ahmedabad airport","ahmedabad","india","in"],"timezone":"Asia\/Kolkata","weight":24200,"coordinates":{"lat":23.06639,"lon":72.62417000000001},"type":"airport","searchable":false},{"name":"Ecuador","weight":24057,"type":"country","code":"EC","searchable":true,"index_strings":["ec","ecuador"]},{"name":"Costa Rica","weight":24032,"type":"country","code":"CR","searchable":true,"index_strings":["cr","costa rica"]},{"name":"Goa","country_name":"India","country_code":"IN","code":"GOI","index_strings":["dabolim airport","goi","goa","india","in"],"timezone":"Asia\/Kolkata","weight":23757,"coordinates":{"lat":15.384534,"lon":73.83983000000001},"type":"city","searchable":true},{"name":"Dabolim Airport","country_name":"India","city_code":"GOI","city_name":"Goa","code":"GOI","country_code":"IN","index_strings":["goi","dabolim airport","goa","india","in"],"timezone":"Asia\/Kolkata","weight":23753,"coordinates":{"lat":15.384534,"lon":73.83983000000001},"type":"airport","searchable":false},{"name":"Baltimore\/Wash International Thurgood Marshall Airport","city_code":"BWI","city_name":"Baltimore","state_code":"MD","coordinates":{"lat":39.179527,"lon":-76.66894000000001},"type":"airport","country_name":"United States","country_code":"US","code":"BWI","index_strings":["bwi","baltimore\/wash international thurgood marshall airport","baltimore","united states","us"],"timezone":"America\/New_York","weight":23359,"searchable":false},{"name":"Karachi","country_name":"Pakistan","country_code":"PK","code":"KHI","index_strings":["jinnah international airport","khi","karachi","pakistan","pk"],"timezone":"Asia\/Karachi","weight":23299,"coordinates":{"lat":24.899986,"lon":67.16828},"type":"city","searchable":true},{"name":"Jinnah International Airport","country_name":"Pakistan","city_code":"KHI","city_name":"Karachi","code":"KHI","country_code":"PK","index_strings":["khi","jinnah international airport","karachi","pakistan","pk"],"timezone":"Asia\/Karachi","weight":23299,"coordinates":{"lat":24.899986,"lon":67.16828},"type":"airport","searchable":false},{"name":"Palma Mallorca","country_name":"Spain","country_code":"ES","code":"PMI","index_strings":["palma de mallorca airport","pmi","palma mallorca","spain","es"],"timezone":"Europe\/Madrid","weight":23252,"coordinates":{"lat":39.547653,"lon":2.730388},"type":"city","searchable":true},{"name":"Palma de Mallorca Airport","country_name":"Spain","city_code":"PMI","city_name":"Palma Mallorca","code":"PMI","country_code":"ES","index_strings":["pmi","palma de mallorca airport","palma mallorca","spain","es"],"timezone":"Europe\/Madrid","weight":23251,"coordinates":{"lat":39.547653,"lon":2.730388},"type":"airport","searchable":false},{"name":"Lima","country_name":"Peru","country_code":"PE","code":"LIM","index_strings":["jorge chavez international airport","lim","lima","peru","pe"],"timezone":"America\/Lima","weight":23209,"coordinates":{"lat":-12.019421,"lon":-77.10766599999999},"type":"city","searchable":true},{"name":"Jorge Chavez International Airport","country_name":"Peru","city_code":"LIM","city_name":"Lima","code":"LIM","country_code":"PE","index_strings":["lim","jorge chavez international airport","lima","peru","pe"],"timezone":"America\/Lima","weight":23208,"coordinates":{"lat":-12.019421,"lon":-77.10766599999999},"type":"airport","searchable":false},{"name":"Baltimore","country_name":"United States","country_code":"US","code":"BWI","index_strings":["baltimore\/wash international thurgood marshall airport","bwi","baltimore","united states","us"],"timezone":"America\/New_York","weight":23109,"coordinates":{"lat":39.286389,"lon":-76.61499999999999},"type":"city","searchable":true},{"name":"Saint Petersburg","country_name":"Russia","country_code":"RU","code":"LED","index_strings":["sankt petersburg","st petersburg","leningrad","ленинград","питер","спб","pulkovo airport","led","saint petersburg","russia","ru"],"timezone":"Europe\/Moscow","weight":23036,"coordinates":{"lat":59.939039,"lon":30.315785},"type":"city","searchable":true},{"name":"Pulkovo Airport","country_name":"Russia","city_code":"LED","city_name":"Saint Petersburg","code":"LED","country_code":"RU","index_strings":["led","pulkovo airport","saint petersburg","russia","ru"],"timezone":"Europe\/Moscow","weight":23022,"coordinates":{"lat":59.806084,"lon":30.3083},"type":"airport","searchable":false},{"name":"Oman","weight":23004,"type":"country","code":"OM","searchable":true,"index_strings":["om","oman"]},{"name":"Charlotte","country_name":"United States","country_code":"US","code":"CLT","index_strings":["charlotte douglas international airport","clt","charlotte","united states","us"],"timezone":"America\/New_York","weight":22858,"coordinates":{"lat":35.2270869,"lon":-80.8431267},"type":"city","searchable":true},{"name":"Charlotte Douglas International Airport","city_code":"CLT","city_name":"Charlotte","state_code":"NC","coordinates":{"lat":35.219166,"lon":-80.93584},"type":"airport","country_name":"United States","country_code":"US","code":"CLT","index_strings":["clt","charlotte douglas international airport","charlotte","united states","us"],"timezone":"America\/New_York","weight":22856,"searchable":false},{"name":"Mehrabad International Airport","country_name":"Iran","city_code":"THR","city_name":"Tehran","code":"THR","country_code":"IR","index_strings":["thr","mehrabad international airport","tehran","iran","ir"],"timezone":"Asia\/Tehran","weight":22603,"coordinates":{"lat":35.691532,"lon":51.32187},"type":"airport","searchable":true},{"name":"Dhaka","country_name":"Bangladesh","country_code":"BD","code":"DAC","index_strings":["hazrat shahjalal international airport","dac","dhaka","bangladesh","bd"],"timezone":"Asia\/Dhaka","weight":22150,"coordinates":{"lat":23.848648,"lon":90.40587600000001},"type":"city","searchable":true},{"name":"Hazrat Shahjalal International Airport","country_name":"Bangladesh","city_code":"DAC","city_name":"Dhaka","code":"DAC","country_code":"BD","index_strings":["dac","hazrat shahjalal international airport","dhaka","bangladesh","bd"],"timezone":"Asia\/Dhaka","weight":22150,"coordinates":{"lat":23.848648,"lon":90.40587600000001},"type":"airport","searchable":false},{"name":"Dammam","country_name":"Saudi Arabia","country_code":"SA","code":"DMM","index_strings":["king fahd international airport","dmm","dammam","saudi arabia","sa"],"timezone":"Asia\/Riyadh","weight":22062,"coordinates":{"lat":26.471111,"lon":49.79778},"type":"city","searchable":true},{"name":"King Fahd International Airport","country_name":"Saudi Arabia","city_code":"DMM","city_name":"Dammam","code":"DMM","country_code":"SA","index_strings":["dmm","king fahd international airport","dammam","saudi arabia","sa"],"timezone":"Asia\/Riyadh","weight":22042,"coordinates":{"lat":26.471111,"lon":49.79778},"type":"airport","searchable":false},{"name":"Austin","country_name":"United States","country_code":"US","code":"AUS","index_strings":["austin-bergstrom international airport","aus","austin","united states","us"],"timezone":"America\/Chicago","weight":21737,"coordinates":{"lat":30.267153,"lon":-97.74306079999999},"type":"city","searchable":true},{"name":"Austin-Bergstrom International Airport","city_code":"AUS","city_name":"Austin","state_code":"TX","coordinates":{"lat":30.202545,"lon":-97.66706000000001},"type":"airport","country_name":"United States","country_code":"US","code":"AUS","index_strings":["aus","austin-bergstrom international airport","austin","united states","us"],"timezone":"America\/Chicago","weight":21736,"searchable":false},{"name":"Bulgaria","weight":21692,"type":"country","code":"BG","searchable":true,"index_strings":["bg","bulgaria"]},{"name":"Jose Marti International Airport","country_name":"Cuba","city_code":"HAV","city_name":"Havana","code":"HAV","country_code":"CU","index_strings":["hav","jose marti international airport","havana","cuba","cu"],"timezone":"America\/Havana","weight":21664,"coordinates":{"lat":22.99845,"lon":-82.40818},"type":"airport","searchable":false},{"name":"Havana","country_name":"Cuba","country_code":"CU","code":"HAV","index_strings":["jose marti international airport","hav","havana","cuba","cu"],"timezone":"America\/Havana","weight":21664,"coordinates":{"lat":22.99845,"lon":-82.40818},"type":"city","searchable":true},{"name":"Brisbane","country_name":"Australia","country_code":"AU","code":"BNE","index_strings":["brisbane airport","bne","brisbane","australia","au"],"timezone":"Australia\/Brisbane","weight":21286,"coordinates":{"lat":-27.4709331,"lon":153.0235024},"type":"city","searchable":true},{"name":"Brisbane Airport","city_code":"BNE","city_name":"Brisbane","state_code":"QL","coordinates":{"lat":-27.40303,"lon":153.10905},"type":"airport","country_name":"Australia","country_code":"AU","code":"BNE","index_strings":["bne","brisbane airport","brisbane","australia","au"],"timezone":"Australia\/Brisbane","weight":21285,"searchable":false},{"name":"Maldives","weight":21269,"type":"country","code":"MV","searchable":true,"index_strings":["mv","maldives"]},{"name":"Belarus","weight":20904,"type":"country","code":"BY","searchable":true,"index_strings":["by","belarus"]},{"name":"Tunisia","weight":20805,"type":"country","code":"TN","searchable":true,"index_strings":["tn","tunisia"]},{"name":"Salt Lake City International Airport","city_code":"SLC","city_name":"Salt Lake City","state_code":"UT","coordinates":{"lat":40.785645,"lon":-111.980675},"type":"airport","country_name":"United States","country_code":"US","code":"SLC","index_strings":["slc","salt lake city international airport","salt lake city","united states","us"],"timezone":"America\/Denver","weight":20701,"searchable":false},{"name":"Salt Lake City","country_name":"United States","country_code":"US","code":"SLC","index_strings":["salt lake city international airport","slc","salt lake city","united states","us"],"timezone":"America\/Denver","weight":20701,"coordinates":{"lat":40.785645,"lon":-111.980675},"type":"city","searchable":true},{"name":"Hat Yai","country_name":"Thailand","country_code":"TH","code":"HDY","index_strings":["hat yai international airport","hdy","hat yai","thailand","th"],"timezone":"Asia\/Bangkok","weight":20663,"coordinates":{"lat":6.936764,"lon":100.39356},"type":"city","searchable":true},{"name":"Hat Yai International Airport","country_name":"Thailand","city_code":"HDY","city_name":"Hat Yai","code":"HDY","country_code":"TH","index_strings":["hdy","hat yai international airport","hat yai","thailand","th"],"timezone":"Asia\/Bangkok","weight":20663,"coordinates":{"lat":6.936764,"lon":100.39356},"type":"airport","searchable":false},{"name":"Serbia","weight":20662,"type":"country","code":"RS","searchable":true,"index_strings":["rs","serbia"]},{"name":"Nashville International Airport","city_code":"BNA","city_name":"Nashville","state_code":"TN","coordinates":{"lat":36.13174,"lon":-86.66894499999999},"type":"airport","country_name":"United States","country_code":"US","code":"BNA","index_strings":["bna","nashville international airport","nashville","united states","us"],"timezone":"America\/Chicago","weight":20390,"searchable":false},{"name":"Nashville","country_name":"United States","country_code":"US","code":"BNA","index_strings":["nashville international airport","bna","nashville","united states","us"],"timezone":"America\/Chicago","weight":20390,"coordinates":{"lat":36.13174,"lon":-86.66894499999999},"type":"city","searchable":true},{"name":"Minsk","country_name":"Belarus","country_code":"BY","code":"MSQ","index_strings":["minsk national airport","msq","minsk","belarus","by"],"timezone":"Europe\/Minsk","weight":20251,"coordinates":{"lat":53.9,"lon":27.5666667},"type":"city","searchable":true},{"name":"Ghana","weight":19986,"type":"country","code":"GH","searchable":true,"index_strings":["gh","ghana"]},{"name":"Cambodia","weight":19920,"type":"country","code":"KH","searchable":true,"index_strings":["kh","cambodia"]},{"name":"Kenya","weight":19913,"type":"country","code":"KE","searchable":true,"index_strings":["ke","kenya"]},{"name":"Minsk National Airport","country_name":"Belarus","city_code":"MSQ","city_name":"Minsk","code":"MSQ","country_code":"BY","index_strings":["msq","minsk national airport","minsk","belarus","by"],"timezone":"Europe\/Minsk","weight":19804,"coordinates":{"lat":53.889725,"lon":28.032442},"type":"airport","searchable":false},{"name":"Oslo","country_name":"Norway","country_code":"NO","code":"OSL","index_strings":["osl","oslo","norway","no"],"timezone":"Europe\/Oslo","weight":19637,"coordinates":{"lat":59.9138688,"lon":10.7522454},"type":"city","searchable":true},{"name":"Johannesburg","country_name":"South Africa","country_code":"ZA","code":"JNB","index_strings":["jnb","johannesburg","south africa","za"],"timezone":"Africa\/Johannesburg","weight":19556,"coordinates":{"lat":-26.2041028,"lon":28.0473051},"type":"city","searchable":true},{"name":"Ibiza Airport","country_name":"Spain","city_code":"IBZ","city_name":"Ibiza","code":"IBZ","country_code":"ES","index_strings":["ibz","ibiza airport","ibiza","spain","es"],"timezone":"Europe\/Madrid","weight":19393,"coordinates":{"lat":38.876595,"lon":1.367803},"type":"airport","searchable":false},{"name":"Ibiza","country_name":"Spain","country_code":"ES","code":"IBZ","index_strings":["ibiza airport","ibz","ibiza","spain","es"],"timezone":"Europe\/Madrid","weight":19393,"coordinates":{"lat":38.876595,"lon":1.367803},"type":"city","searchable":true},{"name":"O.R. Tambo International Airport","country_name":"South Africa","city_code":"JNB","city_name":"Johannesburg","code":"JNB","country_code":"ZA","index_strings":["jnb","o.r. tambo international airport","johannesburg","south africa","za"],"timezone":"Africa\/Johannesburg","weight":19309,"coordinates":{"lat":-26.132664,"lon":28.231314},"type":"airport","searchable":true},{"name":"Oslo Airport Gardermoen","country_name":"Norway","city_code":"OSL","city_name":"Oslo","code":"OSL","country_code":"NO","index_strings":["osl","oslo airport gardermoen","oslo","norway","no"],"timezone":"Europe\/Oslo","weight":19198,"coordinates":{"lat":60.19419,"lon":11.100411},"type":"airport","searchable":true},{"name":"Male","country_name":"Maldives","country_code":"MV","code":"MLE","index_strings":["male international airport","mle","male","maldives","mv"],"timezone":"Indian\/Maldives","weight":19185,"coordinates":{"lat":4.201389,"lon":73.524445},"type":"city","searchable":true},{"name":"Male International Airport","country_name":"Maldives","city_code":"MLE","city_name":"Male","code":"MLE","country_code":"MV","index_strings":["mle","male international airport","male","maldives","mv"],"timezone":"Indian\/Maldives","weight":19184,"coordinates":{"lat":4.201389,"lon":73.524445},"type":"airport","searchable":false},{"name":"Geneva","country_name":"Switzerland","country_code":"CH","code":"GVA","index_strings":["geneve airport","gva","geneva","switzerland","ch"],"timezone":"Europe\/Zurich","weight":18887,"coordinates":{"lat":46.1983922,"lon":6.1422961},"type":"city","searchable":true},{"name":"Geneve Airport","country_name":"Switzerland","city_code":"GVA","city_name":"Geneva","code":"GVA","country_code":"CH","index_strings":["gva","geneve airport","geneva","switzerland","ch"],"timezone":"Europe\/Zurich","weight":18885,"coordinates":{"lat":46.229633,"lon":6.105774},"type":"airport","searchable":false},{"name":"El Salvador International Airport","country_name":"El Salvador","city_code":"SAL","city_name":"San Salvador","code":"SAL","country_code":"SV","index_strings":["sal","el salvador international airport","san salvador","el salvador","sv"],"timezone":"America\/El_Salvador","weight":18822,"coordinates":{"lat":13.445126,"lon":-89.05723},"type":"airport","searchable":false},{"name":"San Salvador","country_name":"El Salvador","country_code":"SV","code":"SAL","index_strings":["el salvador international airport","sal","san salvador","el salvador","sv"],"timezone":"America\/El_Salvador","weight":18822,"coordinates":{"lat":13.445126,"lon":-89.05723},"type":"city","searchable":true},{"name":"El Salvador","weight":18822,"type":"country","code":"SV","searchable":true,"index_strings":["sv","el salvador"]},{"name":"San Jose","country_name":"Costa Rica","country_code":"CR","code":"SJO","index_strings":["juan santamaria international airport","sjo","san jose","costa rica","cr"],"timezone":"America\/Costa_Rica","weight":18713,"coordinates":{"lat":9.998238000000001,"lon":-84.20408},"type":"city","searchable":true},{"name":"Juan Santamaria International Airport","country_name":"Costa Rica","city_code":"SJO","city_name":"San Jose","code":"SJO","country_code":"CR","index_strings":["sjo","juan santamaria international airport","san jose","costa rica","cr"],"timezone":"America\/Costa_Rica","weight":18713,"coordinates":{"lat":9.998238000000001,"lon":-84.20408},"type":"airport","searchable":false},{"name":"Raleigh\/Durham","country_name":"United States","country_code":"US","code":"RDU","index_strings":["durham","дарем","raleigh-durham international airport","rdu","raleigh\/durham","united states","us"],"timezone":"America\/New_York","weight":18436,"coordinates":{"lat":35.873592,"lon":-78.79086},"type":"city","searchable":true},{"name":"Raleigh-Durham International Airport","city_code":"RDU","city_name":"Raleigh\/Durham","state_code":"NC","coordinates":{"lat":35.873592,"lon":-78.79086},"type":"airport","country_name":"United States","country_code":"US","code":"RDU","index_strings":["rdu","raleigh-durham international airport","raleigh\/durham","united states","us"],"timezone":"America\/New_York","weight":18434,"searchable":false},{"name":"Bahrain","weight":18230,"type":"country","code":"BH","searchable":true,"index_strings":["bh","bahrain"]},{"name":"Bahrain","country_name":"Bahrain","country_code":"BH","code":"BAH","index_strings":["bahrain international airport","bah","bahrain","bh"],"timezone":"Asia\/Bahrain","weight":18229,"coordinates":{"lat":26.26918,"lon":50.62605},"type":"city","searchable":true},{"name":"Bahrain International Airport","country_name":"Bahrain","city_code":"BAH","city_name":"Bahrain","code":"BAH","country_code":"BH","index_strings":["bah","bahrain international airport","bahrain","bh"],"timezone":"Asia\/Bahrain","weight":18229,"coordinates":{"lat":26.26918,"lon":50.62605},"type":"airport","searchable":false},{"name":"New York","country_name":"United States","country_code":"US","code":"NYC","index_strings":["nyc","new york","united states","us"],"timezone":"America\/New_York","weight":18137,"coordinates":{"lat":40.7143528,"lon":-74.00597310000001},"type":"city","searchable":true},{"name":"Cibao International Airport","country_name":"Dominican Republic","city_code":"STI","city_name":"Santiago","code":"STI","country_code":"DO","index_strings":["sti","cibao international airport","santiago","dominican republic","do"],"timezone":"America\/Santo_Domingo","weight":17978,"coordinates":{"lat":19.401829,"lon":-70.60208},"type":"airport","searchable":false},{"name":"Santiago","country_name":"Dominican Republic","country_code":"DO","code":"STI","index_strings":["cibao international airport","sti","santiago","dominican republic","do"],"timezone":"America\/Santo_Domingo","weight":17977,"coordinates":{"lat":19.401829,"lon":-70.60208},"type":"city","searchable":true},{"name":"Muscat","country_name":"Oman","country_code":"OM","code":"MCT","index_strings":["muscat international airport","mct","muscat","oman","om"],"timezone":"Asia\/Muscat","weight":17820,"coordinates":{"lat":23.588078,"lon":58.29022},"type":"city","searchable":true},{"name":"Muscat International Airport","country_name":"Oman","city_code":"MCT","city_name":"Muscat","code":"MCT","country_code":"OM","index_strings":["mct","muscat international airport","muscat","oman","om"],"timezone":"Asia\/Muscat","weight":17820,"coordinates":{"lat":23.588078,"lon":58.29022},"type":"airport","searchable":true},{"name":"Sacramento","country_name":"United States","country_code":"US","code":"SAC","index_strings":["sac","sacramento","united states","us"],"timezone":"America\/Los_Angeles","weight":17781,"coordinates":{"lat":38.575278,"lon":-121.486111},"type":"city","searchable":true},{"name":"Ankara","country_name":"Turkey","country_code":"TR","code":"ANK","index_strings":["esenboga international airport","ank","ankara","turkey","tr"],"timezone":"Europe\/Istanbul","weight":17637,"coordinates":{"lat":39.866667,"lon":39.866667},"type":"city","searchable":true},{"name":"Lagos","country_name":"Nigeria","country_code":"NG","code":"LOS","index_strings":["murtala muhammed international airport","los","lagos","nigeria","ng"],"timezone":"Africa\/Lagos","weight":17489,"coordinates":{"lat":6.577871,"lon":3.321178},"type":"city","searchable":true},{"name":"Murtala Muhammed International Airport","country_name":"Nigeria","city_code":"LOS","city_name":"Lagos","code":"LOS","country_code":"NG","index_strings":["los","murtala muhammed international airport","lagos","nigeria","ng"],"timezone":"Africa\/Lagos","weight":17489,"coordinates":{"lat":6.577871,"lon":3.321178},"type":"airport","searchable":false},{"name":"Menara Airport","country_name":"Morocco","city_code":"RAK","city_name":"Marrakech","code":"RAK","country_code":"MA","index_strings":["rak","menara airport","marrakech","morocco","ma"],"timezone":"Africa\/Casablanca","weight":17306,"coordinates":{"lat":31.601875,"lon":-8.026902},"type":"airport","searchable":false},{"name":"Marrakech","country_name":"Morocco","country_code":"MA","code":"RAK","index_strings":["menara airport","rak","marrakech","morocco","ma"],"timezone":"Africa\/Casablanca","weight":17306,"coordinates":{"lat":31.601875,"lon":-8.026902},"type":"city","searchable":true},{"name":"Saint Louis","country_name":"United States","country_code":"US","code":"STL","index_strings":["stl","saint louis","united states","us"],"timezone":"America\/Chicago","weight":17239,"coordinates":{"lat":38.6270025,"lon":-90.1994042},"type":"city","searchable":true},{"name":"Lambert-St. Louis International Airport","city_code":"STL","city_name":"Saint Louis","state_code":"MO","coordinates":{"lat":38.74228,"lon":-90.36587},"type":"airport","country_name":"United States","country_code":"US","code":"STL","index_strings":["stl","lambert-st. louis international airport","saint louis","united states","us"],"timezone":"America\/Chicago","weight":17205,"searchable":true},{"name":"Algeria","weight":17111,"type":"country","code":"DZ","searchable":true,"index_strings":["dz","algeria"]},{"name":"Chile","weight":17056,"type":"country","code":"CL","searchable":true,"index_strings":["cl","chile"]},{"name":"Armenia","weight":17034,"type":"country","code":"AM","searchable":true,"index_strings":["am","armenia"]},{"name":"San Antonio","country_name":"United States","country_code":"US","code":"SAT","index_strings":["san antonio international airport","sat","san antonio","united states","us"],"timezone":"America\/Chicago","weight":16996,"coordinates":{"lat":29.4241219,"lon":-98.4936282},"type":"city","searchable":true},{"name":"San Antonio International Airport","city_code":"SAT","city_name":"San Antonio","state_code":"TX","coordinates":{"lat":29.524937,"lon":-98.47264},"type":"airport","country_name":"United States","country_code":"US","code":"SAT","index_strings":["sat","san antonio international airport","san antonio","united states","us"],"timezone":"America\/Chicago","weight":16989,"searchable":false},{"name":"Myanmar","weight":16985,"type":"country","code":"MM","searchable":true,"index_strings":["mm","myanmar"]},{"name":"Bogota","country_name":"Colombia","country_code":"CO","code":"BOG","index_strings":["el dorado international airport","bog","bogota","colombia","co"],"timezone":"America\/Bogota","weight":16806,"coordinates":{"lat":4.698602,"lon":-74.143135},"type":"city","searchable":true},{"name":"El Dorado International Airport","country_name":"Colombia","city_code":"BOG","city_name":"Bogota","code":"BOG","country_code":"CO","index_strings":["bog","el dorado international airport","bogota","colombia","co"],"timezone":"America\/Bogota","weight":16806,"coordinates":{"lat":4.698602,"lon":-74.143135},"type":"airport","searchable":false},{"name":"Sacramento Executive Airport","city_code":"SAC","city_name":"Sacramento","state_code":"CA","coordinates":{"lat":38.05,"lon":-121.933334},"type":"airport","country_name":"United States","country_code":"US","code":"SAC","index_strings":["sac","sacramento executive airport","sacramento","united states","us"],"timezone":"America\/Los_Angeles","weight":16796,"searchable":true},{"name":"Finland","weight":16749,"type":"country","code":"FI","searchable":true,"index_strings":["fi","finland"]},{"name":"Zvartnots International Airport","country_name":"Armenia","city_code":"EVN","city_name":"Yerevan","code":"EVN","country_code":"AM","index_strings":["evn","zvartnots international airport","yerevan","armenia","am"],"timezone":"Asia\/Yerevan","weight":16723,"coordinates":{"lat":40.15272,"lon":44.39805},"type":"airport","searchable":false},{"name":"Yerevan","country_name":"Armenia","country_code":"AM","code":"EVN","index_strings":["zvartnots international airport","evn","yerevan","armenia","am"],"timezone":"Asia\/Yerevan","weight":16723,"coordinates":{"lat":40.15272,"lon":44.39805},"type":"city","searchable":true},{"name":"Hamburg","country_name":"Germany","country_code":"DE","code":"HAM","index_strings":["ham","hamburg","germany","de"],"timezone":"Europe\/Berlin","weight":16502,"coordinates":{"lat":53.553813,"lon":9.991586},"type":"city","searchable":true},{"name":"Hamburg Airport","country_name":"Germany","city_code":"HAM","city_name":"Hamburg","code":"HAM","country_code":"DE","index_strings":["ham","hamburg airport","hamburg","germany","de"],"timezone":"Europe\/Berlin","weight":16389,"coordinates":{"lat":53.63128,"lon":10.006414},"type":"airport","searchable":true},{"name":"Sharjah","country_name":"United Arab Emirates","country_code":"AE","code":"SHJ","index_strings":["sharjah international airport","shj","sharjah","united arab emirates","ae"],"timezone":"Asia\/Dubai","weight":16232,"coordinates":{"lat":25.320873,"lon":55.52029},"type":"city","searchable":true},{"name":"Sharjah International Airport","country_name":"United Arab Emirates","city_code":"SHJ","city_name":"Sharjah","code":"SHJ","country_code":"AE","index_strings":["shj","sharjah international airport","sharjah","united arab emirates","ae"],"timezone":"Asia\/Dubai","weight":16230,"coordinates":{"lat":25.320873,"lon":55.52029},"type":"airport","searchable":false},{"name":"Honduras","weight":16196,"type":"country","code":"HN","searchable":true,"index_strings":["hn","honduras"]},{"name":"Haiti","weight":15975,"type":"country","code":"HT","searchable":true,"index_strings":["ht","haiti"]},{"name":"Sharm El Sheikh Airport","country_name":"Egypt","city_code":"SSH","city_name":"Sharm el Sheikh","code":"SSH","country_code":"EG","index_strings":["ssh","sharm el sheikh airport","sharm el sheikh","egypt","eg"],"timezone":"Africa\/Cairo","weight":15909,"coordinates":{"lat":27.979357,"lon":34.385254},"type":"airport","searchable":false},{"name":"Sharm el Sheikh","country_name":"Egypt","country_code":"EG","code":"SSH","index_strings":["sharm el sheikh airport","ssh","sharm el sheikh","egypt","eg"],"timezone":"Africa\/Cairo","weight":15909,"coordinates":{"lat":27.979357,"lon":34.385254},"type":"city","searchable":true},{"name":"Bahamas","weight":15905,"type":"country","code":"BS","searchable":true,"index_strings":["bs","bahamas"]},{"name":"Punta Cana International Airport","country_name":"Dominican Republic","city_code":"PUJ","city_name":"Punta Cana","code":"PUJ","country_code":"DO","index_strings":["puj","punta cana international airport","punta cana","dominican republic","do"],"timezone":"America\/Santo_Domingo","weight":15839,"coordinates":{"lat":18.562477,"lon":-68.364},"type":"airport","searchable":false},{"name":"Punta Cana","country_name":"Dominican Republic","country_code":"DO","code":"PUJ","index_strings":["punta cana international airport","puj","punta cana","dominican republic","do"],"timezone":"America\/Santo_Domingo","weight":15839,"coordinates":{"lat":18.562477,"lon":-68.364},"type":"city","searchable":true},{"name":"West Palm Beach","country_name":"United States","country_code":"US","code":"PBI","index_strings":["miami","майами","迈阿密","palm beach international airport","pbi","west palm beach","united states","us"],"timezone":"America\/New_York","weight":15665,"coordinates":{"lat":26.7153424,"lon":-80.0533746},"type":"city","searchable":true},{"name":"Palm Beach International Airport","city_code":"PBI","city_name":"West Palm Beach","state_code":"FL","coordinates":{"lat":26.688885,"lon":-80.09044},"type":"airport","country_name":"United States","country_code":"US","code":"PBI","index_strings":["pbi","palm beach international airport","west palm beach","united states","us"],"timezone":"America\/New_York","weight":15631,"searchable":false},{"name":"Alicante","country_name":"Spain","country_code":"ES","code":"ALC","index_strings":["alicante-elche airport","alc","alicante","spain","es"],"timezone":"Europe\/Madrid","weight":15612,"coordinates":{"lat":38.34521,"lon":-0.4809945},"type":"city","searchable":true},{"name":"Alicante-Elche Airport","country_name":"Spain","city_code":"ALC","city_name":"Alicante","code":"ALC","country_code":"ES","index_strings":["alc","alicante-elche airport","alicante","spain","es"],"timezone":"Europe\/Madrid","weight":15605,"coordinates":{"lat":38.287098,"lon":-0.557381},"type":"airport","searchable":false},{"name":"Perth","country_name":"Australia","country_code":"AU","code":"PER","index_strings":["perth airport","per","perth","australia","au"],"timezone":"Australia\/Perth","weight":15567,"coordinates":{"lat":-31.9522222,"lon":115.8588889},"type":"city","searchable":true},{"name":"Perth Airport","city_code":"PER","city_name":"Perth","state_code":"WA","coordinates":{"lat":-31.933603,"lon":115.960236},"type":"airport","country_name":"Australia","country_code":"AU","code":"PER","index_strings":["per","perth airport","perth","australia","au"],"timezone":"Australia\/Perth","weight":15547,"searchable":false},{"name":"Kansas City","country_name":"United States","country_code":"US","code":"MKC","index_strings":["mkc","kansas city","united states","us"],"timezone":"America\/Chicago","weight":15398,"coordinates":{"lat":39.05,"lon":-94.583333},"type":"city","searchable":true},{"name":"Alexandria","country_name":"Egypt","country_code":"EG","code":"ALY","index_strings":["borg el arab airport","aly","alexandria","egypt","eg"],"timezone":"Africa\/Cairo","weight":15364,"coordinates":{"lat":31.2135,"lon":29.9443},"type":"city","searchable":true},{"name":"San Jose","country_name":"United States","country_code":"US","code":"SJC","index_strings":["norman y. mineta san jose international airport","sjc","san jose","united states","us"],"timezone":"America\/Los_Angeles","weight":15336,"coordinates":{"lat":37.3393857,"lon":-121.8949555},"type":"city","searchable":true},{"name":"Norman Y. Mineta San Jose International Airport","city_code":"SJC","city_name":"San Jose","state_code":"CA","coordinates":{"lat":37.366737,"lon":-121.92638},"type":"airport","country_name":"United States","country_code":"US","code":"SJC","index_strings":["sjc","norman y. mineta san jose international airport","san jose","united states","us"],"timezone":"America\/Los_Angeles","weight":15333,"searchable":false},{"name":"Kotoka International Airport","country_name":"Ghana","city_code":"ACC","city_name":"Accra","code":"ACC","country_code":"GH","index_strings":["acc","kotoka international airport","accra","ghana","gh"],"timezone":"Africa\/Accra","weight":15279,"coordinates":{"lat":5.60737,"lon":-0.171769},"type":"airport","searchable":false},{"name":"Accra","country_name":"Ghana","country_code":"GH","code":"ACC","index_strings":["kotoka international airport","acc","accra","ghana","gh"],"timezone":"Africa\/Accra","weight":15279,"coordinates":{"lat":5.60737,"lon":-0.171769},"type":"city","searchable":true},{"name":"London","country_name":"United Kingdom","country_code":"GB","code":"LON","index_strings":["lon","london","united kingdom","gb"],"timezone":"Europe\/London","weight":15273,"coordinates":{"lat":51.51,"lon":0.06},"type":"city","searchable":true},{"name":"Mactan-Cebu International Airport","country_name":"Philippines","city_code":"CEB","city_name":"Cebu City","code":"CEB","country_code":"PH","index_strings":["ceb","mactan-cebu international airport","cebu city","philippines","ph"],"timezone":"Asia\/Manila","weight":15210,"coordinates":{"lat":10.313333,"lon":123.98278},"type":"airport","searchable":false},{"name":"Cebu City","country_name":"Philippines","country_code":"PH","code":"CEB","index_strings":["mactan-cebu international airport","ceb","cebu city","philippines","ph"],"timezone":"Asia\/Manila","weight":15210,"coordinates":{"lat":10.313333,"lon":123.98278},"type":"city","searchable":true},{"name":"Cleveland","country_name":"United States","country_code":"US","code":"CLE","index_strings":["cle","cleveland","united states","us"],"timezone":"America\/New_York","weight":15190,"coordinates":{"lat":41.4994954,"lon":-81.6954088},"type":"city","searchable":true},{"name":"Cleveland Hopkins International Airport","city_code":"CLE","city_name":"Cleveland","state_code":"OH","coordinates":{"lat":41.410854,"lon":-81.83821},"type":"airport","country_name":"United States","country_code":"US","code":"CLE","index_strings":["cle","cleveland hopkins international airport","cleveland","united states","us"],"timezone":"America\/New_York","weight":15188,"searchable":true},{"name":"Krabi","country_name":"Thailand","country_code":"TH","code":"KBV","index_strings":["krabi airport","kbv","krabi","thailand","th"],"timezone":"Asia\/Bangkok","weight":15182,"coordinates":{"lat":8.097281000000001,"lon":98.98062},"type":"city","searchable":true},{"name":"Krabi Airport","country_name":"Thailand","city_code":"KBV","city_name":"Krabi","code":"KBV","country_code":"TH","index_strings":["kbv","krabi airport","krabi","thailand","th"],"timezone":"Asia\/Bangkok","weight":15182,"coordinates":{"lat":8.097281000000001,"lon":98.98062},"type":"airport","searchable":false},{"name":"Hanoi","country_name":"Vietnam","country_code":"VN","code":"HAN","index_strings":["noi bai international airport","han","hanoi","vietnam","vn"],"timezone":"Asia\/Ho_Chi_Minh","weight":15126,"coordinates":{"lat":21.214184,"lon":105.802826},"type":"city","searchable":true},{"name":"Noi Bai International Airport","country_name":"Vietnam","city_code":"HAN","city_name":"Hanoi","code":"HAN","country_code":"VN","index_strings":["han","noi bai international airport","hanoi","vietnam","vn"],"timezone":"Asia\/Ho_Chi_Minh","weight":15126,"coordinates":{"lat":21.214184,"lon":105.802826},"type":"airport","searchable":false},{"name":"Oakland","country_name":"United States","country_code":"US","code":"OAK","index_strings":["metropolitan oakland international airport","oak","oakland","united states","us"],"timezone":"America\/Los_Angeles","weight":14868,"coordinates":{"lat":37.8043637,"lon":-122.2711137},"type":"city","searchable":true},{"name":"Metropolitan Oakland International Airport","city_code":"OAK","city_name":"Oakland","state_code":"CA","coordinates":{"lat":37.71188,"lon":-122.21201},