[{"name":"Atatürk Havalimanı","country_name":"Türkiye","city_code":"IST","city_name":"İstanbul","code":"IST","country_code":"TR","index_strings":["ist","atatürk havalimanı","i̇stanbul","türkiye","tr","istanbul ataturk airport","istanbul","turkey"],"timezone":"Europe\/Istanbul","weight":180054,"coordinates":{"lat":40.976665,"lon":28.815277},"type":"airport","searchable":true},{"name":"Bangkok","country_name":"Tayland","country_code":"TH","code":"BKK","index_strings":["bkk","bangkok","tayland","th","thailand"],"timezone":"Asia\/Bangkok","weight":167502,"coordinates":{"lat":13.7234186,"lon":100.4762319},"type":"city","searchable":true},{"name":"Bangkok Suvarnabhumi International","country_name":"Tayland","city_code":"BKK","city_name":"Bangkok","code":"BKK","country_code":"TH","index_strings":["bkk","bangkok suvarnabhumi international","bangkok","tayland","th","suvarnabhumi airport","thailand"],"timezone":"Asia\/Bangkok","weight":160824,"coordinates":{"lat":13.693062,"lon":100.752045},"type":"airport","searchable":true},{"name":"İstanbul","country_name":"Türkiye","country_code":"TR","code":"IST","index_strings":["ist","i̇stanbul","türkiye","tr","istanbul","turkey"],"timezone":"Europe\/Istanbul","weight":137295,"coordinates":{"lat":40.976665,"lon":28.815277},"type":"city","searchable":true},{"name":"Chiang Mai","country_name":"Tayland","country_code":"TH","code":"CNX","index_strings":["chiang mai international","cnx","chiang mai","tayland","th","thailand","chiang mai international airport"],"timezone":"Asia\/Bangkok","weight":61608,"coordinates":{"lat":18.769573,"lon":98.96841000000001},"type":"city","searchable":true},{"name":"Phuket Uluslararası Havalimanı","country_name":"Tayland","city_code":"HKT","city_name":"Phuket","code":"HKT","country_code":"TH","index_strings":["hkt","phuket uluslararası havalimanı","phuket","tayland","th","phuket international airport","thailand"],"timezone":"Asia\/Bangkok","weight":39062,"coordinates":{"lat":8.107619,"lon":98.30643499999999},"type":"airport","searchable":false},{"name":"Phuket","country_name":"Tayland","country_code":"TH","code":"HKT","index_strings":["phuket uluslararası havalimanı","hkt","phuket","tayland","th","thailand","phuket international airport"],"timezone":"Asia\/Bangkok","weight":31732,"coordinates":{"lat":8.107619,"lon":98.30643499999999},"type":"city","searchable":true},{"name":"Hat Yai","country_name":"Tayland","country_code":"TH","code":"HDY","index_strings":["hat yai international","hdy","hat yai","tayland","th","thailand","hat yai international airport"],"timezone":"Asia\/Bangkok","weight":26384,"coordinates":{"lat":6.936764,"lon":100.39356},"type":"city","searchable":true},{"name":"Hat Yai International","country_name":"Tayland","city_code":"HDY","city_name":"Hat Yai","code":"HDY","country_code":"TH","index_strings":["hdy","hat yai international","hat yai","tayland","th","hat yai international airport","thailand"],"timezone":"Asia\/Bangkok","weight":26383,"coordinates":{"lat":6.936764,"lon":100.39356},"type":"airport","searchable":false},{"name":"Dalaman","country_name":"Türkiye","country_code":"TR","code":"DLM","index_strings":["dalaman","dlm","türkiye","tr","turkey","dalaman airport"],"timezone":"Europe\/Istanbul","weight":24784,"coordinates":{"lat":36.716667,"lon":28.783333},"type":"city","searchable":true},{"name":"Dalaman","country_name":"Türkiye","city_code":"DLM","city_name":"Dalaman","code":"DLM","country_code":"TR","index_strings":["dlm","dalaman","türkiye","tr","dalaman airport","turkey"],"timezone":"Europe\/Istanbul","weight":24784,"coordinates":{"lat":36.716667,"lon":28.783333},"type":"airport","searchable":false},{"name":"Antalya","country_name":"Türkiye","country_code":"TR","code":"AYT","index_strings":["antalya","ayt","türkiye","tr","turkey","antalya airport"],"timezone":"Europe\/Istanbul","weight":17796,"coordinates":{"lat":36.89928,"lon":30.80135},"type":"city","searchable":true},{"name":"Antalya","country_name":"Türkiye","city_code":"AYT","city_name":"Antalya","code":"AYT","country_code":"TR","index_strings":["ayt","antalya","türkiye","tr","antalya airport","turkey"],"timezone":"Europe\/Istanbul","weight":17796,"coordinates":{"lat":36.89928,"lon":30.80135},"type":"airport","searchable":false},{"name":"Singapur","country_name":"Singapur","country_code":"SG","code":"SIN","index_strings":["singapore changi","sin","singapur","sg","singapore","changi international airport"],"timezone":"Asia\/Singapore","weight":15840,"coordinates":{"lat":1.2894365,"lon":103.8499802},"type":"city","searchable":true},{"name":"Singapore Changi","country_name":"Singapur","city_code":"SIN","city_name":"Singapur","code":"SIN","country_code":"SG","index_strings":["sin","singapore changi","singapur","sg","changi international airport","singapore"],"timezone":"Asia\/Singapore","weight":15836,"coordinates":{"lat":1.361173,"lon":103.990204},"type":"airport","searchable":false},{"name":"Udon Thani","country_name":"Tayland","country_code":"TH","code":"UTH","index_strings":["udon thani international","uth","udon thani","tayland","th","thailand","udon thani international airport"],"timezone":"Asia\/Bangkok","weight":14397,"coordinates":{"lat":17.38661,"lon":102.774506},"type":"city","searchable":true},{"name":"Udon Thani International","country_name":"Tayland","city_code":"UTH","city_name":"Udon Thani","code":"UTH","country_code":"TH","index_strings":["uth","udon thani international","udon thani","tayland","th","udon thani international airport","thailand"],"timezone":"Asia\/Bangkok","weight":14397,"coordinates":{"lat":17.38661,"lon":102.774506},"type":"airport","searchable":false},{"name":"Krabi","country_name":"Tayland","country_code":"TH","code":"KBV","index_strings":["krabi","kbv","tayland","th","thailand","krabi airport"],"timezone":"Asia\/Bangkok","weight":12926,"coordinates":{"lat":8.097281000000001,"lon":98.98062},"type":"city","searchable":true},{"name":"Krabi","country_name":"Tayland","city_code":"KBV","city_name":"Krabi","code":"KBV","country_code":"TH","index_strings":["kbv","krabi","tayland","th","krabi airport","thailand"],"timezone":"Asia\/Bangkok","weight":12924,"coordinates":{"lat":8.097281000000001,"lon":98.98062},"type":"airport","searchable":false},{"name":"Chiang Rai","country_name":"Tayland","country_code":"TH","code":"CEI","index_strings":["chiang rai mae fah luang international","cei","chiang rai","tayland","th","thailand","chiang rai international airport"],"timezone":"Asia\/Bangkok","weight":11156,"coordinates":{"lat":19.954609,"lon":99.878815},"type":"city","searchable":true},{"name":"Chiang Rai Mae Fah Luang International","country_name":"Tayland","city_code":"CEI","city_name":"Chiang Rai","code":"CEI","country_code":"TH","index_strings":["cei","chiang rai mae fah luang international","chiang rai","tayland","th","chiang rai international airport","thailand"],"timezone":"Asia\/Bangkok","weight":11154,"coordinates":{"lat":19.954609,"lon":99.878815},"type":"airport","searchable":false},{"name":"Ko Samui","country_name":"Tayland","country_code":"TH","code":"USM","index_strings":["ko samui","usm","tayland","th","koh samui","thailand","koh samui airport"],"timezone":"Asia\/Bangkok","weight":10492,"coordinates":{"lat":9.555315,"lon":100.0628},"type":"city","searchable":true},{"name":"Ko Samui","country_name":"Tayland","city_code":"USM","city_name":"Ko Samui","code":"USM","country_code":"TH","index_strings":["usm","ko samui","tayland","th","koh samui airport","koh samui","thailand"],"timezone":"Asia\/Bangkok","weight":10492,"coordinates":{"lat":9.555315,"lon":100.0628},"type":"airport","searchable":false},{"name":"Hong Kong International","country_name":"Hong Kong","city_code":"HKG","city_name":"Hong Kong","code":"HKG","country_code":"HK","index_strings":["hkg","hong kong international","hong kong","hk","hong kong international airport"],"timezone":"Asia\/Hong_Kong","weight":10313,"coordinates":{"lat":22.315248,"lon":113.93649},"type":"airport","searchable":true},{"name":"Hong Kong","country_name":"Hong Kong","country_code":"HK","code":"HKG","index_strings":["hkg","hong kong","hk"],"timezone":"Asia\/Hong_Kong","weight":10244,"coordinates":{"lat":22.2478599,"lon":114.2033843},"type":"city","searchable":true},{"name":"Surat Thani","country_name":"Tayland","country_code":"TH","code":"URT","index_strings":["surat thani","urt","tayland","th","thailand","surat thani airport"],"timezone":"Asia\/Bangkok","weight":9013,"coordinates":{"lat":9.133865,"lon":99.143196},"type":"city","searchable":true},{"name":"Surat Thani","country_name":"Tayland","city_code":"URT","city_name":"Surat Thani","code":"URT","country_code":"TH","index_strings":["urt","surat thani","tayland","th","surat thani airport","thailand"],"timezone":"Asia\/Bangkok","weight":9013,"coordinates":{"lat":9.133865,"lon":99.143196},"type":"airport","searchable":false},{"name":"Khon Kaen","country_name":"Tayland","country_code":"TH","code":"KKC","index_strings":["khon kaen","kkc","tayland","th","thailand","khon kaen airport"],"timezone":"Asia\/Bangkok","weight":8527,"coordinates":{"lat":16.46467,"lon":102.78749},"type":"city","searchable":true},{"name":"Khon Kaen","country_name":"Tayland","city_code":"KKC","city_name":"Khon Kaen","code":"KKC","country_code":"TH","index_strings":["kkc","khon kaen","tayland","th","khon kaen airport","thailand"],"timezone":"Asia\/Bangkok","weight":8527,"coordinates":{"lat":16.46467,"lon":102.78749},"type":"airport","searchable":false},{"name":"Ubon Ratchathani","country_name":"Tayland","city_code":"UBP","city_name":"Ubon Ratchathani","code":"UBP","country_code":"TH","index_strings":["ubp","ubon ratchathani","tayland","th","ubon ratchathani international airport","thailand"],"timezone":"Asia\/Bangkok","weight":7205,"coordinates":{"lat":15.246491,"lon":104.87068},"type":"airport","searchable":false},{"name":"Ubon Ratchathani","country_name":"Tayland","country_code":"TH","code":"UBP","index_strings":["ubon ratchathani","ubp","tayland","th","thailand","ubon ratchathani international airport"],"timezone":"Asia\/Bangkok","weight":7205,"coordinates":{"lat":15.246491,"lon":104.87068},"type":"city","searchable":true},{"name":"Ankara","country_name":"Türkiye","country_code":"TR","code":"ANK","index_strings":["ankara esenboğa havalimanı","ank","ankara","türkiye","tr","turkey","esenboga international airport"],"timezone":"Europe\/Istanbul","weight":6947,"coordinates":{"lat":39.866667,"lon":39.866667},"type":"city","searchable":true},{"name":"Bangkok Don Mueang International","country_name":"Tayland","city_code":"BKK","city_name":"Bangkok","code":"DMK","country_code":"TH","index_strings":["dmk","bangkok don mueang international","bangkok","bkk","tayland","th","don mueang international airport","thailand"],"timezone":"Asia\/Bangkok","weight":6668,"coordinates":{"lat":13.9125,"lon":100.60667},"type":"airport","searchable":true},{"name":"Gazipasa","country_name":"Türkiye","city_code":"GZP","city_name":"Gazipaşa","code":"GZP","country_code":"TR","index_strings":["gzp","gazipasa","gazipaşa","türkiye","tr","gazipasa airport","turkey"],"timezone":"Europe\/Istanbul","weight":6012,"coordinates":{"lat":36.2993,"lon":32.3014},"type":"airport","searchable":false},{"name":"Gazipaşa","country_name":"Türkiye","country_code":"TR","code":"GZP","index_strings":["gazipasa","gzp","gazipaşa","türkiye","tr","turkey","gazipasa airport"],"timezone":"Europe\/Istanbul","weight":6012,"coordinates":{"lat":36.2993,"lon":32.3014},"type":"city","searchable":true},{"name":"Sabiha Gökçen Uluslararası Havalimanı","country_name":"Türkiye","city_code":"IST","city_name":"İstanbul","code":"SAW","country_code":"TR","index_strings":["saw","sabiha gökçen uluslararası havalimanı","i̇stanbul","ist","türkiye","tr","sabiha gokcen international airport","istanbul","turkey"],"timezone":"Europe\/Istanbul","weight":5673,"coordinates":{"lat":40.904675,"lon":29.309189},"type":"airport","searchable":true},{"name":"Kuala Lumpur","country_name":"Malezya","country_code":"MY","code":"KUL","index_strings":["kul","kuala lumpur","malezya","my","malaysia"],"timezone":"Asia\/Kuala_Lumpur","weight":4807,"coordinates":{"lat":3.139003,"lon":101.686855},"type":"city","searchable":true},{"name":"Utapao-Rayong-Pataya International Airport","country_name":"Tayland","country_code":"TH","code":"UTP","index_strings":["u-tapao rayong-pattaya international","utp","utapao-rayong-pataya international airport","tayland","th","utapao","thailand","utapao airport"],"timezone":"Asia\/Bangkok","weight":4680,"coordinates":{"lat":12.683333,"lon":101.01667},"type":"city","searchable":true},{"name":"U-Tapao Rayong-Pattaya International","country_name":"Tayland","city_code":"UTP","city_name":"Utapao-Rayong-Pataya International Airport","code":"UTP","country_code":"TH","index_strings":["utp","u-tapao rayong-pattaya international","utapao-rayong-pataya international airport","tayland","th","utapao airport","utapao","thailand"],"timezone":"Asia\/Bangkok","weight":4679,"coordinates":{"lat":12.683333,"lon":101.01667},"type":"airport","searchable":false},{"name":"Kuala Lumpur International","country_name":"Malezya","city_code":"KUL","city_name":"Kuala Lumpur","code":"KUL","country_code":"MY","index_strings":["kul","kuala lumpur international","kuala lumpur","malezya","my","kuala lumpur international airport","malaysia"],"timezone":"Asia\/Kuala_Lumpur","weight":4677,"coordinates":{"lat":2.755672,"lon":101.70539},"type":"airport","searchable":true},{"name":"Luang Prabang","country_name":"Laos","country_code":"LA","code":"LPQ","index_strings":["luang prabang international","lpq","luang prabang","laos","la","luang prabang international airport"],"timezone":"Asia\/Vientiane","weight":3678,"coordinates":{"lat":19.897055,"lon":102.16371},"type":"city","searchable":true},{"name":"Luang Prabang International","country_name":"Laos","city_code":"LPQ","city_name":"Luang Prabang","code":"LPQ","country_code":"LA","index_strings":["lpq","luang prabang international","luang prabang","laos","la","luang prabang international airport"],"timezone":"Asia\/Vientiane","weight":3677,"coordinates":{"lat":19.897055,"lon":102.16371},"type":"airport","searchable":false},{"name":"Phitsanulok","country_name":"Tayland","country_code":"TH","code":"PHS","index_strings":["phitsanulok","phs","tayland","th","thailand","phitsanulok airport"],"timezone":"Asia\/Bangkok","weight":3670,"coordinates":{"lat":16.771307,"lon":100.2812},"type":"city","searchable":true},{"name":"Phitsanulok","country_name":"Tayland","city_code":"PHS","city_name":"Phitsanulok","code":"PHS","country_code":"TH","index_strings":["phs","phitsanulok","tayland","th","phitsanulok airport","thailand"],"timezone":"Asia\/Bangkok","weight":3670,"coordinates":{"lat":16.771307,"lon":100.2812},"type":"airport","searchable":false},{"name":"Nakhon Si Thammarat","country_name":"Tayland","country_code":"TH","code":"NST","index_strings":["nakhon si thammarat","nst","tayland","th","thailand","nakhon si thammarat airport"],"timezone":"Asia\/Bangkok","weight":3600,"coordinates":{"lat":8.466666999999999,"lon":99.95},"type":"city","searchable":true},{"name":"Nakhon Si Thammarat","country_name":"Tayland","city_code":"NST","city_name":"Nakhon Si Thammarat","code":"NST","country_code":"TH","index_strings":["nst","nakhon si thammarat","tayland","th","nakhon si thammarat airport","thailand"],"timezone":"Asia\/Bangkok","weight":3599,"coordinates":{"lat":8.466666999999999,"lon":99.95},"type":"airport","searchable":false},{"name":"Vientiane","country_name":"Laos","country_code":"LA","code":"VTE","index_strings":["vientiane wattay international","vte","vientiane","laos","la","wattay international airport"],"timezone":"Asia\/Vientiane","weight":3257,"coordinates":{"lat":17.975431,"lon":102.56772},"type":"city","searchable":true},{"name":"Vientiane Wattay International","country_name":"Laos","city_code":"VTE","city_name":"Vientiane","code":"VTE","country_code":"LA","index_strings":["vte","vientiane wattay international","vientiane","laos","la","wattay international airport"],"timezone":"Asia\/Vientiane","weight":3257,"coordinates":{"lat":17.975431,"lon":102.56772},"type":"airport","searchable":false},{"name":"Sidney","country_name":"Avustralya","country_code":"AU","code":"SYD","index_strings":["sydney kingsford smith","syd","sidney","avustralya","au","sydney","australia","sydney (kingsford smith) airport"],"timezone":"Australia\/Sydney","weight":3079,"coordinates":{"lat":-33.8689009,"lon":151.2070914},"type":"city","searchable":true},{"name":"Mae Hong Son","country_name":"Tayland","country_code":"TH","code":"HGN","index_strings":["mae hong son","hgn","tayland","th","thailand","mae hong son airport"],"timezone":"Asia\/Bangkok","weight":3052,"coordinates":{"lat":19.29968,"lon":97.97523},"type":"city","searchable":true},{"name":"Mae Hong Son","country_name":"Tayland","city_code":"HGN","city_name":"Mae Hong Son","code":"HGN","country_code":"TH","index_strings":["hgn","mae hong son","tayland","th","mae hong son airport","thailand"],"timezone":"Asia\/Bangkok","weight":3052,"coordinates":{"lat":19.29968,"lon":97.97523},"type":"airport","searchable":false},{"name":"Manila","country_name":"Filipinler","country_code":"PH","code":"MNL","index_strings":["manila ninoy aquino int'l","mnl","manila","filipinler","ph","philippines","ninoy aquino international airport"],"timezone":"Asia\/Manila","weight":2796,"coordinates":{"lat":14.5995124,"lon":120.9842195},"type":"city","searchable":true},{"name":"Manila Ninoy Aquino Int'l","country_name":"Filipinler","city_code":"MNL","city_name":"Manila","code":"MNL","country_code":"PH","index_strings":["mnl","manila ninoy aquino int'l","manila","filipinler","ph","ninoy aquino international airport","philippines"],"timezone":"Asia\/Manila","weight":2795,"coordinates":{"lat":14.509602,"lon":121.01251},"type":"airport","searchable":false},{"name":"Sydney Kingsford Smith","city_code":"SYD","city_name":"Sidney","state_code":"NS","coordinates":{"lat":-33.932922,"lon":151.1799},"type":"airport","country_name":"Avustralya","country_code":"AU","code":"SYD","index_strings":["syd","sydney kingsford smith","sidney","avustralya","au","sydney (kingsford smith) airport","sydney","australia"],"timezone":"Australia\/Sydney","weight":2764,"searchable":false},{"name":"Los Angeles","country_name":"ABD","country_code":"US","code":"LAX","index_strings":["lax","los angeles","abd","us","united states"],"timezone":"America\/Los_Angeles","weight":2712,"coordinates":{"lat":34.0522342,"lon":-118.2436849},"type":"city","searchable":true},{"name":"Los Angeles International","city_code":"LAX","city_name":"Los Angeles","state_code":"CA","coordinates":{"lat":33.943398,"lon":-118.40828},"type":"airport","country_name":"ABD","country_code":"US","code":"LAX","index_strings":["lax","los angeles international","los angeles","abd","us","los angeles international airport","united states"],"timezone":"America\/Los_Angeles","weight":2711,"searchable":true},{"name":"Lampang","country_name":"Tayland","city_code":"LPT","city_name":"Lampang","code":"LPT","country_code":"TH","index_strings":["lpt","lampang","tayland","th","lampang airport","thailand"],"timezone":"Asia\/Bangkok","weight":2695,"coordinates":{"lat":18.274166,"lon":99.50722500000001},"type":"airport","searchable":false},{"name":"Lampang","country_name":"Tayland","country_code":"TH","code":"LPT","index_strings":["lampang","lpt","tayland","th","thailand","lampang airport"],"timezone":"Asia\/Bangkok","weight":2695,"coordinates":{"lat":18.274166,"lon":99.50722500000001},"type":"city","searchable":true},{"name":"Taipei","country_name":"Tayvan","country_code":"TW","code":"TPE","index_strings":["tpe","taipei","tayvan","tw","taiwan"],"timezone":"Asia\/Taipei","weight":2638,"coordinates":{"lat":25.091075,"lon":121.5598345},"type":"city","searchable":true},{"name":"Yeni Delhi","country_name":"Hindistan","country_code":"IN","code":"DEL","index_strings":["delhi indira gandhi international","del","yeni delhi","hindistan","in","delhi","india","indira gandhi international airport"],"timezone":"Asia\/Kolkata","weight":2630,"coordinates":{"lat":28.556555,"lon":77.10079},"type":"city","searchable":true},{"name":"Trang","country_name":"Tayland","country_code":"TH","code":"TST","index_strings":["trang","tst","tayland","th","thailand","trang airport"],"timezone":"Asia\/Bangkok","weight":2590,"coordinates":{"lat":7.5,"lon":99.61667},"type":"city","searchable":true},{"name":"Trang","country_name":"Tayland","city_code":"TST","city_name":"Trang","code":"TST","country_code":"TH","index_strings":["tst","trang","tayland","th","trang airport","thailand"],"timezone":"Asia\/Bangkok","weight":2590,"coordinates":{"lat":7.5,"lon":99.61667},"type":"airport","searchable":false},{"name":"Taipei Taiwan Taoyuan International","country_name":"Tayvan","city_code":"TPE","city_name":"Taipei","code":"TPE","country_code":"TW","index_strings":["tpe","taipei taiwan taoyuan international","taipei","tayvan","tw","taiwan taoyuan international airport","taiwan"],"timezone":"Asia\/Taipei","weight":2585,"coordinates":{"lat":25.07639,"lon":121.22389},"type":"airport","searchable":true},{"name":"Guangzhou","country_name":"Çin","country_code":"CN","code":"CAN","index_strings":["guangzhou baiyun international","can","guangzhou","çin","cn","china","guangzhou baiyun international airport"],"timezone":"Asia\/Shanghai","weight":2544,"coordinates":{"lat":23.387861,"lon":113.29734},"type":"city","searchable":true},{"name":"Guangzhou Baiyun International","country_name":"Çin","city_code":"CAN","city_name":"Guangzhou","code":"CAN","country_code":"CN","index_strings":["can","guangzhou baiyun international","guangzhou","çin","cn","guangzhou baiyun international airport","china"],"timezone":"Asia\/Shanghai","weight":2544,"coordinates":{"lat":23.387861,"lon":113.29734},"type":"airport","searchable":false},{"name":"Şanghay","country_name":"Çin","country_code":"CN","code":"SHA","index_strings":["sha","şanghay","çin","cn","shanghai","china"],"timezone":"Asia\/Shanghai","weight":2362,"coordinates":{"lat":31.230393,"lon":121.473704},"type":"city","searchable":true},{"name":"Nan","country_name":"Tayland","city_code":"NNT","city_name":"Nan","code":"NNT","country_code":"TH","index_strings":["nnt","nan","tayland","th","nan airport","thailand"],"timezone":"Asia\/Bangkok","weight":2283,"coordinates":{"lat":18.8,"lon":100.78333},"type":"airport","searchable":false},{"name":"Nan","country_name":"Tayland","country_code":"TH","code":"NNT","index_strings":["nan","nnt","tayland","th","thailand","nan airport"],"timezone":"Asia\/Bangkok","weight":2283,"coordinates":{"lat":18.8,"lon":100.78333},"type":"city","searchable":true},{"name":"Yangon International","country_name":"Myanmar (Burma)","city_code":"RGN","city_name":"Yangon","code":"RGN","country_code":"MM","index_strings":["rgn","yangon international","yangon","myanmar (burma)","mm","yangon international airport","myanmar"],"timezone":"Asia\/Rangoon","weight":2183,"coordinates":{"lat":16.900068,"lon":96.13415500000001},"type":"airport","searchable":false},{"name":"Yangon","country_name":"Myanmar (Burma)","country_code":"MM","code":"RGN","index_strings":["yangon international","rgn","yangon","myanmar (burma)","mm","myanmar","yangon international airport"],"timezone":"Asia\/Rangoon","weight":2183,"coordinates":{"lat":16.900068,"lon":96.13415500000001},"type":"city","searchable":true},{"name":"Roi Et","country_name":"Tayland","country_code":"TH","code":"ROI","index_strings":["roi et","roi","tayland","th","thailand","roi et airport"],"timezone":"Asia\/Bangkok","weight":2104,"coordinates":{"lat":16.115278,"lon":103.77695},"type":"city","searchable":true},{"name":"Roi Et","country_name":"Tayland","city_code":"ROI","city_name":"Roi Et","code":"ROI","country_code":"TH","index_strings":["roi","roi et","tayland","th","roi et airport","thailand"],"timezone":"Asia\/Bangkok","weight":2104,"coordinates":{"lat":16.115278,"lon":103.77695},"type":"airport","searchable":false},{"name":"Shanghai Hongqiao International","country_name":"Çin","city_code":"SHA","city_name":"Şanghay","code":"SHA","country_code":"CN","index_strings":["sha","shanghai hongqiao international","şanghay","çin","cn","shanghai hongqiao international airport","shanghai","china"],"timezone":"Asia\/Shanghai","weight":2025,"coordinates":{"lat":31.196815,"lon":121.34197},"type":"airport","searchable":true},{"name":"Frankfurt am Main","country_name":"Almanya","country_code":"DE","code":"FRA","index_strings":["fra","frankfurt am main","almanya","de","frankfurt","germany"],"timezone":"Europe\/Berlin","weight":1971,"coordinates":{"lat":50.050735,"lon":8.570773000000001},"type":"city","searchable":true},{"name":"Frankfurt International","country_name":"Almanya","city_code":"FRA","city_name":"Frankfurt am Main","code":"FRA","country_code":"DE","index_strings":["fra","frankfurt international","frankfurt am main","almanya","de","frankfurt airport","frankfurt","germany"],"timezone":"Europe\/Berlin","weight":1959,"coordinates":{"lat":50.050735,"lon":8.570773000000001},"type":"airport","searchable":true},{"name":"Bodrum","country_name":"Türkiye","country_code":"TR","code":"BJV","index_strings":["bodrum milas","bjv","bodrum","türkiye","tr","turkey","milas-bodrum airport"],"timezone":"Europe\/Istanbul","weight":1951,"coordinates":{"lat":37.25,"lon":27.66},"type":"city","searchable":true},{"name":"Sakon Nakhon","country_name":"Tayland","city_code":"SNO","city_name":"Sakhon Nakhon","code":"SNO","country_code":"TH","index_strings":["sno","sakon nakhon","sakhon nakhon","tayland","th","sakon nakhon airport","thailand"],"timezone":"Asia\/Bangkok","weight":1919,"coordinates":{"lat":17.283333,"lon":104.1},"type":"airport","searchable":false},{"name":"Sakhon Nakhon","country_name":"Tayland","country_code":"TH","code":"SNO","index_strings":["sakon nakhon","sno","sakhon nakhon","tayland","th","thailand","sakon nakhon airport"],"timezone":"Asia\/Bangkok","weight":1919,"coordinates":{"lat":17.283333,"lon":104.1},"type":"city","searchable":true},{"name":"Buriram","country_name":"Tayland","city_code":"BFV","city_name":"Buri Ram","code":"BFV","country_code":"TH","index_strings":["bfv","buriram","buri ram","tayland","th","buri ram airport","thailand"],"timezone":"Asia\/Bangkok","weight":1889,"coordinates":{"lat":15.226944,"lon":103.25528},"type":"airport","searchable":false},{"name":"Buri Ram","country_name":"Tayland","country_code":"TH","code":"BFV","index_strings":["buriram","bfv","buri ram","tayland","th","thailand","buri ram airport"],"timezone":"Asia\/Bangkok","weight":1889,"coordinates":{"lat":15.226944,"lon":103.25528},"type":"city","searchable":true},{"name":"Fukuoka","country_name":"Japonya","country_code":"JP","code":"FUK","index_strings":["fukuoka","fuk","japonya","jp","japan","fukuoka airport"],"timezone":"Asia\/Tokyo","weight":1835,"coordinates":{"lat":33.584286,"lon":130.4439},"type":"city","searchable":true},{"name":"Fukuoka","country_name":"Japonya","city_code":"FUK","city_name":"Fukuoka","code":"FUK","country_code":"JP","index_strings":["fuk","fukuoka","japonya","jp","fukuoka airport","japan"],"timezone":"Asia\/Tokyo","weight":1835,"coordinates":{"lat":33.584286,"lon":130.4439},"type":"airport","searchable":false},{"name":"Hanoi","country_name":"Vietnam","country_code":"VN","code":"HAN","index_strings":["hanoi noi bai international","han","hanoi","vietnam","vn","noi bai international airport"],"timezone":"Asia\/Ho_Chi_Minh","weight":1817,"coordinates":{"lat":21.214184,"lon":105.802826},"type":"city","searchable":true},{"name":"Hanoi Noi Bai International","country_name":"Vietnam","city_code":"HAN","city_name":"Hanoi","code":"HAN","country_code":"VN","index_strings":["han","hanoi noi bai international","hanoi","vietnam","vn","noi bai international airport"],"timezone":"Asia\/Ho_Chi_Minh","weight":1793,"coordinates":{"lat":21.214184,"lon":105.802826},"type":"airport","searchable":false},{"name":"Ho Chi Minh City Tan Son Nhat International","country_name":"Vietnam","city_code":"SGN","city_name":"Ho Chi Minh Kenti","code":"SGN","country_code":"VN","index_strings":["sgn","ho chi minh city tan son nhat international","ho chi minh kenti","vietnam","vn","tan son nhat international airport","ho chi minh city"],"timezone":"Asia\/Ho_Chi_Minh","weight":1697,"coordinates":{"lat":10.813045,"lon":106.662476},"type":"airport","searchable":false},{"name":"Ho Chi Minh Kenti","country_name":"Vietnam","country_code":"VN","code":"SGN","index_strings":["ho chi minh city tan son nhat international","sgn","ho chi minh kenti","vietnam","vn","ho chi minh city","tan son nhat international airport"],"timezone":"Asia\/Ho_Chi_Minh","weight":1697,"coordinates":{"lat":10.813045,"lon":106.662476},"type":"city","searchable":true},{"name":"Adana","country_name":"Türkiye","country_code":"TR","code":"ADA","index_strings":["adana sakirpasa","ada","adana","türkiye","tr","turkey","adana airport"],"timezone":"Europe\/Istanbul","weight":1692,"coordinates":{"lat":37,"lon":35.3213333},"type":"city","searchable":true},{"name":"Adana Sakirpasa","country_name":"Türkiye","city_code":"ADA","city_name":"Adana","code":"ADA","country_code":"TR","index_strings":["ada","adana sakirpasa","adana","türkiye","tr","adana airport","turkey"],"timezone":"Europe\/Istanbul","weight":1692,"coordinates":{"lat":36.98503,"lon":35.29736},"type":"airport","searchable":false},{"name":"Melbourne","country_name":"Avustralya","country_code":"AU","code":"MEL","index_strings":["mel","melbourne","avustralya","au","australia"],"timezone":"Australia\/Melbourne","weight":1664,"coordinates":{"lat":-37.8131869,"lon":144.9629796},"type":"city","searchable":true},{"name":"Izmir Adnan Menderes","country_name":"Türkiye","city_code":"IZM","city_name":"İzmir","code":"ADB","country_code":"TR","index_strings":["adb","izmir adnan menderes","i̇zmir","izm","türkiye","tr","izmir adnan menderes airport","izmir","turkey"],"timezone":"Europe\/Istanbul","weight":1652,"coordinates":{"lat":38.294403,"lon":27.147594},"type":"airport","searchable":true},{"name":"İzmir","country_name":"Türkiye","country_code":"TR","code":"IZM","index_strings":["izmir adnan menderes","izm","i̇zmir","türkiye","tr","izmir","turkey","izmir adnan menderes airport"],"timezone":"Europe\/Istanbul","weight":1652,"coordinates":{"lat":38.29,"lon":27.16},"type":"city","searchable":true},{"name":"Mae Sot","country_name":"Tayland","country_code":"TH","code":"MAQ","index_strings":["mae sot","maq","tayland","th","thailand","mae sot airport"],"timezone":"Asia\/Bangkok","weight":1592,"coordinates":{"lat":16.666668,"lon":98.583336},"type":"city","searchable":true},{"name":"Mae Sot","country_name":"Tayland","city_code":"MAQ","city_name":"Mae Sot","code":"MAQ","country_code":"TH","index_strings":["maq","mae sot","tayland","th","mae sot airport","thailand"],"timezone":"Asia\/Bangkok","weight":1592,"coordinates":{"lat":16.666668,"lon":98.583336},"type":"airport","searchable":false},{"name":"Nakhon Phanom","country_name":"Tayland","city_code":"KOP","city_name":"Nakhon Phanom","code":"KOP","country_code":"TH","index_strings":["kop","nakhon phanom","tayland","th","nakhon phanom airport","thailand"],"timezone":"Asia\/Bangkok","weight":1564,"coordinates":{"lat":17.4,"lon":104.75},"type":"airport","searchable":false},{"name":"Nakhon Phanom","country_name":"Tayland","country_code":"TH","code":"KOP","index_strings":["nakhon phanom","kop","tayland","th","thailand","nakhon phanom airport"],"timezone":"Asia\/Bangkok","weight":1564,"coordinates":{"lat":17.4,"lon":104.75},"type":"city","searchable":true},{"name":"Trat","country_name":"Tayland","city_code":"TDX","city_name":"Trat","code":"TDX","country_code":"TH","index_strings":["tdx","trat","tayland","th","trat airport","thailand"],"timezone":"Asia\/Bangkok","weight":1478,"coordinates":{"lat":12.273953,"lon":102.31867},"type":"airport","searchable":false},{"name":"Trat","country_name":"Tayland","country_code":"TH","code":"TDX","index_strings":["trat","tdx","tayland","th","thailand","trat airport"],"timezone":"Asia\/Bangkok","weight":1478,"coordinates":{"lat":12.273953,"lon":102.31867},"type":"city","searchable":true},{"name":"Melbourne","city_code":"MEL","city_name":"Melbourne","state_code":"VI","coordinates":{"lat":-37.669613,"lon":144.84978},"type":"airport","country_name":"Avustralya","country_code":"AU","code":"MEL","index_strings":["mel","melbourne","avustralya","au","tullamarine airport","australia"],"timezone":"Australia\/Melbourne","weight":1456,"searchable":true},{"name":"Bodrum Milas","country_name":"Türkiye","city_code":"BJV","city_name":"Bodrum","code":"BJV","country_code":"TR","index_strings":["bjv","bodrum milas","bodrum","türkiye","tr","milas-bodrum airport","turkey"],"timezone":"Europe\/Istanbul","weight":1453,"coordinates":{"lat":37.243954,"lon":27.672781},"type":"airport","searchable":false},{"name":"Amsterdam","country_name":"Hollanda","country_code":"NL","code":"AMS","index_strings":["amsterdam schiphol","ams","amsterdam","hollanda","nl","netherlands","amsterdam airport schiphol"],"timezone":"Europe\/Amsterdam","weight":1452,"coordinates":{"lat":52.3730556,"lon":4.8922222},"type":"city","searchable":true},{"name":"Amsterdam Schiphol","country_name":"Hollanda","city_code":"AMS","city_name":"Amsterdam","code":"AMS","country_code":"NL","index_strings":["ams","amsterdam schiphol","amsterdam","hollanda","nl","amsterdam airport schiphol","netherlands"],"timezone":"Europe\/Amsterdam","weight":1449,"coordinates":{"lat":52.30907,"lon":4.763385},"type":"airport","searchable":false},{"name":"Tokyo","country_name":"Japonya","country_code":"JP","code":"TYO","index_strings":["tyo","tokyo","japonya","jp","japan"],"timezone":"Asia\/Tokyo","weight":1441,"coordinates":{"lat":35.6894875,"lon":139.6917064},"type":"city","searchable":true},{"name":"Penang","country_name":"Malezya","country_code":"MY","code":"PEN","index_strings":["penang international","pen","penang","malezya","my","malaysia","penang international airport"],"timezone":"Asia\/Kuala_Lumpur","weight":1400,"coordinates":{"lat":5.292961,"lon":100.265175},"type":"city","searchable":true},{"name":"Penang International","country_name":"Malezya","city_code":"PEN","city_name":"Penang","code":"PEN","country_code":"MY","index_strings":["pen","penang international","penang","malezya","my","penang international airport","malaysia"],"timezone":"Asia\/Kuala_Lumpur","weight":1400,"coordinates":{"lat":5.292961,"lon":100.265175},"type":"airport","searchable":false},{"name":"Dubai","country_name":"Birleşik Arap Emirlikleri","country_code":"AE","code":"DXB","index_strings":["dxb","dubai","birleşik arap emirlikleri","ae","united arab emirates"],"timezone":"Asia\/Dubai","weight":1347,"coordinates":{"lat":25.2644444,"lon":55.3116667},"type":"city","searchable":true},{"name":"Macau","country_name":"Makao","country_code":"MO","code":"MFM","index_strings":["mfm","macau","makao","mo"],"timezone":"Asia\/Macau","weight":1340,"coordinates":{"lat":22.1638446,"lon":113.5549937},"type":"city","searchable":true},{"name":"Macau International","country_name":"Makao","city_code":"MFM","city_name":"Macau","code":"MFM","country_code":"MO","index_strings":["mfm","macau international","macau","makao","mo","macau international airport"],"timezone":"Asia\/Macau","weight":1339,"coordinates":{"lat":22.156588,"lon":113.57285},"type":"airport","searchable":true},{"name":"Dubai International","country_name":"Birleşik Arap Emirlikleri","city_code":"DXB","city_name":"Dubai","code":"DXB","country_code":"AE","index_strings":["dxb","dubai international","dubai","birleşik arap emirlikleri","ae","dubai airport","united arab emirates"],"timezone":"Asia\/Dubai","weight":1335,"coordinates":{"lat":25.248665,"lon":55.352917},"type":"airport","searchable":true},{"name":"Ankara Esenboğa Havalimanı","country_name":"Türkiye","city_code":"ANK","city_name":"Ankara","code":"ESB","country_code":"TR","index_strings":["esb","ankara esenboğa havalimanı","ankara","ank","türkiye","tr","esenboga international airport","turkey"],"timezone":"Europe\/Istanbul","weight":1334,"coordinates":{"lat":40.11494,"lon":32.993145},"type":"airport","searchable":true},{"name":"Phrae","country_name":"Tayland","city_code":"PRH","city_name":"Phrae","code":"PRH","country_code":"TH","index_strings":["prh","phrae","tayland","th","phrae airport","thailand"],"timezone":"Asia\/Bangkok","weight":1324,"coordinates":{"lat":18.15,"lon":100.13333},"type":"airport","searchable":false},{"name":"Mumbai","country_name":"Hindistan","country_code":"IN","code":"BOM","index_strings":["бомбей","bombay","mumbai\/bombay chhatrapati shivaji int'l","bom","mumbai","hindistan","in","india","chhatrapati shivaji international airport"],"timezone":"Asia\/Kolkata","weight":1324,"coordinates":{"lat":19.095509,"lon":72.87497},"type":"city","searchable":true},{"name":"Mumbai\/Bombay Chhatrapati Shivaji Int'l","country_name":"Hindistan","city_code":"BOM","city_name":"Mumbai","code":"BOM","country_code":"IN","index_strings":["bom","mumbai\/bombay chhatrapati shivaji int'l","mumbai","hindistan","in","chhatrapati shivaji international airport","india"],"timezone":"Asia\/Kolkata","weight":1324,"coordinates":{"lat":19.095509,"lon":72.87497},"type":"airport","searchable":false},{"name":"Phrae","country_name":"Tayland","country_code":"TH","code":"PRH","index_strings":["phrae","prh","tayland","th","thailand","phrae airport"],"timezone":"Asia\/Bangkok","weight":1324,"coordinates":{"lat":18.15,"lon":100.13333},"type":"city","searchable":true},{"name":"Nagoya","country_name":"Japonya","country_code":"JP","code":"NGO","index_strings":["ngo","nagoya","japonya","jp","japan"],"timezone":"Asia\/Tokyo","weight":1296,"coordinates":{"lat":34.8867002,"lon":136.8323973},"type":"city","searchable":true},{"name":"Nagoya Chubu Centrair International","country_name":"Japonya","city_code":"NGO","city_name":"Nagoya","code":"NGO","country_code":"JP","index_strings":["ngo","nagoya chubu centrair international","nagoya","japonya","jp","chubu centrair international airport","japan"],"timezone":"Asia\/Tokyo","weight":1294,"coordinates":{"lat":34.858334,"lon":136.80528},"type":"airport","searchable":true},{"name":"Münih","country_name":"Almanya","country_code":"DE","code":"MUC","index_strings":["muc","münih","almanya","de","munich","germany"],"timezone":"Europe\/Berlin","weight":1288,"coordinates":{"lat":48.1391265,"lon":11.5801863},"type":"city","searchable":true},{"name":"Munich Franz Joseph Strauss Int'l","country_name":"Almanya","city_code":"MUC","city_name":"Münih","code":"MUC","country_code":"DE","index_strings":["muc","munich franz joseph strauss int'l","münih","almanya","de","franz josef strauss airport","munich","germany"],"timezone":"Europe\/Berlin","weight":1284,"coordinates":{"lat":48.353004,"lon":11.790143},"type":"airport","searchable":true},{"name":"Katmandu","country_name":"Nepal","country_code":"NP","code":"KTM","index_strings":["kathmandu tribhuvan international","ktm","katmandu","nepal","np","kathmandu","tribhuvan international airport"],"timezone":"Asia\/Kathmandu","weight":1284,"coordinates":{"lat":27.699905,"lon":85.35657},"type":"city","searchable":true},{"name":"Kathmandu Tribhuvan International","country_name":"Nepal","city_code":"KTM","city_name":"Katmandu","code":"KTM","country_code":"NP","index_strings":["ktm","kathmandu tribhuvan international","katmandu","nepal","np","tribhuvan international airport","kathmandu"],"timezone":"Asia\/Kathmandu","weight":1284,"coordinates":{"lat":27.699905,"lon":85.35657},"type":"airport","searchable":false},{"name":"Zürih","country_name":"İsviçre","country_code":"CH","code":"ZRH","index_strings":["zürih havalimanı","zrh","zürih","i̇sviçre","ch","zurich","switzerland","zurich airport"],"timezone":"Europe\/Zurich","weight":1275,"coordinates":{"lat":47.367347,"lon":8.5500025},"type":"city","searchable":true},{"name":"Trabzon","country_name":"Türkiye","city_code":"TZX","city_name":"Trabzon","code":"TZX","country_code":"TR","index_strings":["tzx","trabzon","türkiye","tr","trabzon airport","turkey"],"timezone":"Europe\/Istanbul","weight":1274,"coordinates":{"lat":40.99419,"lon":39.78168},"type":"airport","searchable":false},{"name":"Trabzon","country_name":"Türkiye","country_code":"TR","code":"TZX","index_strings":["trabzon","tzx","türkiye","tr","turkey","trabzon airport"],"timezone":"Europe\/Istanbul","weight":1274,"coordinates":{"lat":40.99419,"lon":39.78168},"type":"city","searchable":true},{"name":"Kunming","country_name":"Çin","country_code":"CN","code":"KMG","index_strings":["kunming changshui international","kmg","kunming","çin","cn","china","kunming changshui international airport"],"timezone":"Asia\/Shanghai","weight":1247,"coordinates":{"lat":25.101944,"lon":102.92917},"type":"city","searchable":true},{"name":"Kunming Changshui International","country_name":"Çin","city_code":"KMG","city_name":"Kunming","code":"KMG","country_code":"CN","index_strings":["kmg","kunming changshui international","kunming","çin","cn","kunming changshui international airport","china"],"timezone":"Asia\/Shanghai","weight":1247,"coordinates":{"lat":25.101944,"lon":102.92917},"type":"airport","searchable":false},{"name":"Chumphon","country_name":"Tayland","country_code":"TH","code":"CJM","index_strings":["chumphon","cjm","tayland","th","thailand","chumphon airport"],"timezone":"Asia\/Bangkok","weight":1230,"coordinates":{"lat":10.709722,"lon":99.36389},"type":"city","searchable":true},{"name":"Chumphon","country_name":"Tayland","city_code":"CJM","city_name":"Chumphon","code":"CJM","country_code":"TH","index_strings":["cjm","chumphon","tayland","th","chumphon airport","thailand"],"timezone":"Asia\/Bangkok","weight":1230,"coordinates":{"lat":10.709722,"lon":99.36389},"type":"airport","searchable":false},{"name":"Viyana","country_name":"Avusturya","country_code":"AT","code":"VIE","index_strings":["viyana uluslararası havalimanı","vie","viyana","avusturya","at","vienna","austria","vienna international airport"],"timezone":"Europe\/Vienna","weight":1197,"coordinates":{"lat":48.2081743,"lon":16.3738189},"type":"city","searchable":true},{"name":"Auckland International","country_name":"Yeni Zelanda","city_code":"AKL","city_name":"Auckland","code":"AKL","country_code":"NZ","index_strings":["akl","auckland international","auckland","yeni zelanda","nz","auckland airport","new zealand"],"timezone":"Pacific\/Auckland","weight":1159,"coordinates":{"lat":-37.004787,"lon":174.78352},"type":"airport","searchable":false},{"name":"Auckland","country_name":"Yeni Zelanda","country_code":"NZ","code":"AKL","index_strings":["auckland international","akl","auckland","yeni zelanda","nz","new zealand","auckland airport"],"timezone":"Pacific\/Auckland","weight":1159,"coordinates":{"lat":-36.8484597,"lon":174.7633315},"type":"city","searchable":true},{"name":"Samsun","country_name":"Türkiye","country_code":"TR","code":"SZF","index_strings":["samsun carsamba","szf","samsun","türkiye","tr","turkey","samsun-carsamba airport"],"timezone":"Europe\/Istanbul","weight":1155,"coordinates":{"lat":41.25738,"lon":36.555058},"type":"city","searchable":true},{"name":"Samsun Carsamba","country_name":"Türkiye","city_code":"SZF","city_name":"Samsun","code":"SZF","country_code":"TR","index_strings":["szf","samsun carsamba","samsun","türkiye","tr","samsun-carsamba airport","turkey"],"timezone":"Europe\/Istanbul","weight":1155,"coordinates":{"lat":41.25738,"lon":36.555058},"type":"airport","searchable":false},{"name":"San Francisco Uluslararası Havalimanı","city_code":"SFO","city_name":"San Francisco","state_code":"CA","coordinates":{"lat":37.615215,"lon":-122.38988},"type":"airport","country_name":"ABD","country_code":"US","code":"SFO","index_strings":["sfo","san francisco uluslararası havalimanı","san francisco","abd","us","san francisco international airport","united states"],"timezone":"America\/Los_Angeles","weight":1152,"searchable":false},{"name":"San Francisco","country_name":"ABD","country_code":"US","code":"SFO","index_strings":["san francisco uluslararası havalimanı","sfo","san francisco","abd","us","united states","san francisco international airport"],"timezone":"America\/Los_Angeles","weight":1152,"coordinates":{"lat":37.7749295,"lon":-122.4194155},"type":"city","searchable":true},{"name":"Chicago","country_name":"ABD","country_code":"US","code":"CHI","index_strings":["chi","chicago","abd","us","united states"],"timezone":"America\/Chicago","weight":1143,"coordinates":{"lat":41.8781136,"lon":-87.6297982},"type":"city","searchable":true},{"name":"Kayseri","country_name":"Türkiye","country_code":"TR","code":"ASR","index_strings":["kayseri erkilet","asr","kayseri","türkiye","tr","turkey","kayseri airport"],"timezone":"Europe\/Istanbul","weight":1135,"coordinates":{"lat":38.7742,"lon":35.490707},"type":"city","searchable":true},{"name":"Kayseri Erkilet","country_name":"Türkiye","city_code":"ASR","city_name":"Kayseri","code":"ASR","country_code":"TR","index_strings":["asr","kayseri erkilet","kayseri","türkiye","tr","kayseri airport","turkey"],"timezone":"Europe\/Istanbul","weight":1135,"coordinates":{"lat":38.7742,"lon":35.490707},"type":"airport","searchable":false},{"name":"Seul","country_name":"Güney Kore","country_code":"KR","code":"SEL","index_strings":["sel","seul","güney kore","kr","seoul","south korea"],"timezone":"Asia\/Seoul","weight":1131,"coordinates":{"lat":37.566535,"lon":126.9779692},"type":"city","searchable":true},{"name":"Kalküta","country_name":"Hindistan","country_code":"IN","code":"CCU","index_strings":["kolkata\/calcutta netaji subhas chandra","ccu","kalküta","hindistan","in","kolkata","india","netaji subhas chandra bose airport"],"timezone":"Asia\/Kolkata","weight":1110,"coordinates":{"lat":22.64531,"lon":88.43931000000001},"type":"city","searchable":true},{"name":"Kolkata\/Calcutta Netaji Subhas Chandra","country_name":"Hindistan","city_code":"CCU","city_name":"Kalküta","code":"CCU","country_code":"IN","index_strings":["ccu","kolkata\/calcutta netaji subhas chandra","kalküta","hindistan","in","netaji subhas chandra bose airport","kolkata","india"],"timezone":"Asia\/Kolkata","weight":1110,"coordinates":{"lat":22.64531,"lon":88.43931000000001},"type":"airport","searchable":false},{"name":"Denpasar","country_name":"Endonezya","country_code":"ID","code":"DPS","index_strings":["бали","bali","denpasar-bali ngurah rai","dps","denpasar","endonezya","id","indonesia","ngurah rai international airport"],"timezone":"Asia\/Makassar","weight":1101,"coordinates":{"lat":-8.74446,"lon":115.16331},"type":"city","searchable":true},{"name":"Denpasar-Bali Ngurah Rai","country_name":"Endonezya","city_code":"DPS","city_name":"Denpasar","code":"DPS","country_code":"ID","index_strings":["dps","denpasar-bali ngurah rai","denpasar","endonezya","id","ngurah rai international airport","indonesia"],"timezone":"Asia\/Makassar","weight":1101,"coordinates":{"lat":-8.74446,"lon":115.16331},"type":"airport","searchable":false},{"name":"Zürih Havalimanı","country_name":"İsviçre","city_code":"ZRH","city_name":"Zürih","code":"ZRH","country_code":"CH","index_strings":["zrh","zürih havalimanı","zürih","i̇sviçre","ch","zurich airport","zurich","switzerland"],"timezone":"Europe\/Zurich","weight":1100,"coordinates":{"lat":47.450603,"lon":8.561745999999999},"type":"airport","searchable":false},{"name":"Ranong","country_name":"Tayland","city_code":"UNN","city_name":"Ranong","code":"UNN","country_code":"TH","index_strings":["unn","ranong","tayland","th","ranong airport","thailand"],"timezone":"Asia\/Bangkok","weight":1096,"coordinates":{"lat":9.852778000000001,"lon":98.629166},"type":"airport","searchable":false},{"name":"Ranong","country_name":"Tayland","country_code":"TH","code":"UNN","index_strings":["ranong","unn","tayland","th","thailand","ranong airport"],"timezone":"Asia\/Bangkok","weight":1096,"coordinates":{"lat":9.852778000000001,"lon":98.629166},"type":"city","searchable":true},{"name":"Tokyo Narita International","country_name":"Japonya","city_code":"TYO","city_name":"Tokyo","code":"NRT","country_code":"JP","index_strings":["nrt","tokyo narita international","tokyo","tyo","japonya","jp","narita international airport","japan"],"timezone":"Asia\/Tokyo","weight":1087,"coordinates":{"lat":35.773212,"lon":140.38744},"type":"airport","searchable":true},{"name":"Seoul Incheon International","country_name":"Güney Kore","city_code":"SEL","city_name":"Seul","code":"ICN","country_code":"KR","index_strings":["icn","seoul incheon international","seul","sel","güney kore","kr","incheon international airport","seoul","south korea"],"timezone":"Asia\/Seoul","weight":1078,"coordinates":{"lat":37.448524,"lon":126.45123},"type":"airport","searchable":true},{"name":"Shenzhen","country_name":"Çin","country_code":"CN","code":"SZX","index_strings":["szx","shenzhen","çin","cn","china"],"timezone":"Asia\/Shanghai","weight":1050,"coordinates":{"lat":22.543099,"lon":114.057868},"type":"city","searchable":true},{"name":"Shenzhen Bao'an International","country_name":"Çin","city_code":"SZX","city_name":"Shenzhen","code":"SZX","country_code":"CN","index_strings":["szx","shenzhen bao'an international","shenzhen","çin","cn","shenzhen bao'an international airport","china"],"timezone":"Asia\/Shanghai","weight":1049,"coordinates":{"lat":22.639444,"lon":113.81084},"type":"airport","searchable":true},{"name":"Miami","country_name":"ABD","country_code":"US","code":"MIA","index_strings":["mia","miami","abd","us","united states"],"timezone":"America\/New_York","weight":1031,"coordinates":{"lat":25.7889689,"lon":-80.2264393},"type":"city","searchable":true},{"name":"Madrit","country_name":"İspanya","country_code":"ES","code":"MAD","index_strings":["mad","madrit","i̇spanya","es","madrid","spain"],"timezone":"Europe\/Madrid","weight":1027,"coordinates":{"lat":40.4166909,"lon":-3.7003454},"type":"city","searchable":true},{"name":"Busan Gimhae International","country_name":"Güney Kore","city_code":"PUS","city_name":"Busan","code":"PUS","country_code":"KR","index_strings":["pus","busan gimhae international","busan","güney kore","kr","gimhae international airport","south korea"],"timezone":"Asia\/Seoul","weight":1008,"coordinates":{"lat":35.179317,"lon":128.94873},"type":"airport","searchable":false},{"name":"Busan","country_name":"Güney Kore","country_code":"KR","code":"PUS","index_strings":["busan gimhae international","pus","busan","güney kore","kr","south korea","gimhae international airport"],"timezone":"Asia\/Seoul","weight":1008,"coordinates":{"lat":35.179317,"lon":128.94873},"type":"city","searchable":true},{"name":"Pai District","country_name":"Tayland","country_code":"TH","code":"PYY","index_strings":["pai","pyy","pai district","tayland","th","thailand","pai airport"],"timezone":"Asia\/Bangkok","weight":1008,"coordinates":{"lat":19.371666,"lon":98.43667000000001},"type":"city","searchable":true},{"name":"Pai","country_name":"Tayland","city_code":"PYY","city_name":"Pai District","code":"PYY","country_code":"TH","index_strings":["pyy","pai","pai district","tayland","th","pai airport","thailand"],"timezone":"Asia\/Bangkok","weight":1008,"coordinates":{"lat":19.371666,"lon":98.43667000000001},"type":"airport","searchable":false},{"name":"Loei","country_name":"Tayland","country_code":"TH","code":"LOE","index_strings":["loei","loe","tayland","th","thailand","loei airport"],"timezone":"Asia\/Bangkok","weight":1005,"coordinates":{"lat":17.45,"lon":101.73333},"type":"city","searchable":true},{"name":"Loei","country_name":"Tayland","city_code":"LOE","city_name":"Loei","code":"LOE","country_code":"TH","index_strings":["loe","loei","tayland","th","loei airport","thailand"],"timezone":"Asia\/Bangkok","weight":1004,"coordinates":{"lat":17.45,"lon":101.73333},"type":"airport","searchable":false},{"name":"Berlin","country_name":"Almanya","country_code":"DE","code":"BER","index_strings":["ber","berlin","almanya","de","germany"],"timezone":"Europe\/Berlin","weight":938,"coordinates":{"lat":52.5234051,"lon":13.4113999},"type":"city","searchable":true},{"name":"Narathiwat","country_name":"Tayland","city_code":"NAW","city_name":"Narathiwat","code":"NAW","country_code":"TH","index_strings":["naw","narathiwat","tayland","th","narathiwat airport","thailand"],"timezone":"Asia\/Bangkok","weight":921,"coordinates":{"lat":6.516667,"lon":101.75},"type":"airport","searchable":false},{"name":"Narathiwat","country_name":"Tayland","country_code":"TH","code":"NAW","index_strings":["narathiwat","naw","tayland","th","thailand","narathiwat airport"],"timezone":"Asia\/Bangkok","weight":921,"coordinates":{"lat":6.516667,"lon":101.75},"type":"city","searchable":true},{"name":"Prag","country_name":"Çek Cumhuriyeti","country_code":"CZ","code":"PRG","index_strings":["prg","prag","çek cumhuriyeti","cz","prague","czech republic"],"timezone":"Europe\/Prague","weight":920,"coordinates":{"lat":50.0878114,"lon":14.4204598},"type":"city","searchable":true},{"name":"Prague Ruzyne","country_name":"Çek Cumhuriyeti","city_code":"PRG","city_name":"Prag","code":"PRG","country_code":"CZ","index_strings":["prg","prague ruzyne","prag","çek cumhuriyeti","cz","vaclav havel airport prague","prague","czech republic"],"timezone":"Europe\/Prague","weight":917,"coordinates":{"lat":50.10619,"lon":14.266638},"type":"airport","searchable":true},{"name":"Mandalay","country_name":"Myanmar (Burma)","country_code":"MM","code":"MDL","index_strings":["mandalay international","mdl","mandalay","myanmar (burma)","mm","myanmar","mandalay international airport"],"timezone":"Asia\/Rangoon","weight":914,"coordinates":{"lat":21.940052,"lon":96.08750000000001},"type":"city","searchable":true},{"name":"Mandalay International","country_name":"Myanmar (Burma)","city_code":"MDL","city_name":"Mandalay","code":"MDL","country_code":"MM","index_strings":["mdl","mandalay international","mandalay","myanmar (burma)","mm","mandalay international airport","myanmar"],"timezone":"Asia\/Rangoon","weight":914,"coordinates":{"lat":21.940052,"lon":96.08750000000001},"type":"airport","searchable":false},{"name":"Viyana Uluslararası Havalimanı","country_name":"Avusturya","city_code":"VIE","city_name":"Viyana","code":"VIE","country_code":"AT","index_strings":["vie","viyana uluslararası havalimanı","viyana","avusturya","at","vienna international airport","vienna","austria"],"timezone":"Europe\/Vienna","weight":910,"coordinates":{"lat":48.11972,"lon":16.563583},"type":"airport","searchable":false},{"name":"Tiflis","country_name":"Gürcistan","country_code":"GE","code":"TBS","index_strings":["tiflis uluslararası havalimanı","tbs","tiflis","gürcistan","ge","tbilisi","georgia","tbilisi international airport"],"timezone":"Asia\/Tbilisi","weight":881,"coordinates":{"lat":41.674065,"lon":44.958958},"type":"city","searchable":true},{"name":"Tiflis Uluslararası Havalimanı","country_name":"Gürcistan","city_code":"TBS","city_name":"Tiflis","code":"TBS","country_code":"GE","index_strings":["tbs","tiflis uluslararası havalimanı","tiflis","gürcistan","ge","tbilisi international airport","tbilisi","georgia"],"timezone":"Asia\/Tbilisi","weight":881,"coordinates":{"lat":41.674065,"lon":44.958958},"type":"airport","searchable":false},{"name":"Vancouver","country_name":"Kanada","country_code":"CA","code":"YVR","index_strings":["yvr","vancouver","kanada","ca","canada"],"timezone":"America\/Vancouver","weight":870,"coordinates":{"lat":49.261226,"lon":-123.1139268},"type":"city","searchable":true},{"name":"Newark","country_name":"ABD","country_code":"US","code":"NYC","index_strings":["nyc","newark","abd","us","new york","united states"],"timezone":"America\/New_York","weight":868,"coordinates":{"lat":40.7143528,"lon":-74.00597310000001},"type":"city","searchable":true},{"name":"Vancouver International","city_code":"YVR","city_name":"Vancouver","state_code":"BC","coordinates":{"lat":49.1947,"lon":-123.17919},"type":"airport","country_name":"Kanada","country_code":"CA","code":"YVR","index_strings":["yvr","vancouver international","vancouver","kanada","ca","vancouver international airport","canada"],"timezone":"America\/Vancouver","weight":868,"searchable":true},{"name":"Gaziantep","country_name":"Türkiye","country_code":"TR","code":"GZT","index_strings":["gaziantep oguzeli","gzt","gaziantep","türkiye","tr","turkey","gaziantep airport"],"timezone":"Europe\/Istanbul","weight":836,"coordinates":{"lat":36.944935,"lon":37.473747},"type":"city","searchable":true},{"name":"Gaziantep Oguzeli","country_name":"Türkiye","city_code":"GZT","city_name":"Gaziantep","code":"GZT","country_code":"TR","index_strings":["gzt","gaziantep oguzeli","gaziantep","türkiye","tr","gaziantep airport","turkey"],"timezone":"Europe\/Istanbul","weight":836,"coordinates":{"lat":36.944935,"lon":37.473747},"type":"airport","searchable":false},{"name":"Barselona","country_name":"İspanya","country_code":"ES","code":"BCN","index_strings":["bcn","barselona","i̇spanya","es","barcelona","spain"],"timezone":"Europe\/Madrid","weight":819,"coordinates":{"lat":41.387917,"lon":2.1699187},"type":"city","searchable":true},{"name":"Barcelona Uluslararası Havalimanı","country_name":"İspanya","city_code":"BCN","city_name":"Barselona","code":"BCN","country_code":"ES","index_strings":["bcn","barcelona uluslararası havalimanı","barselona","i̇spanya","es","barcelona-el prat airport","barcelona","spain"],"timezone":"Europe\/Madrid","weight":818,"coordinates":{"lat":41.30303,"lon":2.07593},"type":"airport","searchable":true},{"name":"Sukhothai","country_name":"Tayland","country_code":"TH","code":"THS","index_strings":["sawankolok","саванколок","sukhothai","ths","tayland","th","thailand","sukhothai airport"],"timezone":"Asia\/Bangkok","weight":799,"coordinates":{"lat":17.223057,"lon":99.82222},"type":"city","searchable":true},{"name":"Sukhothai","country_name":"Tayland","city_code":"THS","city_name":"Sukhothai","code":"THS","country_code":"TH","index_strings":["ths","sukhothai","tayland","th","sukhothai airport","thailand"],"timezone":"Asia\/Bangkok","weight":799,"coordinates":{"lat":17.223057,"lon":99.82222},"type":"airport","searchable":false},{"name":"Las Vegas","country_name":"ABD","country_code":"US","code":"LAS","index_strings":["las","las vegas","abd","us","united states"],"timezone":"America\/Los_Angeles","weight":789,"coordinates":{"lat":36.114646,"lon":-115.172816},"type":"city","searchable":true},{"name":"Las Vegas McCarran International","city_code":"LAS","city_name":"Las Vegas","state_code":"NV","coordinates":{"lat":36.086945,"lon":-115.1486},"type":"airport","country_name":"ABD","country_code":"US","code":"LAS","index_strings":["las","las vegas mccarran international","las vegas","abd","us","mccarran international airport","united states"],"timezone":"America\/Los_Angeles","weight":788,"searchable":true},{"name":"Phnom Penh","country_name":"Kamboçya","country_code":"KH","code":"PNH","index_strings":["phnom penh international","pnh","phnom penh","kamboçya","kh","cambodia","phnom penh international airport"],"timezone":"Asia\/Phnom_Penh","weight":783,"coordinates":{"lat":11.546111,"lon":104.84778},"type":"city","searchable":true},{"name":"Phnom Penh International","country_name":"Kamboçya","city_code":"PNH","city_name":"Phnom Penh","code":"PNH","country_code":"KH","index_strings":["pnh","phnom penh international","phnom penh","kamboçya","kh","phnom penh international airport","cambodia"],"timezone":"Asia\/Phnom_Penh","weight":783,"coordinates":{"lat":11.546111,"lon":104.84778},"type":"airport","searchable":false},{"name":"Malé","country_name":"Maldivler","country_code":"MV","code":"MLE","index_strings":["male ibrahim nasir international","mle","malé","maldivler","mv","male","maldives","male international airport"],"timezone":"Indian\/Maldives","weight":781,"coordinates":{"lat":4.201389,"lon":73.524445},"type":"city","searchable":true},{"name":"Male Ibrahim Nasir International","country_name":"Maldivler","city_code":"MLE","city_name":"Malé","code":"MLE","country_code":"MV","index_strings":["mle","male ibrahim nasir international","malé","maldivler","mv","male international airport","male","maldives"],"timezone":"Indian\/Maldives","weight":781,"coordinates":{"lat":4.201389,"lon":73.524445},"type":"airport","searchable":false},{"name":"Richmond","country_name":"ABD","country_code":"US","code":"RIC","index_strings":["richmond international (byrd field)","ric","richmond","abd","us","united states","richmond international airport (byrd field)"],"timezone":"America\/New_York","weight":775,"coordinates":{"lat":37.542979,"lon":-77.469092},"type":"city","searchable":true},{"name":"Richmond International (Byrd Field)","city_code":"RIC","city_name":"Richmond","state_code":"VA","coordinates":{"lat":37.50611,"lon":-77.32250000000001},"type":"airport","country_name":"ABD","country_code":"US","code":"RIC","index_strings":["ric","richmond international (byrd field)","richmond","abd","us","richmond international airport (byrd field)","united states"],"timezone":"America\/New_York","weight":775,"searchable":false},{"name":"Kiev","country_name":"İspanya","country_code":"UA","code":"IEV","index_strings":["iev","kiev","i̇spanya","ua","ukraine"],"timezone":"Europe\/Kiev","weight":754,"coordinates":{"lat":50.45,"lon":30.5},"type":"city","searchable":true},{"name":"Tel Aviv","country_name":"İsrail","country_code":"IL","code":"TLV","index_strings":["tlv","tel aviv","i̇srail","il","tel aviv-yafo","israel"],"timezone":"Asia\/Jerusalem","weight":748,"coordinates":{"lat":32.000454,"lon":34.870743},"type":"city","searchable":true},{"name":"Nanning","country_name":"Çin","country_code":"CN","code":"NNG","index_strings":["nanning wuxu international","nng","nanning","çin","cn","china","nanning airport"],"timezone":"Asia\/Shanghai","weight":743,"coordinates":{"lat":22.61321,"lon":108.1675},"type":"city","searchable":true},{"name":"Kopenhag","country_name":"Danimarka","country_code":"DK","code":"CPH","index_strings":["copenhagen kastrup","cph","kopenhag","danimarka","dk","copenhagen","denmark","copenhagen airport"],"timezone":"Europe\/Copenhagen","weight":743,"coordinates":{"lat":55.693403,"lon":12.583046},"type":"city","searchable":true},{"name":"Nanning Wuxu International","country_name":"Çin","city_code":"NNG","city_name":"Nanning","code":"NNG","country_code":"CN","index_strings":["nng","nanning wuxu international","nanning","çin","cn","nanning airport","china"],"timezone":"Asia\/Shanghai","weight":743,"coordinates":{"lat":22.61321,"lon":108.1675},"type":"airport","searchable":false},{"name":"Copenhagen Kastrup","country_name":"Danimarka","city_code":"CPH","city_name":"Kopenhag","code":"CPH","country_code":"DK","index_strings":["cph","copenhagen kastrup","kopenhag","danimarka","dk","copenhagen airport","copenhagen","denmark"],"timezone":"Europe\/Copenhagen","weight":741,"coordinates":{"lat":55.62905,"lon":12.647601},"type":"airport","searchable":false},{"name":"Tel Aviv-Yafo Ben Gurion International","country_name":"İsrail","city_code":"TLV","city_name":"Tel Aviv","code":"TLV","country_code":"IL","index_strings":["tlv","tel aviv-yafo ben gurion international","tel aviv","i̇srail","il","ben gurion international airport","tel aviv-yafo","israel"],"timezone":"Asia\/Jerusalem","weight":740,"coordinates":{"lat":32.000454,"lon":34.870743},"type":"airport","searchable":true},{"name":"Boston","country_name":"ABD","country_code":"US","code":"BOS","index_strings":["bos","boston","abd","us","united states"],"timezone":"America\/New_York","weight":727,"coordinates":{"lat":42.3584308,"lon":-71.0597732},"type":"city","searchable":true},{"name":"Boston Logan International","city_code":"BOS","city_name":"Boston","state_code":"MA","coordinates":{"lat":42.36646,"lon":-71.02018},"type":"airport","country_name":"ABD","country_code":"US","code":"BOS","index_strings":["bos","boston logan international","boston","abd","us","logan international airport","united states"],"timezone":"America\/New_York","weight":726,"searchable":true},{"name":"Londra","country_name":"Birleşik Krallık","country_code":"GB","code":"LON","index_strings":["lon","londra","birleşik krallık","gb","london","united kingdom"],"timezone":"Europe\/London","weight":716,"coordinates":{"lat":51.51,"lon":0.06},"type":"city","searchable":true},{"name":"Chennai","country_name":"Hindistan","country_code":"IN","code":"MAA","index_strings":["chennai international","maa","chennai","hindistan","in","india","chennai airport"],"timezone":"Asia\/Kolkata","weight":701,"coordinates":{"lat":12.982267,"lon":80.16378},"type":"city","searchable":true},{"name":"Chennai International","country_name":"Hindistan","city_code":"MAA","city_name":"Chennai","code":"MAA","country_code":"IN","index_strings":["maa","chennai international","chennai","hindistan","in","chennai airport","india"],"timezone":"Asia\/Kolkata","weight":701,"coordinates":{"lat":12.982267,"lon":80.16378},"type":"airport","searchable":false},{"name":"Bengaluru Kempegowda International","country_name":"Hindistan","city_code":"BLR","city_name":"Bangalore","code":"BLR","country_code":"IN","index_strings":["blr","bengaluru kempegowda international","bangalore","hindistan","in","kempegowda international airport","bengaluru","india"],"timezone":"Asia\/Kolkata","weight":678,"coordinates":{"lat":13.198889,"lon":77.70556000000001},"type":"airport","searchable":false},{"name":"Bangalore","country_name":"Hindistan","country_code":"IN","code":"BLR","index_strings":["bengaluru kempegowda international","blr","bangalore","hindistan","in","bengaluru","india","kempegowda international airport"],"timezone":"Asia\/Kolkata","weight":678,"coordinates":{"lat":13.198889,"lon":77.70556000000001},"type":"city","searchable":true},{"name":"Jeju International","country_name":"Güney Kore","city_code":"CJU","city_name":"Jeju-si","code":"CJU","country_code":"KR","index_strings":["cju","jeju international","jeju-si","güney kore","kr","jeju international airport","jeju","south korea"],"timezone":"Asia\/Seoul","weight":651,"coordinates":{"lat":33.5067,"lon":126.49312},"type":"airport","searchable":false},{"name":"Jeju-si","country_name":"Güney Kore","country_code":"KR","code":"CJU","index_strings":["jeju international","cju","jeju-si","güney kore","kr","jeju","south korea","jeju international airport"],"timezone":"Asia\/Seoul","weight":651,"coordinates":{"lat":33.4996213,"lon":126.5311884},"type":"city","searchable":true},{"name":"Madrid Adolfo Suarez-Barajas","country_name":"İspanya","city_code":"MAD","city_name":"Madrit","code":"MAD","country_code":"ES","index_strings":["mad","madrid adolfo suarez-barajas","madrit","i̇spanya","es","adolfo suarez madrid-barajas airport","madrid","spain"],"timezone":"Europe\/Madrid","weight":651,"coordinates":{"lat":40.46515,"lon":-3.570209},"type":"airport","searchable":true},{"name":"Brüksel","country_name":"Belçika","country_code":"BE","code":"BRU","index_strings":["bru","brüksel","belçika","be","brussels","belgium"],"timezone":"Europe\/Brussels","weight":650,"coordinates":{"lat":50.8503396,"lon":4.3517103},"type":"city","searchable":true},{"name":"Manchester","country_name":"Birleşik Krallık","city_code":"MAN","city_name":"Manchester","code":"MAN","country_code":"GB","index_strings":["man","manchester","birleşik krallık","gb","manchester airport","united kingdom"],"timezone":"Europe\/London","weight":643,"coordinates":{"lat":53.362907,"lon":-2.273354},"type":"airport","searchable":true},{"name":"Manchester","country_name":"Birleşik Krallık","country_code":"GB","code":"MAN","index_strings":["man","manchester","birleşik krallık","gb","united kingdom"],"timezone":"Europe\/London","weight":643,"coordinates":{"lat":53.4807125,"lon":-2.2343765},"type":"city","searchable":true},{"name":"Venedik","country_name":"İtalya","country_code":"IT","code":"VCE","index_strings":["vce","venedik","i̇talya","it","venice","italy"],"timezone":"Europe\/Rome","weight":640,"coordinates":{"lat":45.4343363,"lon":12.3387844},"type":"city","searchable":true},{"name":"Kolombo","country_name":"Sri Lanka","country_code":"LK","code":"CMB","index_strings":["colombo bandaranaike international","cmb","kolombo","sri lanka","lk","colombo","bandaranaike international airport"],"timezone":"Asia\/Colombo","weight":634,"coordinates":{"lat":6.927468,"lon":79.848358},"type":"city","searchable":true},{"name":"Brussels","country_name":"Belçika","city_code":"BRU","city_name":"Brüksel","code":"BRU","country_code":"BE","index_strings":["bru","brussels","brüksel","belçika","be","brussels airport","belgium"],"timezone":"Europe\/Brussels","weight":634,"coordinates":{"lat":50.89717,"lon":4.483602},"type":"airport","searchable":true},{"name":"Cairo International","country_name":"Mısır","city_code":"CAI","city_name":"Kahire","code":"CAI","country_code":"EG","index_strings":["cai","cairo international","kahire","mısır","eg","cairo international airport","cairo","egypt"],"timezone":"Africa\/Cairo","weight":633,"coordinates":{"lat":30.120106,"lon":31.40647},"type":"airport","searchable":false},{"name":"Kahire","country_name":"Mısır","country_code":"EG","code":"CAI","index_strings":["cairo international","cai","kahire","mısır","eg","cairo","egypt","cairo international airport"],"timezone":"Africa\/Cairo","weight":633,"coordinates":{"lat":30.120106,"lon":31.40647},"type":"city","searchable":true},{"name":"Colombo Bandaranaike International","country_name":"Sri Lanka","city_code":"CMB","city_name":"Kolombo","code":"CMB","country_code":"LK","index_strings":["cmb","colombo bandaranaike international","kolombo","sri lanka","lk","bandaranaike international airport","colombo"],"timezone":"Asia\/Colombo","weight":633,"coordinates":{"lat":7.174112,"lon":79.8865},"type":"airport","searchable":false},{"name":"Konya","country_name":"Türkiye","city_code":"KYA","city_name":"Konya","code":"KYA","country_code":"TR","index_strings":["kya","konya","türkiye","tr","konya airport","turkey"],"timezone":"Europe\/Istanbul","weight":617,"coordinates":{"lat":37.979168,"lon":32.56222},"type":"airport","searchable":false},{"name":"Konya","country_name":"Türkiye","country_code":"TR","code":"KYA","index_strings":["konya","kya","türkiye","tr","turkey","konya airport"],"timezone":"Europe\/Istanbul","weight":617,"coordinates":{"lat":37.979168,"lon":32.56222},"type":"city","searchable":true},{"name":"Miami International","city_code":"MIA","city_name":"Miami","state_code":"FL","coordinates":{"lat":25.796,"lon":-80.27824},"type":"airport","country_name":"ABD","country_code":"US","code":"MIA","index_strings":["mia","miami international","miami","abd","us","miami international airport","united states"],"timezone":"America\/New_York","weight":609,"searchable":true},{"name":"Oslo","country_name":"Norveç","country_code":"NO","code":"OSL","index_strings":["osl","oslo","norveç","no","norway"],"timezone":"Europe\/Oslo","weight":609,"coordinates":{"lat":59.9138688,"lon":10.7522454},"type":"city","searchable":true},{"name":"Denizli Cardak","country_name":"Türkiye","city_code":"DNZ","city_name":"Denizli","code":"DNZ","country_code":"TR","index_strings":["dnz","denizli cardak","denizli","türkiye","tr","cardak airport","turkey"],"timezone":"Europe\/Istanbul","weight":597,"coordinates":{"lat":37.787224,"lon":29.703333},"type":"airport","searchable":false},{"name":"Denizli","country_name":"Türkiye","country_code":"TR","code":"DNZ","index_strings":["denizli cardak","dnz","denizli","türkiye","tr","turkey","cardak airport"],"timezone":"Europe\/Istanbul","weight":597,"coordinates":{"lat":37.787224,"lon":29.703333},"type":"city","searchable":true},{"name":"Orlando","country_name":"ABD","country_code":"US","code":"ORL","index_strings":["orl","orlando","abd","us","united states"],"timezone":"America\/New_York","weight":592,"coordinates":{"lat":28.533611,"lon":-81.386667},"type":"city","searchable":true},{"name":"Oslo Gardermoen","country_name":"Norveç","city_code":"OSL","city_name":"Oslo","code":"OSL","country_code":"NO","index_strings":["osl","oslo gardermoen","oslo","norveç","no","oslo airport gardermoen","norway"],"timezone":"Europe\/Oslo","weight":589,"coordinates":{"lat":60.19419,"lon":11.100411},"type":"airport","searchable":true},{"name":"New York John F Kennedy International","city_code":"NYC","city_name":"Newark","state_code":"NY","coordinates":{"lat":40.642334,"lon":-73.78816999999999},"type":"airport","country_name":"ABD","country_code":"US","code":"JFK","index_strings":["jfk","new york john f kennedy international","newark","nyc","abd","us","john f. kennedy international airport","new york","united states"],"timezone":"America\/New_York","weight":585,"searchable":true},{"name":"Kütahya","country_name":"Türkiye","country_code":"TR","code":"KZR","index_strings":["kutahya zafer","kzr","kütahya","türkiye","tr","kutahya","turkey","zafer airport"],"timezone":"Europe\/Istanbul","weight":577,"coordinates":{"lat":39.120277,"lon":30.116945},"type":"city","searchable":true},{"name":"Kutahya Zafer","country_name":"Türkiye","city_code":"KZR","city_name":"Kütahya","code":"KZR","country_code":"TR","index_strings":["kzr","kutahya zafer","kütahya","türkiye","tr","zafer airport","kutahya","turkey"],"timezone":"Europe\/Istanbul","weight":577,"coordinates":{"lat":39.120277,"lon":30.116945},"type":"airport","searchable":false},{"name":"Lahore Allama Iqbal International","country_name":"Pakistan","city_code":"LHE","city_name":"Lahor","code":"LHE","country_code":"PK","index_strings":["lhe","lahore allama iqbal international","lahor","pakistan","pk","allama iqbal international airport","lahore"],"timezone":"Asia\/Karachi","weight":569,"coordinates":{"lat":31.520832,"lon":74.40278000000001},"type":"airport","searchable":false},{"name":"Lahor","country_name":"Pakistan","country_code":"PK","code":"LHE","index_strings":["lahore allama iqbal international","lhe","lahor","pakistan","pk","lahore","allama iqbal international airport"],"timezone":"Asia\/Karachi","weight":569,"coordinates":{"lat":31.520832,"lon":74.40278000000001},"type":"city","searchable":true},{"name":"St Petersburg Pulkovo","country_name":"Rusya","city_code":"LED","city_name":"Saint Petersburg","code":"LED","country_code":"RU","index_strings":["led","st petersburg pulkovo","saint petersburg","rusya","ru","pulkovo airport","russia"],"timezone":"Europe\/Moscow","weight":568,"coordinates":{"lat":59.806084,"lon":30.3083},"type":"airport","searchable":false},{"name":"Saint Petersburg","country_name":"Rusya","country_code":"RU","code":"LED","index_strings":["sankt petersburg","st petersburg","leningrad","ленинград","питер","спб","st petersburg pulkovo","led","saint petersburg","rusya","ru","russia","pulkovo airport"],"timezone":"Europe\/Moscow","weight":568,"coordinates":{"lat":59.939039,"lon":30.315785},"type":"city","searchable":true},{"name":"Islamabad Benazir Bhutto International","country_name":"Pakistan","city_code":"ISB","city_name":"İslamabat","code":"ISB","country_code":"PK","index_strings":["isb","islamabad benazir bhutto international","i̇slamabat","pakistan","pk","benazir bhutto international airport","islamabad"],"timezone":"Asia\/Karachi","weight":568,"coordinates":{"lat":33.609707,"lon":73.10509999999999},"type":"airport","searchable":false},{"name":"İslamabat","country_name":"Pakistan","country_code":"PK","code":"ISB","index_strings":["islamabad benazir bhutto international","isb","i̇slamabat","pakistan","pk","islamabad","benazir bhutto international airport"],"timezone":"Asia\/Karachi","weight":568,"coordinates":{"lat":33.609707,"lon":73.10509999999999},"type":"city","searchable":true},{"name":"Tahran","country_name":"İran","country_code":"IR","code":"THR","index_strings":["thr","tahran","i̇ran","ir","tehran","iran"],"timezone":"Asia\/Tehran","weight":566,"coordinates":{"lat":35.6961111,"lon":51.4230556},"type":"city","searchable":true},{"name":"Seattle","country_name":"ABD","country_code":"US","code":"SEA","index_strings":["tacoma","такома","塔科马","sea","seattle","abd","us","united states"],"timezone":"America\/Los_Angeles","weight":566,"coordinates":{"lat":47.6062095,"lon":-122.3320708},"type":"city","searchable":true},{"name":"Perth","country_name":"Avustralya","country_code":"AU","code":"PER","index_strings":["perth international","per","perth","avustralya","au","australia","perth airport"],"timezone":"Australia\/Perth","weight":563,"coordinates":{"lat":-31.9522222,"lon":115.8588889},"type":"city","searchable":true},{"name":"Perth International","city_code":"PER","city_name":"Perth","state_code":"WA","coordinates":{"lat":-31.933603,"lon":115.960236},"type":"airport","country_name":"Avustralya","country_code":"AU","code":"PER","index_strings":["per","perth international","perth","avustralya","au","perth airport","australia"],"timezone":"Australia\/Perth","weight":561,"searchable":false},{"name":"Seattle\/Tacoma Sea\/Tac","city_code":"SEA","city_name":"Seattle","state_code":"WA","coordinates":{"lat":47.44384,"lon":-122.301735},"type":"airport","country_name":"ABD","country_code":"US","code":"SEA","index_strings":["sea","seattle\/tacoma sea\/tac","seattle","abd","us","seattle-tacoma international airport","united states"],"timezone":"America\/Los_Angeles","weight":560,"searchable":true},{"name":"Helsinki","country_name":"Finlandiya","country_code":"FI","code":"HEL","index_strings":["helsinki","хельсинки","helsinki-vantaa havalimanı","hel","finlandiya","fi","finland","helsinki-vantaa airport"],"timezone":"Europe\/Helsinki","weight":545,"coordinates":{"lat":60.2943605,"lon":25.0402427},"type":"city","searchable":true},{"name":"Toronto","country_name":"Kanada","country_code":"CA","code":"YTO","index_strings":["yto","toronto","kanada","ca","canada"],"timezone":"America\/Toronto","weight":535,"coordinates":{"lat":43.653524,"lon":-79.3839069},"type":"city","searchable":true},{"name":"Yerevan Zvartnots International","country_name":"Ermenistan","city_code":"EVN","city_name":"Erivan","code":"EVN","country_code":"AM","index_strings":["evn","yerevan zvartnots international","erivan","ermenistan","am","zvartnots international airport","yerevan","armenia"],"timezone":"Asia\/Yerevan","weight":533,"coordinates":{"lat":40.15272,"lon":44.39805},"type":"airport","searchable":true},{"name":"Erivan","country_name":"Ermenistan","country_code":"AM","code":"EVN","index_strings":["evn","erivan","ermenistan","am","yerevan","armenia"],"timezone":"Asia\/Yerevan","weight":533,"coordinates":{"lat":40.15272,"lon":44.39805},"type":"city","searchable":true},{"name":"Chengdu Shuangliu International","country_name":"Çin","city_code":"CTU","city_name":"Çengdu","code":"CTU","country_code":"CN","index_strings":["ctu","chengdu shuangliu international","çengdu","çin","cn","chengdu shuangliu international airport","chengdu","china"],"timezone":"Asia\/Shanghai","weight":529,"coordinates":{"lat":30.581135,"lon":103.9568},"type":"airport","searchable":false},{"name":"Çengdu","country_name":"Çin","country_code":"CN","code":"CTU","index_strings":["chengdu shuangliu international","ctu","çengdu","çin","cn","chengdu","china","chengdu shuangliu international airport"],"timezone":"Asia\/Shanghai","weight":529,"coordinates":{"lat":30.581135,"lon":103.9568},"type":"city","searchable":true},{"name":"Christchurch","country_name":"Yeni Zelanda","country_code":"NZ","code":"CHC","index_strings":["christchurch international","chc","christchurch","yeni zelanda","nz","new zealand","christchurch international airport"],"timezone":"Pacific\/Auckland","weight":528,"coordinates":{"lat":-43.488655,"lon":172.5389},"type":"city","searchable":true},{"name":"Christchurch International","country_name":"Yeni Zelanda","city_code":"CHC","city_name":"Christchurch","code":"CHC","country_code":"NZ","index_strings":["chc","christchurch international","christchurch","yeni zelanda","nz","christchurch international airport","new zealand"],"timezone":"Pacific\/Auckland","weight":528,"coordinates":{"lat":-43.488655,"lon":172.5389},"type":"airport","searchable":false},{"name":"Da Nang Uluslararası Havaalanı","country_name":"Vietnam","city_code":"DAD","city_name":"Da Nang","code":"DAD","country_code":"VN","index_strings":["dad","da nang uluslararası havaalanı","da nang","vietnam","vn","da nang international airport"],"timezone":"Asia\/Ho_Chi_Minh","weight":513,"coordinates":{"lat":16.055399,"lon":108.20298},"type":"airport","searchable":false},{"name":"Da Nang","country_name":"Vietnam","country_code":"VN","code":"DAD","index_strings":["da nang uluslararası havaalanı","dad","da nang","vietnam","vn","da nang international airport"],"timezone":"Asia\/Ho_Chi_Minh","weight":513,"coordinates":{"lat":16.055399,"lon":108.20298},"type":"city","searchable":true},{"name":"Surabaya Juanda","country_name":"Endonezya","city_code":"SUB","city_name":"Surabaya","code":"SUB","country_code":"ID","index_strings":["sub","surabaya juanda","surabaya","endonezya","id","juanda international airport","indonesia"],"timezone":"Asia\/Jakarta","weight":502,"coordinates":{"lat":-7.38387,"lon":112.77724},"type":"airport","searchable":false},{"name":"Surabaya","country_name":"Endonezya","country_code":"ID","code":"SUB","index_strings":["surabaya juanda","sub","surabaya","endonezya","id","indonesia","juanda international airport"],"timezone":"Asia\/Jakarta","weight":502,"coordinates":{"lat":-7.38387,"lon":112.77724},"type":"city","searchable":true},{"name":"Siem Reap Angkor International","country_name":"Kamboçya","city_code":"REP","city_name":"Siem Reap","code":"REP","country_code":"KH","index_strings":["rep","siem reap angkor international","siem reap","kamboçya","kh","siem reap international airport","cambodia"],"timezone":"Asia\/Phnom_Penh","weight":502,"coordinates":{"lat":13.408436,"lon":103.815926},"type":"airport","searchable":false},{"name":"Siem Reap","country_name":"Kamboçya","country_code":"KH","code":"REP","index_strings":["siem reap angkor international","rep","siem reap","kamboçya","kh","cambodia","siem reap international airport"],"timezone":"Asia\/Phnom_Penh","weight":502,"coordinates":{"lat":13.408436,"lon":103.815926},"type":"city","searchable":true},{"name":"Londra Heathrow Havalimanı","country_name":"Birleşik Krallık","city_code":"LON","city_name":"Londra","code":"LHR","country_code":"GB","index_strings":["lhr","londra heathrow havalimanı","londra","lon","birleşik krallık","gb","london heathrow airport","london","united kingdom"],"timezone":"Europe\/London","weight":490,"coordinates":{"lat":51.469604,"lon":-0.453566},"type":"airport","searchable":true},{"name":"Venice Marco Polo","country_name":"İtalya","city_code":"VCE","city_name":"Venedik","code":"VCE","country_code":"IT","index_strings":["vce","venice marco polo","venedik","i̇talya","it","venice marco polo airport","venice","italy"],"timezone":"Europe\/Rome","weight":489,"coordinates":{"lat":45.502285,"lon":12.337947},"type":"airport","searchable":true},{"name":"Dallas\/Ft Worth International","city_code":"DFW","city_name":"Dallas","state_code":"TX","coordinates":{"lat":32.89746,"lon":-97.036125},"type":"airport","country_name":"ABD","country_code":"US","code":"DFW","index_strings":["dfw","dallas\/ft worth international","dallas","abd","us","dallas\/fort worth international airport","united states"],"timezone":"America\/Chicago","weight":486,"searchable":true},{"name":"Qingdao","country_name":"Çin","country_code":"CN","code":"TAO","index_strings":["qingdao liuting international","tao","qingdao","çin","cn","china","qingdao liuting international airport"],"timezone":"Asia\/Shanghai","weight":478,"coordinates":{"lat":36.265884,"lon":120.38236},"type":"city","searchable":true},{"name":"Qingdao Liuting International","country_name":"Çin","city_code":"TAO","city_name":"Qingdao","code":"TAO","country_code":"CN","index_strings":["tao","qingdao liuting international","qingdao","çin","cn","qingdao liuting international airport","china"],"timezone":"Asia\/Shanghai","weight":478,"coordinates":{"lat":36.265884,"lon":120.38236},"type":"airport","searchable":false}]