[{"name":"Tayland","weight":373557,"type":"country","code":"TH","searchable":true,"index_strings":["TH","Tayland","Thailand"]},{"name":"Türkiye","weight":301842,"type":"country","code":"TR","searchable":true,"index_strings":["TR","Türkiye","Turkey"]},{"name":"Atatürk Havalimanı","country_name":"Türkiye","city_code":"IST","city_name":"İstanbul","code":"IST","country_code":"TR","index_strings":["IST","Atatürk Havalimanı","İstanbul","Türkiye","TR","Ataturk","Istanbul","Turkey"],"timezone":"Europe\/Istanbul","weight":180054,"coordinates":{"lat":40.976665,"lon":28.815277},"type":"airport","searchable":true},{"name":"Bangkok","country_name":"Tayland","country_code":"TH","code":"BKK","index_strings":["BKK","Bangkok","Tayland","TH","Thailand"],"timezone":"Asia\/Bangkok","weight":167502,"coordinates":{"lat":13.7234186,"lon":100.4762319},"type":"city","searchable":true},{"name":"Bangkok Suvarnabhumi International","country_name":"Tayland","city_code":"BKK","city_name":"Bangkok","code":"BKK","country_code":"TH","index_strings":["BKK","Bangkok Suvarnabhumi International","Bangkok","Tayland","TH","Suvarnabhumi International","Thailand"],"timezone":"Asia\/Bangkok","weight":160824,"coordinates":{"lat":13.693062,"lon":100.752045},"type":"airport","searchable":true},{"name":"İstanbul","country_name":"Türkiye","country_code":"TR","code":"IST","index_strings":["IST","İstanbul","Türkiye","TR","Istanbul","Turkey"],"timezone":"Europe\/Istanbul","weight":137295,"coordinates":{"lat":40.976665,"lon":28.815277},"type":"city","searchable":true},{"name":"Chiang Mai","country_name":"Tayland","country_code":"TH","code":"CNX","index_strings":["CNX","Chiang Mai","Tayland","TH","Thailand"],"timezone":"Asia\/Bangkok","weight":61608,"coordinates":{"lat":18.769573,"lon":98.96841000000001},"type":"city","searchable":false},{"name":"Phuket Uluslararası Havalimanı","country_name":"Tayland","city_code":"HKT","city_name":"Phuket","code":"HKT","country_code":"TH","index_strings":["HKT","Phuket Uluslararası Havalimanı","Phuket","Tayland","TH","Phuket International","Thailand"],"timezone":"Asia\/Bangkok","weight":39062,"coordinates":{"lat":8.107619,"lon":98.30643499999999},"type":"airport","searchable":true},{"name":"ABD","weight":32037,"type":"country","code":"US","searchable":true,"index_strings":["US","ABD","United States"]},{"name":"Phuket","country_name":"Tayland","country_code":"TH","code":"HKT","index_strings":["HKT","Phuket","Tayland","TH","Thailand"],"timezone":"Asia\/Bangkok","weight":31732,"coordinates":{"lat":8.107619,"lon":98.30643499999999},"type":"city","searchable":false},{"name":"Hat Yai","country_name":"Tayland","country_code":"TH","code":"HDY","index_strings":["HDY","Hat Yai","Tayland","TH","Thailand"],"timezone":"Asia\/Bangkok","weight":26384,"coordinates":{"lat":6.936764,"lon":100.39356},"type":"city","searchable":false},{"name":"Hat Yai International","country_name":"Tayland","city_code":"HDY","city_name":"Hat Yai","code":"HDY","country_code":"TH","index_strings":["HDY","Hat Yai International","Hat Yai","Tayland","TH","Thailand"],"timezone":"Asia\/Bangkok","weight":26383,"coordinates":{"lat":6.936764,"lon":100.39356},"type":"airport","searchable":true},{"name":"Dalaman","country_name":"Türkiye","city_code":"DLM","city_name":"Dalaman","code":"DLM","country_code":"TR","index_strings":["DLM","Dalaman","Türkiye","TR","Turkey"],"timezone":"Europe\/Istanbul","weight":24784,"coordinates":{"lat":36.716667,"lon":28.783333},"type":"airport","searchable":true},{"name":"Dalaman","country_name":"Türkiye","country_code":"TR","code":"DLM","index_strings":["DLM","Dalaman","Türkiye","TR","Turkey"],"timezone":"Europe\/Istanbul","weight":24784,"coordinates":{"lat":36.716667,"lon":28.783333},"type":"city","searchable":false},{"name":"Antalya","country_name":"Türkiye","country_code":"TR","code":"AYT","index_strings":["AYT","Antalya","Türkiye","TR","Turkey"],"timezone":"Europe\/Istanbul","weight":17796,"coordinates":{"lat":36.89928,"lon":30.80135},"type":"city","searchable":false},{"name":"Antalya","country_name":"Türkiye","city_code":"AYT","city_name":"Antalya","code":"AYT","country_code":"TR","index_strings":["AYT","Antalya","Türkiye","TR","Turkey"],"timezone":"Europe\/Istanbul","weight":17796,"coordinates":{"lat":36.89928,"lon":30.80135},"type":"airport","searchable":true},{"name":"Singapur","country_name":"Singapur","country_code":"SG","code":"SIN","index_strings":["SIN","Singapur","SG","Singapore"],"timezone":"Asia\/Singapore","weight":15840,"coordinates":{"lat":1.2894365,"lon":103.8499802},"type":"city","searchable":false},{"name":"Singapore Changi","country_name":"Singapur","city_code":"SIN","city_name":"Singapur","code":"SIN","country_code":"SG","index_strings":["SIN","Singapore Changi","Singapur","SG","Singapore"],"timezone":"Asia\/Singapore","weight":15836,"coordinates":{"lat":1.361173,"lon":103.990204},"type":"airport","searchable":true},{"name":"Singapur","weight":15756,"type":"country","code":"SG","searchable":true,"index_strings":["SG","Singapur","Singapore"]},{"name":"Çin","weight":15060,"type":"country","code":"CN","searchable":true,"index_strings":["CN","Çin","China"]},{"name":"Udon Thani International","country_name":"Tayland","city_code":"UTH","city_name":"Udon Thani","code":"UTH","country_code":"TH","index_strings":["UTH","Udon Thani International","Udon Thani","Tayland","TH","Thailand"],"timezone":"Asia\/Bangkok","weight":14397,"coordinates":{"lat":17.38661,"lon":102.774506},"type":"airport","searchable":true},{"name":"Udon Thani","country_name":"Tayland","country_code":"TH","code":"UTH","index_strings":["UTH","Udon Thani","Tayland","TH","Thailand"],"timezone":"Asia\/Bangkok","weight":14397,"coordinates":{"lat":17.38661,"lon":102.774506},"type":"city","searchable":false},{"name":"Krabi","country_name":"Tayland","country_code":"TH","code":"KBV","index_strings":["KBV","Krabi","Tayland","TH","Thailand"],"timezone":"Asia\/Bangkok","weight":12926,"coordinates":{"lat":8.097281000000001,"lon":98.98062},"type":"city","searchable":false},{"name":"Krabi","country_name":"Tayland","city_code":"KBV","city_name":"Krabi","code":"KBV","country_code":"TH","index_strings":["KBV","Krabi","Tayland","TH","Thailand"],"timezone":"Asia\/Bangkok","weight":12924,"coordinates":{"lat":8.097281000000001,"lon":98.98062},"type":"airport","searchable":true},{"name":"Hindistan","weight":11160,"type":"country","code":"IN","searchable":true,"index_strings":["IN","Hindistan","India"]},{"name":"Chiang Rai","country_name":"Tayland","country_code":"TH","code":"CEI","index_strings":["CEI","Chiang Rai","Tayland","TH","Thailand"],"timezone":"Asia\/Bangkok","weight":11156,"coordinates":{"lat":19.954609,"lon":99.878815},"type":"city","searchable":false},{"name":"Chiang Rai Mae Fah Luang International","country_name":"Tayland","city_code":"CEI","city_name":"Chiang Rai","code":"CEI","country_code":"TH","index_strings":["CEI","Chiang Rai Mae Fah Luang International","Chiang Rai","Tayland","TH","Thailand"],"timezone":"Asia\/Bangkok","weight":11154,"coordinates":{"lat":19.954609,"lon":99.878815},"type":"airport","searchable":true},{"name":"Ko Samui","country_name":"Tayland","city_code":"USM","city_name":"Ko Samui","code":"USM","country_code":"TH","index_strings":["USM","Ko Samui","Tayland","TH","Koh Samui","Thailand"],"timezone":"Asia\/Bangkok","weight":10492,"coordinates":{"lat":9.555315,"lon":100.0628},"type":"airport","searchable":true},{"name":"Ko Samui","country_name":"Tayland","country_code":"TH","code":"USM","index_strings":["USM","Ko Samui","Tayland","TH","Koh Samui","Thailand"],"timezone":"Asia\/Bangkok","weight":10492,"coordinates":{"lat":9.555315,"lon":100.0628},"type":"city","searchable":false},{"name":"Hong Kong International","country_name":"Hong Kong","city_code":"HKG","city_name":"Hong Kong","code":"HKG","country_code":"HK","index_strings":["HKG","Hong Kong International","Hong Kong","HK"],"timezone":"Asia\/Hong_Kong","weight":10313,"coordinates":{"lat":22.315248,"lon":113.93649},"type":"airport","searchable":true},{"name":"Hong Kong","weight":10245,"type":"country","code":"HK","searchable":true,"index_strings":["HK","Hong Kong"]},{"name":"Hong Kong","country_name":"Hong Kong","country_code":"HK","code":"HKG","index_strings":["HKG","Hong Kong","HK"],"timezone":"Asia\/Hong_Kong","weight":10244,"coordinates":{"lat":22.2478599,"lon":114.2033843},"type":"city","searchable":true},{"name":"Hua Hin","country_name":"Tayland","country_code":"TH","code":"HHQ","index_strings":["HHQ","Hua Hin","Tayland","TH","Thailand"],"timezone":"Asia\/Bangkok","weight":9441,"coordinates":{"lat":12.6274,"lon":99.95144999999999},"type":"city","searchable":false},{"name":"Hua Hin","country_name":"Tayland","city_code":"HHQ","city_name":"Hua Hin","code":"HHQ","country_code":"TH","index_strings":["HHQ","Hua Hin","Tayland","TH","Hua Hin Airport","Thailand"],"timezone":"Asia\/Bangkok","weight":9440,"coordinates":{"lat":12.6274,"lon":99.95144999999999},"type":"airport","searchable":true},{"name":"Surat Thani","country_name":"Tayland","city_code":"URT","city_name":"Surat Thani","code":"URT","country_code":"TH","index_strings":["URT","Surat Thani","Tayland","TH","Thailand"],"timezone":"Asia\/Bangkok","weight":9013,"coordinates":{"lat":9.133865,"lon":99.143196},"type":"airport","searchable":true},{"name":"Surat Thani","country_name":"Tayland","country_code":"TH","code":"URT","index_strings":["URT","Surat Thani","Tayland","TH","Thailand"],"timezone":"Asia\/Bangkok","weight":9013,"coordinates":{"lat":9.133865,"lon":99.143196},"type":"city","searchable":false},{"name":"Khon Kaen","country_name":"Tayland","city_code":"KKC","city_name":"Khon Kaen","code":"KKC","country_code":"TH","index_strings":["KKC","Khon Kaen","Tayland","TH","Thailand"],"timezone":"Asia\/Bangkok","weight":8527,"coordinates":{"lat":16.46467,"lon":102.78749},"type":"airport","searchable":true},{"name":"Khon Kaen","country_name":"Tayland","country_code":"TH","code":"KKC","index_strings":["KKC","Khon Kaen","Tayland","TH","Thailand"],"timezone":"Asia\/Bangkok","weight":8527,"coordinates":{"lat":16.46467,"lon":102.78749},"type":"city","searchable":false},{"name":"Laos","weight":8084,"type":"country","code":"LA","searchable":true,"index_strings":["LA","Laos"]},{"name":"Almanya","weight":7523,"type":"country","code":"DE","searchable":true,"index_strings":["DE","Almanya","Germany"]},{"name":"Malezya","weight":7478,"type":"country","code":"MY","searchable":true,"index_strings":["MY","Malezya","Malaysia"]},{"name":"Ubon Ratchathani","country_name":"Tayland","city_code":"UBP","city_name":"Ubon Ratchathani","code":"UBP","country_code":"TH","index_strings":["UBP","Ubon Ratchathani","Tayland","TH","Muang Ubon","Thailand"],"timezone":"Asia\/Bangkok","weight":7205,"coordinates":{"lat":15.246491,"lon":104.87068},"type":"airport","searchable":true},{"name":"Ubon Ratchathani","country_name":"Tayland","country_code":"TH","code":"UBP","index_strings":["UBP","Ubon Ratchathani","Tayland","TH","Thailand"],"timezone":"Asia\/Bangkok","weight":7205,"coordinates":{"lat":15.246491,"lon":104.87068},"type":"city","searchable":false},{"name":"Avustralya","weight":7129,"type":"country","code":"AU","searchable":true,"index_strings":["AU","Avustralya","Australia"]},{"name":"Ankara","country_name":"Türkiye","country_code":"TR","code":"ANK","index_strings":["ANK","Ankara","Türkiye","TR","Turkey"],"timezone":"Europe\/Istanbul","weight":6947,"coordinates":{"lat":39.866667,"lon":39.866667},"type":"city","searchable":false},{"name":"Bangkok Don Mueang International","country_name":"Tayland","city_code":"BKK","city_name":"Bangkok","code":"DMK","country_code":"TH","index_strings":["DMK","Bangkok Don Mueang International","Bangkok","BKK","Tayland","TH","Don Muang","Thailand"],"timezone":"Asia\/Bangkok","weight":6668,"coordinates":{"lat":13.9125,"lon":100.60667},"type":"airport","searchable":true},{"name":"Japonya","weight":6154,"type":"country","code":"JP","searchable":true,"index_strings":["JP","Japonya","Japan"]},{"name":"Gazipasa","country_name":"Türkiye","city_code":"GZP","city_name":"Gazipaşa","code":"GZP","country_code":"TR","index_strings":["GZP","Gazipasa","Gazipaşa","Türkiye","TR","Gazipasa Airport","Turkey"],"timezone":"Europe\/Istanbul","weight":6012,"coordinates":{"lat":36.2993,"lon":32.3014},"type":"airport","searchable":true},{"name":"Gazipaşa","country_name":"Türkiye","country_code":"TR","code":"GZP","index_strings":["GZP","Gazipaşa","Türkiye","TR","Gazipasa","Turkey"],"timezone":"Europe\/Istanbul","weight":6012,"coordinates":{"lat":36.2993,"lon":32.3014},"type":"city","searchable":false},{"name":"Sabiha Gökçen Uluslararası Havalimanı","country_name":"Türkiye","city_code":"IST","city_name":"İstanbul","code":"SAW","country_code":"TR","index_strings":["SAW","Sabiha Gökçen Uluslararası Havalimanı","İstanbul","IST","Türkiye","TR","Sabiha Gokcen","Istanbul","Turkey"],"timezone":"Europe\/Istanbul","weight":5673,"coordinates":{"lat":40.904675,"lon":29.309189},"type":"airport","searchable":true},{"name":"Rusya","weight":5156,"type":"country","code":"RU","searchable":true,"index_strings":["RU","Rusya","Russia"]},{"name":"Kuala Lumpur","country_name":"Malezya","country_code":"MY","code":"KUL","index_strings":["KUL","Kuala Lumpur","Malezya","MY","Malaysia"],"timezone":"Asia\/Kuala_Lumpur","weight":4807,"coordinates":{"lat":3.139003,"lon":101.686855},"type":"city","searchable":true},{"name":"Utapao-Rayong-Pataya International Airport","country_name":"Tayland","country_code":"TH","code":"UTP","index_strings":["UTP","Utapao-Rayong-Pataya International Airport","Tayland","TH","Pattaya","Thailand"],"timezone":"Asia\/Bangkok","weight":4680,"coordinates":{"lat":12.683333,"lon":101.01667},"type":"city","searchable":false},{"name":"U-Tapao Rayong-Pattaya International","country_name":"Tayland","city_code":"UTP","city_name":"Utapao-Rayong-Pataya International Airport","code":"UTP","country_code":"TH","index_strings":["UTP","U-Tapao Rayong-Pattaya International","Utapao-Rayong-Pataya International Airport","Tayland","TH","Utapao","Pattaya","Thailand"],"timezone":"Asia\/Bangkok","weight":4679,"coordinates":{"lat":12.683333,"lon":101.01667},"type":"airport","searchable":true},{"name":"Kuala Lumpur International","country_name":"Malezya","city_code":"KUL","city_name":"Kuala Lumpur","code":"KUL","country_code":"MY","index_strings":["KUL","Kuala Lumpur International","Kuala Lumpur","Malezya","MY","Kuala Lumpur International Airport (klia)","Malaysia"],"timezone":"Asia\/Kuala_Lumpur","weight":4677,"coordinates":{"lat":2.755672,"lon":101.70539},"type":"airport","searchable":true},{"name":"Vietnam","weight":4335,"type":"country","code":"VN","searchable":true,"index_strings":["VN","Vietnam"]},{"name":"Filipinler","weight":4158,"type":"country","code":"PH","searchable":true,"index_strings":["PH","Filipinler","Philippines"]},{"name":"İspanya","weight":4107,"type":"country","code":"ES","searchable":true,"index_strings":["ES","İspanya","Spain"]},{"name":"Myanmar (Burma)","weight":3957,"type":"country","code":"MM","searchable":true,"index_strings":["MM","Myanmar (Burma)","Myanmar"]},{"name":"Birleşik Krallık","weight":3837,"type":"country","code":"GB","searchable":true,"index_strings":["GB","Birleşik Krallık","United Kingdom"]},{"name":"Luang Prabang","country_name":"Laos","country_code":"LA","code":"LPQ","index_strings":["LPQ","Luang Prabang","Laos","LA"],"timezone":"Asia\/Vientiane","weight":3678,"coordinates":{"lat":19.897055,"lon":102.16371},"type":"city","searchable":false},{"name":"Luang Prabang International","country_name":"Laos","city_code":"LPQ","city_name":"Luang Prabang","code":"LPQ","country_code":"LA","index_strings":["LPQ","Luang Prabang International","Luang Prabang","Laos","LA"],"timezone":"Asia\/Vientiane","weight":3677,"coordinates":{"lat":19.897055,"lon":102.16371},"type":"airport","searchable":true},{"name":"Phitsanulok","country_name":"Tayland","city_code":"PHS","city_name":"Phitsanulok","code":"PHS","country_code":"TH","index_strings":["PHS","Phitsanulok","Tayland","TH","Thailand"],"timezone":"Asia\/Bangkok","weight":3670,"coordinates":{"lat":16.771307,"lon":100.2812},"type":"airport","searchable":true},{"name":"Phitsanulok","country_name":"Tayland","country_code":"TH","code":"PHS","index_strings":["PHS","Phitsanulok","Tayland","TH","Thailand"],"timezone":"Asia\/Bangkok","weight":3670,"coordinates":{"lat":16.771307,"lon":100.2812},"type":"city","searchable":false},{"name":"Nakhon Si Thammarat","country_name":"Tayland","country_code":"TH","code":"NST","index_strings":["NST","Nakhon Si Thammarat","Tayland","TH","Thailand"],"timezone":"Asia\/Bangkok","weight":3600,"coordinates":{"lat":8.466666999999999,"lon":99.95},"type":"city","searchable":false},{"name":"Nakhon Si Thammarat","country_name":"Tayland","city_code":"NST","city_name":"Nakhon Si Thammarat","code":"NST","country_code":"TH","index_strings":["NST","Nakhon Si Thammarat","Tayland","TH","Thailand"],"timezone":"Asia\/Bangkok","weight":3599,"coordinates":{"lat":8.466666999999999,"lon":99.95},"type":"airport","searchable":true},{"name":"Kanada","weight":3554,"type":"country","code":"CA","searchable":true,"index_strings":["CA","Kanada","Canada"]},{"name":"Vientiane","country_name":"Laos","country_code":"LA","code":"VTE","index_strings":["VTE","Vientiane","Laos","LA"],"timezone":"Asia\/Vientiane","weight":3257,"coordinates":{"lat":17.975431,"lon":102.56772},"type":"city","searchable":false},{"name":"Vientiane Wattay International","country_name":"Laos","city_code":"VTE","city_name":"Vientiane","code":"VTE","country_code":"LA","index_strings":["VTE","Vientiane Wattay International","Vientiane","Laos","LA","Wattay"],"timezone":"Asia\/Vientiane","weight":3257,"coordinates":{"lat":17.975431,"lon":102.56772},"type":"airport","searchable":true},{"name":"Endonezya","weight":3147,"type":"country","code":"ID","searchable":true,"index_strings":["ID","Endonezya","Indonesia"]},{"name":"Sidney","country_name":"Avustralya","country_code":"AU","code":"SYD","index_strings":["SYD","Sidney","Avustralya","AU","Sydney","Australia"],"timezone":"Australia\/Sydney","weight":3079,"coordinates":{"lat":-33.8689009,"lon":151.2070914},"type":"city","searchable":false},{"name":"Mae Hong Son","country_name":"Tayland","country_code":"TH","code":"HGN","index_strings":["HGN","Mae Hong Son","Tayland","TH","Thailand"],"timezone":"Asia\/Bangkok","weight":3052,"coordinates":{"lat":19.29968,"lon":97.97523},"type":"city","searchable":false},{"name":"Mae Hong Son","country_name":"Tayland","city_code":"HGN","city_name":"Mae Hong Son","code":"HGN","country_code":"TH","index_strings":["HGN","Mae Hong Son","Tayland","TH","Thailand"],"timezone":"Asia\/Bangkok","weight":3052,"coordinates":{"lat":19.29968,"lon":97.97523},"type":"airport","searchable":true},{"name":"Güney Kore","weight":3048,"type":"country","code":"KR","searchable":true,"index_strings":["KR","Güney Kore","South Korea"]},{"name":"Tayvan","weight":3029,"type":"country","code":"TW","searchable":true,"index_strings":["TW","Tayvan","Taiwan"]},{"name":"İspanya","weight":2969,"type":"country","code":"UA","searchable":true,"index_strings":["UA","İspanya","Ukraine"]},{"name":"İtalya","weight":2824,"type":"country","code":"IT","searchable":true,"index_strings":["IT","İtalya","Italy"]},{"name":"Birleşik Arap Emirlikleri","weight":2798,"type":"country","code":"AE","searchable":true,"index_strings":["AE","Birleşik Arap Emirlikleri","United Arab Emirates"]},{"name":"Manila","country_name":"Filipinler","country_code":"PH","code":"MNL","index_strings":["MNL","Manila","Filipinler","PH","Philippines"],"timezone":"Asia\/Manila","weight":2796,"coordinates":{"lat":14.5995124,"lon":120.9842195},"type":"city","searchable":false},{"name":"Manila Ninoy Aquino Int'l","country_name":"Filipinler","city_code":"MNL","city_name":"Manila","code":"MNL","country_code":"PH","index_strings":["MNL","Manila Ninoy Aquino Int'l","Manila","Filipinler","PH","Ninoy Aquino International","Philippines"],"timezone":"Asia\/Manila","weight":2795,"coordinates":{"lat":14.509602,"lon":121.01251},"type":"airport","searchable":true},{"name":"Sydney Kingsford Smith","city_code":"SYD","city_name":"Sidney","state_code":"NS","coordinates":{"lat":-33.932922,"lon":151.1799},"type":"airport","country_name":"Avustralya","country_code":"AU","code":"SYD","index_strings":["SYD","Sydney Kingsford Smith","Sidney","Avustralya","AU","Kingsford Smith","Sydney","Australia"],"timezone":"Australia\/Sydney","weight":2764,"searchable":true},{"name":"Los Angeles","country_name":"ABD","country_code":"US","code":"LAX","index_strings":["LAX","Los Angeles","ABD","US","United States"],"timezone":"America\/Los_Angeles","weight":2712,"coordinates":{"lat":34.0522342,"lon":-118.2436849},"type":"city","searchable":true},{"name":"Los Angeles International","city_code":"LAX","city_name":"Los Angeles","state_code":"CA","coordinates":{"lat":33.943398,"lon":-118.40828},"type":"airport","country_name":"ABD","country_code":"US","code":"LAX","index_strings":["LAX","Los Angeles International","Los Angeles","ABD","US","United States"],"timezone":"America\/Los_Angeles","weight":2711,"searchable":true},{"name":"Lampang","country_name":"Tayland","city_code":"LPT","city_name":"Lampang","code":"LPT","country_code":"TH","index_strings":["LPT","Lampang","Tayland","TH","Thailand"],"timezone":"Asia\/Bangkok","weight":2695,"coordinates":{"lat":18.274166,"lon":99.50722500000001},"type":"airport","searchable":true},{"name":"Lampang","country_name":"Tayland","country_code":"TH","code":"LPT","index_strings":["LPT","Lampang","Tayland","TH","Thailand"],"timezone":"Asia\/Bangkok","weight":2695,"coordinates":{"lat":18.274166,"lon":99.50722500000001},"type":"city","searchable":false},{"name":"Taipei","country_name":"Tayvan","country_code":"TW","code":"TPE","index_strings":["TPE","Taipei","Tayvan","TW","Taiwan"],"timezone":"Asia\/Taipei","weight":2638,"coordinates":{"lat":25.091075,"lon":121.5598345},"type":"city","searchable":true},{"name":"Yeni Delhi","country_name":"Hindistan","country_code":"IN","code":"DEL","index_strings":["DEL","Yeni Delhi","Hindistan","IN","New Delhi","India"],"timezone":"Asia\/Kolkata","weight":2630,"coordinates":{"lat":28.556555,"lon":77.10079},"type":"city","searchable":false},{"name":"Trang","country_name":"Tayland","city_code":"TST","city_name":"Trang","code":"TST","country_code":"TH","index_strings":["TST","Trang","Tayland","TH","Thailand"],"timezone":"Asia\/Bangkok","weight":2590,"coordinates":{"lat":7.5,"lon":99.61667},"type":"airport","searchable":true},{"name":"Trang","country_name":"Tayland","country_code":"TH","code":"TST","index_strings":["TST","Trang","Tayland","TH","Thailand"],"timezone":"Asia\/Bangkok","weight":2590,"coordinates":{"lat":7.5,"lon":99.61667},"type":"city","searchable":false},{"name":"Taipei Taiwan Taoyuan International","country_name":"Tayvan","city_code":"TPE","city_name":"Taipei","code":"TPE","country_code":"TW","index_strings":["TPE","Taipei Taiwan Taoyuan International","Taipei","Tayvan","TW","Taiwan Taoyuan International (Chiang Kai Shek International)","Taiwan"],"timezone":"Asia\/Taipei","weight":2585,"coordinates":{"lat":25.07639,"lon":121.22389},"type":"airport","searchable":true},{"name":"Guangzhou Baiyun International","country_name":"Çin","city_code":"CAN","city_name":"Guangzhou","code":"CAN","country_code":"CN","index_strings":["CAN","Guangzhou Baiyun International","Guangzhou","Çin","CN","China"],"timezone":"Asia\/Shanghai","weight":2544,"coordinates":{"lat":23.387861,"lon":113.29734},"type":"airport","searchable":true},{"name":"Guangzhou","country_name":"Çin","country_code":"CN","code":"CAN","index_strings":["CAN","Guangzhou","Çin","CN","China"],"timezone":"Asia\/Shanghai","weight":2544,"coordinates":{"lat":23.387861,"lon":113.29734},"type":"city","searchable":false},{"name":"Yeni Zelanda","weight":2475,"type":"country","code":"NZ","searchable":true,"index_strings":["NZ","Yeni Zelanda","New Zealand"]},{"name":"Fransa","weight":2428,"type":"country","code":"FR","searchable":true,"index_strings":["FR","Fransa","France"]},{"name":"Şanghay","country_name":"Çin","country_code":"CN","code":"SHA","index_strings":["SHA","Şanghay","Çin","CN","Shanghai","China"],"timezone":"Asia\/Shanghai","weight":2362,"coordinates":{"lat":31.230393,"lon":121.473704},"type":"city","searchable":true},{"name":"Nan","country_name":"Tayland","city_code":"NNT","city_name":"Nan","code":"NNT","country_code":"TH","index_strings":["NNT","Nan","Tayland","TH","Thailand"],"timezone":"Asia\/Bangkok","weight":2283,"coordinates":{"lat":18.8,"lon":100.78333},"type":"airport","searchable":true},{"name":"Nan","country_name":"Tayland","country_code":"TH","code":"NNT","index_strings":["NNT","Nan","Tayland","TH","Thailand"],"timezone":"Asia\/Bangkok","weight":2283,"coordinates":{"lat":18.8,"lon":100.78333},"type":"city","searchable":false},{"name":"Yangon International","country_name":"Myanmar (Burma)","city_code":"RGN","city_name":"Yangon","code":"RGN","country_code":"MM","index_strings":["RGN","Yangon International","Yangon","Myanmar (Burma)","MM","Mingaladon","Myanmar"],"timezone":"Asia\/Rangoon","weight":2183,"coordinates":{"lat":16.900068,"lon":96.13415500000001},"type":"airport","searchable":true},{"name":"Yangon","country_name":"Myanmar (Burma)","country_code":"MM","code":"RGN","index_strings":["RGN","Yangon","Myanmar (Burma)","MM","Myanmar"],"timezone":"Asia\/Rangoon","weight":2183,"coordinates":{"lat":16.900068,"lon":96.13415500000001},"type":"city","searchable":false},{"name":"Hollanda","weight":2171,"type":"country","code":"NL","searchable":true,"index_strings":["NL","Hollanda","Netherlands"]},{"name":"Pakistan","weight":2153,"type":"country","code":"PK","searchable":true,"index_strings":["PK","Pakistan"]},{"name":"Yunanistan","weight":2126,"type":"country","code":"GR","searchable":true,"index_strings":["GR","Yunanistan","Greece"]},{"name":"Roi Et","country_name":"Tayland","city_code":"ROI","city_name":"Roi Et","code":"ROI","country_code":"TH","index_strings":["ROI","Roi Et","Tayland","TH","Roi Et Airport","Thailand"],"timezone":"Asia\/Bangkok","weight":2104,"coordinates":{"lat":16.115278,"lon":103.77695},"type":"airport","searchable":true},{"name":"Roi Et","country_name":"Tayland","country_code":"TH","code":"ROI","index_strings":["ROI","Roi Et","Tayland","TH","Thailand"],"timezone":"Asia\/Bangkok","weight":2104,"coordinates":{"lat":16.115278,"lon":103.77695},"type":"city","searchable":false},{"name":"İsviçre","weight":2070,"type":"country","code":"CH","searchable":true,"index_strings":["CH","İsviçre","Switzerland"]},{"name":"Shanghai Hongqiao International","country_name":"Çin","city_code":"SHA","city_name":"Şanghay","code":"SHA","country_code":"CN","index_strings":["SHA","Shanghai Hongqiao International","Şanghay","Çin","CN","Shanghai","China"],"timezone":"Asia\/Shanghai","weight":2025,"coordinates":{"lat":31.196815,"lon":121.34197},"type":"airport","searchable":true},{"name":"Frankfurt am Main","country_name":"Almanya","country_code":"DE","code":"FRA","index_strings":["FRA","Frankfurt am Main","Almanya","DE","Frankfurt","Germany"],"timezone":"Europe\/Berlin","weight":1971,"coordinates":{"lat":50.050735,"lon":8.570773000000001},"type":"city","searchable":true},{"name":"Frankfurt International","country_name":"Almanya","city_code":"FRA","city_name":"Frankfurt am Main","code":"FRA","country_code":"DE","index_strings":["FRA","Frankfurt International","Frankfurt am Main","Almanya","DE","Frankfurt International Airport","Frankfurt","Germany"],"timezone":"Europe\/Berlin","weight":1959,"coordinates":{"lat":50.050735,"lon":8.570773000000001},"type":"airport","searchable":true},{"name":"Bodrum","country_name":"Türkiye","country_code":"TR","code":"BJV","index_strings":["BJV","Bodrum","Türkiye","TR","Turkey"],"timezone":"Europe\/Istanbul","weight":1951,"coordinates":{"lat":37.25,"lon":27.66},"type":"city","searchable":true},{"name":"Sakon Nakhon","country_name":"Tayland","city_code":"SNO","city_name":"Sakhon Nakhon","code":"SNO","country_code":"TH","index_strings":["SNO","Sakon Nakhon","Sakhon Nakhon","Tayland","TH","Thailand"],"timezone":"Asia\/Bangkok","weight":1919,"coordinates":{"lat":17.283333,"lon":104.1},"type":"airport","searchable":true},{"name":"Sakhon Nakhon","country_name":"Tayland","country_code":"TH","code":"SNO","index_strings":["SNO","Sakhon Nakhon","Tayland","TH","Sakon Nakhon","Thailand"],"timezone":"Asia\/Bangkok","weight":1919,"coordinates":{"lat":17.283333,"lon":104.1},"type":"city","searchable":false},{"name":"Meksika","weight":1893,"type":"country","code":"MX","searchable":true,"index_strings":["MX","Meksika","Mexico"]},{"name":"Buri Ram","country_name":"Tayland","country_code":"TH","code":"BFV","index_strings":["BFV","Buri Ram","Tayland","TH","Thailand"],"timezone":"Asia\/Bangkok","weight":1889,"coordinates":{"lat":15.226944,"lon":103.25528},"type":"city","searchable":false},{"name":"Buriram","country_name":"Tayland","city_code":"BFV","city_name":"Buri Ram","code":"BFV","country_code":"TH","index_strings":["BFV","Buriram","Buri Ram","Tayland","TH","Thailand"],"timezone":"Asia\/Bangkok","weight":1889,"coordinates":{"lat":15.226944,"lon":103.25528},"type":"airport","searchable":true},{"name":"Fukuoka","country_name":"Japonya","country_code":"JP","code":"FUK","index_strings":["FUK","Fukuoka","Japonya","JP","Japan"],"timezone":"Asia\/Tokyo","weight":1835,"coordinates":{"lat":33.584286,"lon":130.4439},"type":"city","searchable":false},{"name":"Fukuoka","country_name":"Japonya","city_code":"FUK","city_name":"Fukuoka","code":"FUK","country_code":"JP","index_strings":["FUK","Fukuoka","Japonya","JP","Japan"],"timezone":"Asia\/Tokyo","weight":1835,"coordinates":{"lat":33.584286,"lon":130.4439},"type":"airport","searchable":true},{"name":"Hanoi","country_name":"Vietnam","country_code":"VN","code":"HAN","index_strings":["HAN","Hanoi","Vietnam","VN"],"timezone":"Asia\/Ho_Chi_Minh","weight":1817,"coordinates":{"lat":21.214184,"lon":105.802826},"type":"city","searchable":false},{"name":"Hanoi Noi Bai International","country_name":"Vietnam","city_code":"HAN","city_name":"Hanoi","code":"HAN","country_code":"VN","index_strings":["HAN","Hanoi Noi Bai International","Hanoi","Vietnam","VN","Noibai International"],"timezone":"Asia\/Ho_Chi_Minh","weight":1793,"coordinates":{"lat":21.214184,"lon":105.802826},"type":"airport","searchable":true},{"name":"Ho Chi Minh City Tan Son Nhat International","country_name":"Vietnam","city_code":"SGN","city_name":"Ho Chi Minh Kenti","code":"SGN","country_code":"VN","index_strings":["SGN","Ho Chi Minh City Tan Son Nhat International","Ho Chi Minh Kenti","Vietnam","VN","Tan Son Nhat International","Ho Chi Minh City"],"timezone":"Asia\/Ho_Chi_Minh","weight":1697,"coordinates":{"lat":10.813045,"lon":106.662476},"type":"airport","searchable":true},{"name":"Ho Chi Minh Kenti","country_name":"Vietnam","country_code":"VN","code":"SGN","index_strings":["SGN","Ho Chi Minh Kenti","Vietnam","VN","Ho Chi Minh City"],"timezone":"Asia\/Ho_Chi_Minh","weight":1697,"coordinates":{"lat":10.813045,"lon":106.662476},"type":"city","searchable":false},{"name":"Adana Sakirpasa","country_name":"Türkiye","city_code":"ADA","city_name":"Adana","code":"ADA","country_code":"TR","index_strings":["ADA","Adana Sakirpasa","Adana","Türkiye","TR","Turkey"],"timezone":"Europe\/Istanbul","weight":1692,"coordinates":{"lat":36.98503,"lon":35.29736},"type":"airport","searchable":true},{"name":"Adana","country_name":"Türkiye","country_code":"TR","code":"ADA","index_strings":["ADA","Adana","Türkiye","TR","Turkey"],"timezone":"Europe\/Istanbul","weight":1692,"coordinates":{"lat":37,"lon":35.3213333},"type":"city","searchable":false},{"name":"Melbourne","country_name":"Avustralya","country_code":"AU","code":"MEL","index_strings":["MEL","Melbourne","Avustralya","AU","Australia"],"timezone":"Australia\/Melbourne","weight":1664,"coordinates":{"lat":-37.8131869,"lon":144.9629796},"type":"city","searchable":true},{"name":"İzmir","country_name":"Türkiye","country_code":"TR","code":"IZM","index_strings":["IZM","İzmir","Türkiye","TR","Izmir","Turkey"],"timezone":"Europe\/Istanbul","weight":1652,"coordinates":{"lat":38.29,"lon":27.16},"type":"city","searchable":false},{"name":"Izmir Adnan Menderes","country_name":"Türkiye","city_code":"IZM","city_name":"İzmir","code":"ADB","country_code":"TR","index_strings":["ADB","Izmir Adnan Menderes","İzmir","IZM","Türkiye","TR","Adnan Menderes Airport","Izmir","Turkey"],"timezone":"Europe\/Istanbul","weight":1652,"coordinates":{"lat":38.294403,"lon":27.147594},"type":"airport","searchable":true},{"name":"Suudi Arabistan","weight":1596,"type":"country","code":"SA","searchable":true,"index_strings":["SA","Suudi Arabistan","Saudi Arabia"]},{"name":"Mae Sot","country_name":"Tayland","country_code":"TH","code":"MAQ","index_strings":["MAQ","Mae Sot","Tayland","TH","Thailand"],"timezone":"Asia\/Bangkok","weight":1592,"coordinates":{"lat":16.666668,"lon":98.583336},"type":"city","searchable":false},{"name":"Mae Sot","country_name":"Tayland","city_code":"MAQ","city_name":"Mae Sot","code":"MAQ","country_code":"TH","index_strings":["MAQ","Mae Sot","Tayland","TH","Thailand"],"timezone":"Asia\/Bangkok","weight":1592,"coordinates":{"lat":16.666668,"lon":98.583336},"type":"airport","searchable":true},{"name":"Nakhon Phanom","country_name":"Tayland","country_code":"TH","code":"KOP","index_strings":["KOP","Nakhon Phanom","Tayland","TH","Thailand"],"timezone":"Asia\/Bangkok","weight":1564,"coordinates":{"lat":17.4,"lon":104.75},"type":"city","searchable":false},{"name":"Nakhon Phanom","country_name":"Tayland","city_code":"KOP","city_name":"Nakhon Phanom","code":"KOP","country_code":"TH","index_strings":["KOP","Nakhon Phanom","Tayland","TH","Thailand"],"timezone":"Asia\/Bangkok","weight":1564,"coordinates":{"lat":17.4,"lon":104.75},"type":"airport","searchable":true},{"name":"Mısır","weight":1511,"type":"country","code":"EG","searchable":true,"index_strings":["EG","Mısır","Egypt"]},{"name":"Trat","country_name":"Tayland","country_code":"TH","code":"TDX","index_strings":["TDX","Trat","Tayland","TH","Thailand"],"timezone":"Asia\/Bangkok","weight":1478,"coordinates":{"lat":12.273953,"lon":102.31867},"type":"city","searchable":false},{"name":"Trat","country_name":"Tayland","city_code":"TDX","city_name":"Trat","code":"TDX","country_code":"TH","index_strings":["TDX","Trat","Tayland","TH","Thailand"],"timezone":"Asia\/Bangkok","weight":1478,"coordinates":{"lat":12.273953,"lon":102.31867},"type":"airport","searchable":true},{"name":"Nepal","weight":1463,"type":"country","code":"NP","searchable":true,"index_strings":["NP","Nepal"]},{"name":"Melbourne","city_code":"MEL","city_name":"Melbourne","state_code":"VI","coordinates":{"lat":-37.669613,"lon":144.84978},"type":"airport","country_name":"Avustralya","country_code":"AU","code":"MEL","index_strings":["MEL","Melbourne","Avustralya","AU","Tullamarine","Australia"],"timezone":"Australia\/Melbourne","weight":1456,"searchable":true},{"name":"Bodrum Milas","country_name":"Türkiye","city_code":"BJV","city_name":"Bodrum","code":"BJV","country_code":"TR","index_strings":["BJV","Bodrum Milas","Bodrum","Türkiye","TR","Milas","Turkey"],"timezone":"Europe\/Istanbul","weight":1453,"coordinates":{"lat":37.243954,"lon":27.672781},"type":"airport","searchable":true},{"name":"Amsterdam","country_name":"Hollanda","country_code":"NL","code":"AMS","index_strings":["AMS","Amsterdam","Hollanda","NL","Netherlands"],"timezone":"Europe\/Amsterdam","weight":1452,"coordinates":{"lat":52.3730556,"lon":4.8922222},"type":"city","searchable":false},{"name":"Amsterdam Schiphol","country_name":"Hollanda","city_code":"AMS","city_name":"Amsterdam","code":"AMS","country_code":"NL","index_strings":["AMS","Amsterdam Schiphol","Amsterdam","Hollanda","NL","Schiphol","Netherlands"],"timezone":"Europe\/Amsterdam","weight":1449,"coordinates":{"lat":52.30907,"lon":4.763385},"type":"airport","searchable":true},{"name":"Tokyo","country_name":"Japonya","country_code":"JP","code":"TYO","index_strings":["TYO","Tokyo","Japonya","JP","Japan"],"timezone":"Asia\/Tokyo","weight":1441,"coordinates":{"lat":35.6894875,"lon":139.6917064},"type":"city","searchable":true},{"name":"Penang","country_name":"Malezya","country_code":"MY","code":"PEN","index_strings":["PEN","Penang","Malezya","MY","Malaysia"],"timezone":"Asia\/Kuala_Lumpur","weight":1400,"coordinates":{"lat":5.292961,"lon":100.265175},"type":"city","searchable":false},{"name":"Penang International","country_name":"Malezya","city_code":"PEN","city_name":"Penang","code":"PEN","country_code":"MY","index_strings":["PEN","Penang International","Penang","Malezya","MY","Malaysia"],"timezone":"Asia\/Kuala_Lumpur","weight":1400,"coordinates":{"lat":5.292961,"lon":100.265175},"type":"airport","searchable":true},{"name":"Avusturya","weight":1386,"type":"country","code":"AT","searchable":true,"index_strings":["AT","Avusturya","Austria"]},{"name":"Kamboçya","weight":1357,"type":"country","code":"KH","searchable":true,"index_strings":["KH","Kamboçya","Cambodia"]},{"name":"Dubai","country_name":"Birleşik Arap Emirlikleri","country_code":"AE","code":"DXB","index_strings":["DXB","Dubai","Birleşik Arap Emirlikleri","AE","United Arab Emirates"],"timezone":"Asia\/Dubai","weight":1347,"coordinates":{"lat":25.2644444,"lon":55.3116667},"type":"city","searchable":true},{"name":"Makao","weight":1341,"type":"country","code":"MO","searchable":true,"index_strings":["MO","Makao","Macau"]},{"name":"Macau","country_name":"Makao","country_code":"MO","code":"MFM","index_strings":["MFM","Macau","Makao","MO"],"timezone":"Asia\/Macau","weight":1340,"coordinates":{"lat":22.1638446,"lon":113.5549937},"type":"city","searchable":true},{"name":"Macau International","country_name":"Makao","city_code":"MFM","city_name":"Macau","code":"MFM","country_code":"MO","index_strings":["MFM","Macau International","Macau","Makao","MO"],"timezone":"Asia\/Macau","weight":1339,"coordinates":{"lat":22.156588,"lon":113.57285},"type":"airport","searchable":true},{"name":"Dubai International","country_name":"Birleşik Arap Emirlikleri","city_code":"DXB","city_name":"Dubai","code":"DXB","country_code":"AE","index_strings":["DXB","Dubai International","Dubai","Birleşik Arap Emirlikleri","AE","United Arab Emirates"],"timezone":"Asia\/Dubai","weight":1335,"coordinates":{"lat":25.248665,"lon":55.352917},"type":"airport","searchable":true},{"name":"Ankara Esenboğa Havalimanı","country_name":"Türkiye","city_code":"ANK","city_name":"Ankara","code":"ESB","country_code":"TR","index_strings":["ESB","Ankara Esenboğa Havalimanı","Ankara","ANK","Türkiye","TR","Esenboga International","Turkey"],"timezone":"Europe\/Istanbul","weight":1334,"coordinates":{"lat":40.11494,"lon":32.993145},"type":"airport","searchable":true},{"name":"Çek Cumhuriyeti","weight":1328,"type":"country","code":"CZ","searchable":true,"index_strings":["CZ","Çek Cumhuriyeti","Czech Republic"]},{"name":"Mumbai","country_name":"Hindistan","country_code":"IN","code":"BOM","index_strings":["бомбей","bombay","BOM","Mumbai","Hindistan","IN","India"],"timezone":"Asia\/Kolkata","weight":1324,"coordinates":{"lat":19.095509,"lon":72.87497},"type":"city","searchable":false},{"name":"Phrae","country_name":"Tayland","country_code":"TH","code":"PRH","index_strings":["PRH","Phrae","Tayland","TH","Thailand"],"timezone":"Asia\/Bangkok","weight":1324,"coordinates":{"lat":18.15,"lon":100.13333},"type":"city","searchable":false},{"name":"Phrae","country_name":"Tayland","city_code":"PRH","city_name":"Phrae","code":"PRH","country_code":"TH","index_strings":["PRH","Phrae","Tayland","TH","Thailand"],"timezone":"Asia\/Bangkok","weight":1324,"coordinates":{"lat":18.15,"lon":100.13333},"type":"airport","searchable":true},{"name":"Mumbai\/Bombay Chhatrapati Shivaji Int'l","country_name":"Hindistan","city_code":"BOM","city_name":"Mumbai","code":"BOM","country_code":"IN","index_strings":["BOM","Mumbai\/Bombay Chhatrapati Shivaji Int'l","Mumbai","Hindistan","IN","Chhatrapati Shivaji International (Sahar International)","India"],"timezone":"Asia\/Kolkata","weight":1324,"coordinates":{"lat":19.095509,"lon":72.87497},"type":"airport","searchable":true},{"name":"Nagoya","country_name":"Japonya","country_code":"JP","code":"NGO","index_strings":["NGO","Nagoya","Japonya","JP","Japan"],"timezone":"Asia\/Tokyo","weight":1296,"coordinates":{"lat":34.8867002,"lon":136.8323973},"type":"city","searchable":true},{"name":"Nagoya Chubu Centrair International","country_name":"Japonya","city_code":"NGO","city_name":"Nagoya","code":"NGO","country_code":"JP","index_strings":["NGO","Nagoya Chubu Centrair International","Nagoya","Japonya","JP","Chu-Bu Centrair International (Central Japan International)","Japan"],"timezone":"Asia\/Tokyo","weight":1294,"coordinates":{"lat":34.858334,"lon":136.80528},"type":"airport","searchable":true},{"name":"Münih","country_name":"Almanya","country_code":"DE","code":"MUC","index_strings":["MUC","Münih","Almanya","DE","Munich","Germany"],"timezone":"Europe\/Berlin","weight":1288,"coordinates":{"lat":48.1391265,"lon":11.5801863},"type":"city","searchable":true},{"name":"Katmandu","country_name":"Nepal","country_code":"NP","code":"KTM","index_strings":["KTM","Katmandu","Nepal","NP","Kathmandu"],"timezone":"Asia\/Kathmandu","weight":1284,"coordinates":{"lat":27.699905,"lon":85.35657},"type":"city","searchable":false},{"name":"Munich Franz Joseph Strauss Int'l","country_name":"Almanya","city_code":"MUC","city_name":"Münih","code":"MUC","country_code":"DE","index_strings":["MUC","Munich Franz Joseph Strauss Int'l","Münih","Almanya","DE","Franz Josef Strauss","Munich","Germany"],"timezone":"Europe\/Berlin","weight":1284,"coordinates":{"lat":48.353004,"lon":11.790143},"type":"airport","searchable":true},{"name":"Kathmandu Tribhuvan International","country_name":"Nepal","city_code":"KTM","city_name":"Katmandu","code":"KTM","country_code":"NP","index_strings":["KTM","Kathmandu Tribhuvan International","Katmandu","Nepal","NP","Tribhuvan International","Kathmandu"],"timezone":"Asia\/Kathmandu","weight":1284,"coordinates":{"lat":27.699905,"lon":85.35657},"type":"airport","searchable":true},{"name":"Zürih","country_name":"İsviçre","country_code":"CH","code":"ZRH","index_strings":["ZRH","Zürih","İsviçre","CH","Zurich","Switzerland"],"timezone":"Europe\/Zurich","weight":1275,"coordinates":{"lat":47.367347,"lon":8.5500025},"type":"city","searchable":false},{"name":"Trabzon","country_name":"Türkiye","city_code":"TZX","city_name":"Trabzon","code":"TZX","country_code":"TR","index_strings":["TZX","Trabzon","Türkiye","TR","Turkey"],"timezone":"Europe\/Istanbul","weight":1274,"coordinates":{"lat":40.99419,"lon":39.78168},"type":"airport","searchable":true},{"name":"Trabzon","country_name":"Türkiye","country_code":"TR","code":"TZX","index_strings":["TZX","Trabzon","Türkiye","TR","Turkey"],"timezone":"Europe\/Istanbul","weight":1274,"coordinates":{"lat":40.99419,"lon":39.78168},"type":"city","searchable":false},{"name":"Norveç","weight":1260,"type":"country","code":"NO","searchable":true,"index_strings":["NO","Norveç","Norway"]},{"name":"Kunming","country_name":"Çin","country_code":"CN","code":"KMG","index_strings":["KMG","Kunming","Çin","CN","China"],"timezone":"Asia\/Shanghai","weight":1247,"coordinates":{"lat":25.101944,"lon":102.92917},"type":"city","searchable":false},{"name":"Kunming Changshui International","country_name":"Çin","city_code":"KMG","city_name":"Kunming","code":"KMG","country_code":"CN","index_strings":["KMG","Kunming Changshui International","Kunming","Çin","CN","China"],"timezone":"Asia\/Shanghai","weight":1247,"coordinates":{"lat":25.101944,"lon":102.92917},"type":"airport","searchable":true},{"name":"Güney Afrika","weight":1232,"type":"country","code":"ZA","searchable":true,"index_strings":["ZA","Güney Afrika","South Africa"]},{"name":"Chumphon","country_name":"Tayland","city_code":"CJM","city_name":"Chumphon","code":"CJM","country_code":"TH","index_strings":["CJM","Chumphon","Tayland","TH","Chumphon Airport","Thailand"],"timezone":"Asia\/Bangkok","weight":1230,"coordinates":{"lat":10.709722,"lon":99.36389},"type":"airport","searchable":true},{"name":"Chumphon","country_name":"Tayland","country_code":"TH","code":"CJM","index_strings":["CJM","Chumphon","Tayland","TH","Thailand"],"timezone":"Asia\/Bangkok","weight":1230,"coordinates":{"lat":10.709722,"lon":99.36389},"type":"city","searchable":false},{"name":"İran","weight":1228,"type":"country","code":"IR","searchable":true,"index_strings":["IR","İran","Iran"]},{"name":"Viyana","country_name":"Avusturya","country_code":"AT","code":"VIE","index_strings":["VIE","Viyana","Avusturya","AT","Vienna","Austria"],"timezone":"Europe\/Vienna","weight":1197,"coordinates":{"lat":48.2081743,"lon":16.3738189},"type":"city","searchable":true},{"name":"Auckland","country_name":"Yeni Zelanda","country_code":"NZ","code":"AKL","index_strings":["AKL","Auckland","Yeni Zelanda","NZ","New Zealand"],"timezone":"Pacific\/Auckland","weight":1159,"coordinates":{"lat":-36.8484597,"lon":174.7633315},"type":"city","searchable":false},{"name":"Auckland International","country_name":"Yeni Zelanda","city_code":"AKL","city_name":"Auckland","code":"AKL","country_code":"NZ","index_strings":["AKL","Auckland International","Auckland","Yeni Zelanda","NZ","New Zealand"],"timezone":"Pacific\/Auckland","weight":1159,"coordinates":{"lat":-37.004787,"lon":174.78352},"type":"airport","searchable":true},{"name":"Samsun Carsamba","country_name":"Türkiye","city_code":"SZF","city_name":"Samsun","code":"SZF","country_code":"TR","index_strings":["SZF","Samsun Carsamba","Samsun","Türkiye","TR","Carsamba","Turkey"],"timezone":"Europe\/Istanbul","weight":1155,"coordinates":{"lat":41.25738,"lon":36.555058},"type":"airport","searchable":true},{"name":"Samsun","country_name":"Türkiye","country_code":"TR","code":"SZF","index_strings":["SZF","Samsun","Türkiye","TR","Turkey"],"timezone":"Europe\/Istanbul","weight":1155,"coordinates":{"lat":41.25738,"lon":36.555058},"type":"city","searchable":false},{"name":"San Francisco Uluslararası Havalimanı","city_code":"SFO","city_name":"San Francisco","state_code":"CA","coordinates":{"lat":37.615215,"lon":-122.38988},"type":"airport","country_name":"ABD","country_code":"US","code":"SFO","index_strings":["SFO","San Francisco Uluslararası Havalimanı","San Francisco","ABD","US","San Francisco International","United States"],"timezone":"America\/Los_Angeles","weight":1152,"searchable":true},{"name":"San Francisco","country_name":"ABD","country_code":"US","code":"SFO","index_strings":["SFO","San Francisco","ABD","US","United States"],"timezone":"America\/Los_Angeles","weight":1152,"coordinates":{"lat":37.7749295,"lon":-122.4194155},"type":"city","searchable":false},{"name":"Chicago","country_name":"ABD","country_code":"US","code":"CHI","index_strings":["CHI","Chicago","ABD","US","United States"],"timezone":"America\/Chicago","weight":1143,"coordinates":{"lat":41.8781136,"lon":-87.6297982},"type":"city","searchable":true},{"name":"Berlin Brandenburg","country_name":"Almanya","city_code":"BER","city_name":"Berlin","code":"BER","country_code":"DE","index_strings":["BER","Berlin Brandenburg","Berlin","Almanya","DE","Brandenburg","Germany"],"timezone":"Europe\/Berlin","weight":1139,"coordinates":{"lat":52.36667,"lon":13.503333},"type":"airport","searchable":true},{"name":"Kayseri Erkilet","country_name":"Türkiye","city_code":"ASR","city_name":"Kayseri","code":"ASR","country_code":"TR","index_strings":["ASR","Kayseri Erkilet","Kayseri","Türkiye","TR","Erkilet International Airport","Turkey"],"timezone":"Europe\/Istanbul","weight":1135,"coordinates":{"lat":38.7742,"lon":35.490707},"type":"airport","searchable":true},{"name":"Kayseri","country_name":"Türkiye","country_code":"TR","code":"ASR","index_strings":["ASR","Kayseri","Türkiye","TR","Turkey"],"timezone":"Europe\/Istanbul","weight":1135,"coordinates":{"lat":38.7742,"lon":35.490707},"type":"city","searchable":false},{"name":"Seul","country_name":"Güney Kore","country_code":"KR","code":"SEL","index_strings":["SEL","Seul","Güney Kore","KR","Seoul","South Korea"],"timezone":"Asia\/Seoul","weight":1131,"coordinates":{"lat":37.566535,"lon":126.9779692},"type":"city","searchable":true},{"name":"Danimarka","weight":1122,"type":"country","code":"DK","searchable":true,"index_strings":["DK","Danimarka","Denmark"]},{"name":"Kalküta","country_name":"Hindistan","country_code":"IN","code":"CCU","index_strings":["CCU","Kalküta","Hindistan","IN","Kolkata","India"],"timezone":"Asia\/Kolkata","weight":1110,"coordinates":{"lat":22.64531,"lon":88.43931000000001},"type":"city","searchable":false},{"name":"Kolkata\/Calcutta Netaji Subhas Chandra","country_name":"Hindistan","city_code":"CCU","city_name":"Kalküta","code":"CCU","country_code":"IN","index_strings":["CCU","Kolkata\/Calcutta Netaji Subhas Chandra","Kalküta","Hindistan","IN","Netaji Subhas Chandra","Kolkata","India"],"timezone":"Asia\/Kolkata","weight":1110,"coordinates":{"lat":22.64531,"lon":88.43931000000001},"type":"airport","searchable":true},{"name":"Denpasar-Bali Ngurah Rai","country_name":"Endonezya","city_code":"DPS","city_name":"Denpasar","code":"DPS","country_code":"ID","index_strings":["DPS","Denpasar-Bali Ngurah Rai","Denpasar","Endonezya","ID","Ngurah Rai International","Denpasar Bali","Indonesia"],"timezone":"Asia\/Makassar","weight":1101,"coordinates":{"lat":-8.74446,"lon":115.16331},"type":"airport","searchable":true},{"name":"Denpasar","country_name":"Endonezya","country_code":"ID","code":"DPS","index_strings":["бали","bali","DPS","Denpasar","Endonezya","ID","Denpasar Bali","Indonesia"],"timezone":"Asia\/Makassar","weight":1101,"coordinates":{"lat":-8.74446,"lon":115.16331},"type":"city","searchable":false},{"name":"Zürih Havalimanı","country_name":"İsviçre","city_code":"ZRH","city_name":"Zürih","code":"ZRH","country_code":"CH","index_strings":["ZRH","Zürih Havalimanı","Zürih","İsviçre","CH","Zurich","Switzerland"],"timezone":"Europe\/Zurich","weight":1100,"coordinates":{"lat":47.450603,"lon":8.561745999999999},"type":"airport","searchable":true},{"name":"Ranong","country_name":"Tayland","country_code":"TH","code":"UNN","index_strings":["UNN","Ranong","Tayland","TH","Thailand"],"timezone":"Asia\/Bangkok","weight":1096,"coordinates":{"lat":9.852778000000001,"lon":98.629166},"type":"city","searchable":false},{"name":"Ranong","country_name":"Tayland","city_code":"UNN","city_name":"Ranong","code":"UNN","country_code":"TH","index_strings":["UNN","Ranong","Tayland","TH","Thailand"],"timezone":"Asia\/Bangkok","weight":1096,"coordinates":{"lat":9.852778000000001,"lon":98.629166},"type":"airport","searchable":true},{"name":"Tokyo Narita International","country_name":"Japonya","city_code":"TYO","city_name":"Tokyo","code":"NRT","country_code":"JP","index_strings":["NRT","Tokyo Narita International","Tokyo","TYO","Japonya","JP","Japan"],"timezone":"Asia\/Tokyo","weight":1087,"coordinates":{"lat":35.773212,"lon":140.38744},"type":"airport","searchable":true},{"name":"Gürcistan","weight":1081,"type":"country","code":"GE","searchable":true,"index_strings":["GE","Gürcistan","Georgia"]},{"name":"Seoul Incheon International","country_name":"Güney Kore","city_code":"SEL","city_name":"Seul","code":"ICN","country_code":"KR","index_strings":["ICN","Seoul Incheon International","Seul","SEL","Güney Kore","KR","Seoul (Incheon)","Seoul","South Korea"],"timezone":"Asia\/Seoul","weight":1078,"coordinates":{"lat":37.448524,"lon":126.45123},"type":"airport","searchable":true},{"name":"Shenzhen","country_name":"Çin","country_code":"CN","code":"SZX","index_strings":["SZX","Shenzhen","Çin","CN","China"],"timezone":"Asia\/Shanghai","weight":1050,"coordinates":{"lat":22.543099,"lon":114.057868},"type":"city","searchable":true},{"name":"Shenzhen Bao'an International","country_name":"Çin","city_code":"SZX","city_name":"Shenzhen","code":"SZX","country_code":"CN","index_strings":["SZX","Shenzhen Bao'an International","Shenzhen","Çin","CN","China"],"timezone":"Asia\/Shanghai","weight":1049,"coordinates":{"lat":22.639444,"lon":113.81084},"type":"airport","searchable":true},{"name":"Miami","country_name":"ABD","country_code":"US","code":"MIA","index_strings":["MIA","Miami","ABD","US","United States"],"timezone":"America\/New_York","weight":1031,"coordinates":{"lat":25.7889689,"lon":-80.2264393},"type":"city","searchable":false},{"name":"Madrit","country_name":"İspanya","country_code":"ES","code":"MAD","index_strings":["MAD","Madrit","İspanya","ES","Madrid","Spain"],"timezone":"Europe\/Madrid","weight":1027,"coordinates":{"lat":40.4166909,"lon":-3.7003454},"type":"city","searchable":true},{"name":"Brezilya","weight":1022,"type":"country","code":"BR","searchable":true,"index_strings":["BR","Brezilya","Brazil"]},{"name":"Pai","country_name":"Tayland","city_code":"PYY","city_name":"Pai District","code":"PYY","country_code":"TH","index_strings":["PYY","Pai","Pai District","Tayland","TH","Thailand"],"timezone":"Asia\/Bangkok","weight":1008,"coordinates":{"lat":19.371666,"lon":98.43667000000001},"type":"airport","searchable":true},{"name":"Pai District","country_name":"Tayland","country_code":"TH","code":"PYY","index_strings":["PYY","Pai District","Tayland","TH","Pai","Thailand"],"timezone":"Asia\/Bangkok","weight":1008,"coordinates":{"lat":19.371666,"lon":98.43667000000001},"type":"city","searchable":false},{"name":"Busan","country_name":"Güney Kore","country_code":"KR","code":"PUS","index_strings":["PUS","Busan","Güney Kore","KR","South Korea"],"timezone":"Asia\/Seoul","weight":1008,"coordinates":{"lat":35.179317,"lon":128.94873},"type":"city","searchable":false},{"name":"Busan Gimhae International","country_name":"Güney Kore","city_code":"PUS","city_name":"Busan","code":"PUS","country_code":"KR","index_strings":["PUS","Busan Gimhae International","Busan","Güney Kore","KR","Gimhae","South Korea"],"timezone":"Asia\/Seoul","weight":1008,"coordinates":{"lat":35.179317,"lon":128.94873},"type":"airport","searchable":true},{"name":"Loei","country_name":"Tayland","country_code":"TH","code":"LOE","index_strings":["LOE","Loei","Tayland","TH","Thailand"],"timezone":"Asia\/Bangkok","weight":1005,"coordinates":{"lat":17.45,"lon":101.73333},"type":"city","searchable":false},{"name":"Loei","country_name":"Tayland","city_code":"LOE","city_name":"Loei","code":"LOE","country_code":"TH","index_strings":["LOE","Loei","Tayland","TH","Thailand"],"timezone":"Asia\/Bangkok","weight":1004,"coordinates":{"lat":17.45,"lon":101.73333},"type":"airport","searchable":true},{"name":"Belçika","weight":992,"type":"country","code":"BE","searchable":true,"index_strings":["BE","Belçika","Belgium"]},{"name":"Polonya","weight":988,"type":"country","code":"PL","searchable":true,"index_strings":["PL","Polonya","Poland"]},{"name":"İrlanda","weight":967,"type":"country","code":"IE","searchable":true,"index_strings":["IE","İrlanda","Ireland"]},{"name":"Berlin","country_name":"Almanya","country_code":"DE","code":"BER","index_strings":["BER","Berlin","Almanya","DE","Germany"],"timezone":"Europe\/Berlin","weight":938,"coordinates":{"lat":52.5234051,"lon":13.4113999},"type":"city","searchable":true},{"name":"Narathiwat","country_name":"Tayland","country_code":"TH","code":"NAW","index_strings":["NAW","Narathiwat","Tayland","TH","Thailand"],"timezone":"Asia\/Bangkok","weight":921,"coordinates":{"lat":6.516667,"lon":101.75},"type":"city","searchable":false},{"name":"Narathiwat","country_name":"Tayland","city_code":"NAW","city_name":"Narathiwat","code":"NAW","country_code":"TH","index_strings":["NAW","Narathiwat","Tayland","TH","Thailand"],"timezone":"Asia\/Bangkok","weight":921,"coordinates":{"lat":6.516667,"lon":101.75},"type":"airport","searchable":true},{"name":"Prag","country_name":"Çek Cumhuriyeti","country_code":"CZ","code":"PRG","index_strings":["PRG","Prag","Çek Cumhuriyeti","CZ","Prague","Czech Republic"],"timezone":"Europe\/Prague","weight":920,"coordinates":{"lat":50.0878114,"lon":14.4204598},"type":"city","searchable":true},{"name":"Prague Ruzyne","country_name":"Çek Cumhuriyeti","city_code":"PRG","city_name":"Prag","code":"PRG","country_code":"CZ","index_strings":["PRG","Prague Ruzyne","Prag","Çek Cumhuriyeti","CZ","Prague Vaclav Havel Airport","Prague","Czech Republic"],"timezone":"Europe\/Prague","weight":917,"coordinates":{"lat":50.10619,"lon":14.266638},"type":"airport","searchable":true},{"name":"Mandalay International","country_name":"Myanmar (Burma)","city_code":"MDL","city_name":"Mandalay","code":"MDL","country_code":"MM","index_strings":["MDL","Mandalay International","Mandalay","Myanmar (Burma)","MM","Myanmar"],"timezone":"Asia\/Rangoon","weight":914,"coordinates":{"lat":21.940052,"lon":96.08750000000001},"type":"airport","searchable":true},{"name":"Mandalay","country_name":"Myanmar (Burma)","country_code":"MM","code":"MDL","index_strings":["MDL","Mandalay","Myanmar (Burma)","MM","Myanmar"],"timezone":"Asia\/Rangoon","weight":914,"coordinates":{"lat":21.940052,"lon":96.08750000000001},"type":"city","searchable":false},{"name":"Viyana Uluslararası Havalimanı","country_name":"Avusturya","city_code":"VIE","city_name":"Viyana","code":"VIE","country_code":"AT","index_strings":["VIE","Viyana Uluslararası Havalimanı","Viyana","Avusturya","AT","Vienna International","Vienna","Austria"],"timezone":"Europe\/Vienna","weight":910,"coordinates":{"lat":48.11972,"lon":16.563583},"type":"airport","searchable":true},{"name":"Maldivler","weight":900,"type":"country","code":"MV","searchable":true,"index_strings":["MV","Maldivler","Maldives"]},{"name":"Finlandiya","weight":883,"type":"country","code":"FI","searchable":true,"index_strings":["FI","Finlandiya","Finland"]},{"name":"Tiflis","country_name":"Gürcistan","country_code":"GE","code":"TBS","index_strings":["TBS","Tiflis","Gürcistan","GE","Tbilisi","Georgia"],"timezone":"Asia\/Tbilisi","weight":881,"coordinates":{"lat":41.674065,"lon":44.958958},"type":"city","searchable":false},{"name":"Tiflis Uluslararası Havalimanı","country_name":"Gürcistan","city_code":"TBS","city_name":"Tiflis","code":"TBS","country_code":"GE","index_strings":["TBS","Tiflis Uluslararası Havalimanı","Tiflis","Gürcistan","GE","Tbilisi International Airport","Tbilisi","Georgia"],"timezone":"Asia\/Tbilisi","weight":881,"coordinates":{"lat":41.674065,"lon":44.958958},"type":"airport","searchable":true},{"name":"Vancouver","country_name":"Kanada","country_code":"CA","code":"YVR","index_strings":["YVR","Vancouver","Kanada","CA","Canada"],"timezone":"America\/Vancouver","weight":870,"coordinates":{"lat":49.261226,"lon":-123.1139268},"type":"city","searchable":true},{"name":"Chicago FSS","city_code":"CHI","city_name":"Chicago","state_code":"IL","coordinates":{"lat":41.8781136,"lon":-87.6297982},"type":"airport","country_name":"ABD","country_code":"US","code":"CHI","index_strings":["CHI","Chicago FSS","Chicago","ABD","US","United States"],"timezone":"America\/Chicago","weight":870,"searchable":true},{"name":"Vancouver International","city_code":"YVR","city_name":"Vancouver","state_code":"BC","coordinates":{"lat":49.1947,"lon":-123.17919},"type":"airport","country_name":"Kanada","country_code":"CA","code":"YVR","index_strings":["YVR","Vancouver International","Vancouver","Kanada","CA","Canada"],"timezone":"America\/Vancouver","weight":868,"searchable":true},{"name":"Newark","country_name":"ABD","country_code":"US","code":"NYC","index_strings":["NYC","Newark","ABD","US","New York","United States"],"timezone":"America\/New_York","weight":868,"coordinates":{"lat":40.7143528,"lon":-74.00597310000001},"type":"city","searchable":true},{"name":"Portekiz","weight":863,"type":"country","code":"PT","searchable":true,"index_strings":["PT","Portekiz","Portugal"]},{"name":"İsrail","weight":858,"type":"country","code":"IL","searchable":true,"index_strings":["IL","İsrail","Israel"]},{"name":"Gaziantep Oguzeli","country_name":"Türkiye","city_code":"GZT","city_name":"Gaziantep","code":"GZT","country_code":"TR","index_strings":["GZT","Gaziantep Oguzeli","Gaziantep","Türkiye","TR","Turkey"],"timezone":"Europe\/Istanbul","weight":836,"coordinates":{"lat":36.944935,"lon":37.473747},"type":"airport","searchable":true},{"name":"Gaziantep","country_name":"Türkiye","country_code":"TR","code":"GZT","index_strings":["GZT","Gaziantep","Türkiye","TR","Turkey"],"timezone":"Europe\/Istanbul","weight":836,"coordinates":{"lat":36.944935,"lon":37.473747},"type":"city","searchable":false},{"name":"Barselona","country_name":"İspanya","country_code":"ES","code":"BCN","index_strings":["BCN","Barselona","İspanya","ES","Barcelona","Spain"],"timezone":"Europe\/Madrid","weight":819,"coordinates":{"lat":41.387917,"lon":2.1699187},"type":"city","searchable":true},{"name":"Barcelona Uluslararası Havalimanı","country_name":"İspanya","city_code":"BCN","city_name":"Barselona","code":"BCN","country_code":"ES","index_strings":["BCN","Barcelona Uluslararası Havalimanı","Barselona","İspanya","ES","El Prat De Llobregat","Barcelona","Spain"],"timezone":"Europe\/Madrid","weight":818,"coordinates":{"lat":41.30303,"lon":2.07593},"type":"airport","searchable":true},{"name":"Sukhothai","country_name":"Tayland","country_code":"TH","code":"THS","index_strings":["sawankolok","саванколок","THS","Sukhothai","Tayland","TH","Thailand"],"timezone":"Asia\/Bangkok","weight":799,"coordinates":{"lat":17.223057,"lon":99.82222},"type":"city","searchable":false},{"name":"Sukhothai","country_name":"Tayland","city_code":"THS","city_name":"Sukhothai","code":"THS","country_code":"TH","index_strings":["THS","Sukhothai","Tayland","TH","Thailand"],"timezone":"Asia\/Bangkok","weight":799,"coordinates":{"lat":17.223057,"lon":99.82222},"type":"airport","searchable":true},{"name":"Las Vegas","country_name":"ABD","country_code":"US","code":"LAS","index_strings":["LAS","Las Vegas","ABD","US","United States"],"timezone":"America\/Los_Angeles","weight":789,"coordinates":{"lat":36.114646,"lon":-115.172816},"type":"city","searchable":true},{"name":"Las Vegas McCarran International","city_code":"LAS","city_name":"Las Vegas","state_code":"NV","coordinates":{"lat":36.086945,"lon":-115.1486},"type":"airport","country_name":"ABD","country_code":"US","code":"LAS","index_strings":["LAS","Las Vegas McCarran International","Las Vegas","ABD","US","Mc Carran International","United States"],"timezone":"America\/Los_Angeles","weight":788,"searchable":true},{"name":"Phnom Penh International","country_name":"Kamboçya","city_code":"PNH","city_name":"Phnom Penh","code":"PNH","country_code":"KH","index_strings":["PNH","Phnom Penh International","Phnom Penh","Kamboçya","KH","Cambodia"],"timezone":"Asia\/Phnom_Penh","weight":783,"coordinates":{"lat":11.546111,"lon":104.84778},"type":"airport","searchable":true},{"name":"Phnom Penh","country_name":"Kamboçya","country_code":"KH","code":"PNH","index_strings":["PNH","Phnom Penh","Kamboçya","KH","Cambodia"],"timezone":"Asia\/Phnom_Penh","weight":783,"coordinates":{"lat":11.546111,"lon":104.84778},"type":"city","searchable":false},{"name":"Malé","country_name":"Maldivler","country_code":"MV","code":"MLE","index_strings":["MLE","Malé","Maldivler","MV","Male","Maldives"],"timezone":"Indian\/Maldives","weight":781,"coordinates":{"lat":4.201389,"lon":73.524445},"type":"city","searchable":false},{"name":"Male Ibrahim Nasir International","country_name":"Maldivler","city_code":"MLE","city_name":"Malé","code":"MLE","country_code":"MV","index_strings":["MLE","Male Ibrahim Nasir International","Malé","Maldivler","MV","Malé International Airport","Male","Maldives"],"timezone":"Indian\/Maldives","weight":781,"coordinates":{"lat":4.201389,"lon":73.524445},"type":"airport","searchable":true},{"name":"Richmond","country_name":"ABD","country_code":"US","code":"RIC","index_strings":["RIC","Richmond","ABD","US","United States"],"timezone":"America\/New_York","weight":775,"coordinates":{"lat":37.542979,"lon":-77.469092},"type":"city","searchable":false},{"name":"Richmond International (Byrd Field)","city_code":"RIC","city_name":"Richmond","state_code":"VA","coordinates":{"lat":37.50611,"lon":-77.32250000000001},"type":"airport","country_name":"ABD","country_code":"US","code":"RIC","index_strings":["RIC","Richmond International (Byrd Field)","Richmond","ABD","US","Richmond International Airport","United States"],"timezone":"America\/New_York","weight":775,"searchable":true},{"name":"Küba","weight":756,"type":"country","code":"CU","searchable":true,"index_strings":["CU","Küba","Cuba"]},{"name":"Kiev","country_name":"İspanya","country_code":"UA","code":"IEV","index_strings":["IEV","Kiev","İspanya","UA","Ukraine"],"timezone":"Europe\/Kiev","weight":754,"coordinates":{"lat":50.45,"lon":30.5},"type":"city","searchable":true},{"name":"Tel Aviv","country_name":"İsrail","country_code":"IL","code":"TLV","index_strings":["TLV","Tel Aviv","İsrail","IL","Tel Aviv-Yafo","Israel"],"timezone":"Asia\/Jerusalem","weight":748,"coordinates":{"lat":32.000454,"lon":34.870743},"type":"city","searchable":true},{"name":"Nanning","country_name":"Çin","country_code":"CN","code":"NNG","index_strings":["NNG","Nanning","Çin","CN","China"],"timezone":"Asia\/Shanghai","weight":743,"coordinates":{"lat":22.61321,"lon":108.1675},"type":"city","searchable":false},{"name":"Nanning Wuxu International","country_name":"Çin","city_code":"NNG","city_name":"Nanning","code":"NNG","country_code":"CN","index_strings":["NNG","Nanning Wuxu International","Nanning","Çin","CN","China"],"timezone":"Asia\/Shanghai","weight":743,"coordinates":{"lat":22.61321,"lon":108.1675},"type":"airport","searchable":true},{"name":"Kopenhag","country_name":"Danimarka","country_code":"DK","code":"CPH","index_strings":["CPH","Kopenhag","Danimarka","DK","Copenhagen","Denmark"],"timezone":"Europe\/Copenhagen","weight":743,"coordinates":{"lat":55.693403,"lon":12.583046},"type":"city","searchable":true},{"name":"Copenhagen Kastrup","country_name":"Danimarka","city_code":"CPH","city_name":"Kopenhag","code":"CPH","country_code":"DK","index_strings":["CPH","Copenhagen Kastrup","Kopenhag","Danimarka","DK","Kastrup","Copenhagen","Denmark"],"timezone":"Europe\/Copenhagen","weight":741,"coordinates":{"lat":55.62905,"lon":12.647601},"type":"airport","searchable":true},{"name":"Tel Aviv-Yafo Ben Gurion International","country_name":"İsrail","city_code":"TLV","city_name":"Tel Aviv","code":"TLV","country_code":"IL","index_strings":["TLV","Tel Aviv-Yafo Ben Gurion International","Tel Aviv","İsrail","IL","Ben Gurion International","Tel Aviv-Yafo","Israel"],"timezone":"Asia\/Jerusalem","weight":740,"coordinates":{"lat":32.000454,"lon":34.870743},"type":"airport","searchable":true},{"name":"Boston","country_name":"ABD","country_code":"US","code":"BOS","index_strings":["BOS","Boston","ABD","US","United States"],"timezone":"America\/New_York","weight":727,"coordinates":{"lat":42.3584308,"lon":-71.0597732},"type":"city","searchable":true},{"name":"Boston Logan International","city_code":"BOS","city_name":"Boston","state_code":"MA","coordinates":{"lat":42.36646,"lon":-71.02018},"type":"airport","country_name":"ABD","country_code":"US","code":"BOS","index_strings":["BOS","Boston Logan International","Boston","ABD","US","Logan International","United States"],"timezone":"America\/New_York","weight":726,"searchable":true},{"name":"İsveç","weight":725,"type":"country","code":"SE","searchable":true,"index_strings":["SE","İsveç","Sweden"]},{"name":"Fas","weight":722,"type":"country","code":"MA","searchable":true,"index_strings":["MA","Fas","Morocco"]},{"name":"Londra","country_name":"Birleşik Krallık","country_code":"GB","code":"LON","index_strings":["LON","Londra","Birleşik Krallık","GB","London","United Kingdom"],"timezone":"Europe\/London","weight":716,"coordinates":{"lat":51.51,"lon":0.06},"type":"city","searchable":true},{"name":"Chennai International","country_name":"Hindistan","city_code":"MAA","city_name":"Chennai","code":"MAA","country_code":"IN","index_strings":["MAA","Chennai International","Chennai","Hindistan","IN","Madras International (Meenambakkam)","India"],"timezone":"Asia\/Kolkata","weight":701,"coordinates":{"lat":12.982267,"lon":80.16378},"type":"airport","searchable":true},{"name":"Chennai","country_name":"Hindistan","country_code":"IN","code":"MAA","index_strings":["MAA","Chennai","Hindistan","IN","India"],"timezone":"Asia\/Kolkata","weight":701,"coordinates":{"lat":12.982267,"lon":80.16378},"type":"city","searchable":false},{"name":"Bengaluru Kempegowda International","country_name":"Hindistan","city_code":"BLR","city_name":"Bangalore","code":"BLR","country_code":"IN","index_strings":["BLR","Bengaluru Kempegowda International","Bangalore","Hindistan","IN","Bangalore International Airport","India"],"timezone":"Asia\/Kolkata","weight":678,"coordinates":{"lat":13.198889,"lon":77.70556000000001},"type":"airport","searchable":true},{"name":"Bangalore","country_name":"Hindistan","country_code":"IN","code":"BLR","index_strings":["BLR","Bangalore","Hindistan","IN","India"],"timezone":"Asia\/Kolkata","weight":678,"coordinates":{"lat":13.198889,"lon":77.70556000000001},"type":"city","searchable":false},{"name":"Kenya","weight":664,"type":"country","code":"KE","searchable":true,"index_strings":["KE","Kenya"]},{"name":"Jeju-si","country_name":"Güney Kore","country_code":"KR","code":"CJU","index_strings":["CJU","Jeju-si","Güney Kore","KR","Jeju","South Korea"],"timezone":"Asia\/Seoul","weight":651,"coordinates":{"lat":33.4996213,"lon":126.5311884},"type":"city","searchable":false},{"name":"Jeju International","country_name":"Güney Kore","city_code":"CJU","city_name":"Jeju-si","code":"CJU","country_code":"KR","index_strings":["CJU","Jeju International","Jeju-si","Güney Kore","KR","Jeju Airport","Jeju","South Korea"],"timezone":"Asia\/Seoul","weight":651,"coordinates":{"lat":33.5067,"lon":126.49312},"type":"airport","searchable":true},{"name":"Madrid Adolfo Suarez-Barajas","country_name":"İspanya","city_code":"MAD","city_name":"Madrit","code":"MAD","country_code":"ES","index_strings":["MAD","Madrid Adolfo Suarez-Barajas","Madrit","İspanya","ES","Barajas","Madrid","Spain"],"timezone":"Europe\/Madrid","weight":651,"coordinates":{"lat":40.46515,"lon":-3.570209},"type":"airport","searchable":true},{"name":"Brüksel","country_name":"Belçika","country_code":"BE","code":"BRU","index_strings":["BRU","Brüksel","Belçika","BE","Brussels","Belgium"],"timezone":"Europe\/Brussels","weight":650,"coordinates":{"lat":50.8503396,"lon":4.3517103},"type":"city","searchable":true},{"name":"Manchester","country_name":"Birleşik Krallık","city_code":"MAN","city_name":"Manchester","code":"MAN","country_code":"GB","index_strings":["MAN","Manchester","Birleşik Krallık","GB","Ringway International Airport","United Kingdom"],"timezone":"Europe\/London","weight":643,"coordinates":{"lat":53.362907,"lon":-2.273354},"type":"airport","searchable":true},{"name":"Manchester","country_name":"Birleşik Krallık","country_code":"GB","code":"MAN","index_strings":["MAN","Manchester","Birleşik Krallık","GB","United Kingdom"],"timezone":"Europe\/London","weight":643,"coordinates":{"lat":53.4807125,"lon":-2.2343765},"type":"city","searchable":false},{"name":"Venedik","country_name":"İtalya","country_code":"IT","code":"VCE","index_strings":["VCE","Venedik","İtalya","IT","Venice","Italy"],"timezone":"Europe\/Rome","weight":640,"coordinates":{"lat":45.4343363,"lon":12.3387844},"type":"city","searchable":true},{"name":"Brussels","country_name":"Belçika","city_code":"BRU","city_name":"Brüksel","code":"BRU","country_code":"BE","index_strings":["BRU","Brussels","Brüksel","Belçika","BE","Brussels Airport","Belgium"],"timezone":"Europe\/Brussels","weight":634,"coordinates":{"lat":50.89717,"lon":4.483602},"type":"airport","searchable":true},{"name":"Kolombo","country_name":"Sri Lanka","country_code":"LK","code":"CMB","index_strings":["CMB","Kolombo","Sri Lanka","LK","Colombo"],"timezone":"Asia\/Colombo","weight":634,"coordinates":{"lat":6.927468,"lon":79.848358},"type":"city","searchable":true},{"name":"Colombo Bandaranaike International","country_name":"Sri Lanka","city_code":"CMB","city_name":"Kolombo","code":"CMB","country_code":"LK","index_strings":["CMB","Colombo Bandaranaike International","Kolombo","Sri Lanka","LK","Bandaranaike International","Colombo"],"timezone":"Asia\/Colombo","weight":633,"coordinates":{"lat":7.174112,"lon":79.8865},"type":"airport","searchable":true},{"name":"Kahire","country_name":"Mısır","country_code":"EG","code":"CAI","index_strings":["CAI","Kahire","Mısır","EG","Cairo","Egypt"],"timezone":"Africa\/Cairo","weight":633,"coordinates":{"lat":30.120106,"lon":31.40647},"type":"city","searchable":false},{"name":"Cairo International","country_name":"Mısır","city_code":"CAI","city_name":"Kahire","code":"CAI","country_code":"EG","index_strings":["CAI","Cairo International","Kahire","Mısır","EG","Cairo International Airport","Cairo","Egypt"],"timezone":"Africa\/Cairo","weight":633,"coordinates":{"lat":30.120106,"lon":31.40647},"type":"airport","searchable":true},{"name":"Konya","country_name":"Türkiye","city_code":"KYA","city_name":"Konya","code":"KYA","country_code":"TR","index_strings":["KYA","Konya","Türkiye","TR","Turkey"],"timezone":"Europe\/Istanbul","weight":617,"coordinates":{"lat":37.979168,"lon":32.56222},"type":"airport","searchable":true},{"name":"Konya","country_name":"Türkiye","country_code":"TR","code":"KYA","index_strings":["KYA","Konya","Türkiye","TR","Turkey"],"timezone":"Europe\/Istanbul","weight":617,"coordinates":{"lat":37.979168,"lon":32.56222},"type":"city","searchable":false},{"name":"Oslo","country_name":"Norveç","country_code":"NO","code":"OSL","index_strings":["OSL","Oslo","Norveç","NO","Norway"],"timezone":"Europe\/Oslo","weight":609,"coordinates":{"lat":59.9138688,"lon":10.7522454},"type":"city","searchable":true},{"name":"Miami International","city_code":"MIA","city_name":"Miami","state_code":"FL","coordinates":{"lat":25.796,"lon":-80.27824},"type":"airport","country_name":"ABD","country_code":"US","code":"MIA","index_strings":["MIA","Miami International","Miami","ABD","US","Miami International Airport","United States"],"timezone":"America\/New_York","weight":609,"searchable":true},{"name":"Beyaz Rusya","weight":608,"type":"country","code":"BY","searchable":true,"index_strings":["BY","Beyaz Rusya","Belarus"]},{"name":"Denizli Cardak","country_name":"Türkiye","city_code":"DNZ","city_name":"Denizli","code":"DNZ","country_code":"TR","index_strings":["DNZ","Denizli Cardak","Denizli","Türkiye","TR","Cardak","Turkey"],"timezone":"Europe\/Istanbul","weight":597,"coordinates":{"lat":37.787224,"lon":29.703333},"type":"airport","searchable":true},{"name":"Denizli","country_name":"Türkiye","country_code":"TR","code":"DNZ","index_strings":["DNZ","Denizli","Türkiye","TR","Turkey"],"timezone":"Europe\/Istanbul","weight":597,"coordinates":{"lat":37.787224,"lon":29.703333},"type":"city","searchable":false},{"name":"Nevsehir Kapodokya","country_name":"Türkiye","city_code":"NAV","city_name":"Nevşehir","code":"NAV","country_code":"TR","index_strings":["NAV","Nevsehir Kapodokya","Nevşehir","Türkiye","TR","Nevsehir","Turkey"],"timezone":"Europe\/Istanbul","weight":597,"coordinates":{"lat":38.63333,"lon":34.716667},"type":"airport","searchable":true},{"name":"Nevşehir","country_name":"Türkiye","country_code":"TR","code":"NAV","index_strings":["NAV","Nevşehir","Türkiye","TR","Nevsehir","Turkey"],"timezone":"Europe\/Istanbul","weight":597,"coordinates":{"lat":38.63333,"lon":34.716667},"type":"city","searchable":false},{"name":"Sri Lanka","weight":596,"type":"country","code":"LK","searchable":true,"index_strings":["LK","Sri Lanka"]},{"name":"Nijerya","weight":592,"type":"country","code":"NG","searchable":true,"index_strings":["NG","Nijerya","Nigeria"]},{"name":"Orlando","country_name":"ABD","country_code":"US","code":"ORL","index_strings":["ORL","Orlando","ABD","US","United States"],"timezone":"America\/New_York","weight":592,"coordinates":{"lat":28.533611,"lon":-81.386667},"type":"city","searchable":true},{"name":"Oslo Gardermoen","country_name":"Norveç","city_code":"OSL","city_name":"Oslo","code":"OSL","country_code":"NO","index_strings":["OSL","Oslo Gardermoen","Oslo","Norveç","NO","Gardermoen","Norway"],"timezone":"Europe\/Oslo","weight":589,"coordinates":{"lat":60.19419,"lon":11.100411},"type":"airport","searchable":true},{"name":"New York John F Kennedy International","city_code":"NYC","city_name":"Newark","state_code":"NY","coordinates":{"lat":40.642334,"lon":-73.78816999999999},"type":"airport","country_name":"ABD","country_code":"US","code":"JFK","index_strings":["JFK","New York John F Kennedy International","Newark","NYC","ABD","US","John F Kennedy International","New York","United States"],"timezone":"America\/New_York","weight":585,"searchable":true},{"name":"Kazakistan","weight":579,"type":"country","code":"KZ","searchable":true,"index_strings":["KZ","Kazakistan","Kazakhstan"]},{"name":"Dominik Cumhuriyeti","weight":577,"type":"country","code":"DO","searchable":true,"index_strings":["DO","Dominik Cumhuriyeti","Dominican Republic"]},{"name":"Kütahya","country_name":"Türkiye","country_code":"TR","code":"KZR","index_strings":["KZR","Kütahya","Türkiye","TR","Kutahya","Turkey"],"timezone":"Europe\/Istanbul","weight":577,"coordinates":{"lat":39.120277,"lon":30.116945},"type":"city","searchable":false},{"name":"Kutahya Zafer","country_name":"Türkiye","city_code":"KZR","city_name":"Kütahya","code":"KZR","country_code":"TR","index_strings":["KZR","Kutahya Zafer","Kütahya","Türkiye","TR","Zafer","Kutahya","Turkey"],"timezone":"Europe\/Istanbul","weight":577,"coordinates":{"lat":39.120277,"lon":30.116945},"type":"airport","searchable":true},{"name":"Lahore Allama Iqbal International","country_name":"Pakistan","city_code":"LHE","city_name":"Lahor","code":"LHE","country_code":"PK","index_strings":["LHE","Lahore Allama Iqbal International","Lahor","Pakistan","PK","Alama Iqbal International","Lahore"],"timezone":"Asia\/Karachi","weight":569,"coordinates":{"lat":31.520832,"lon":74.40278000000001},"type":"airport","searchable":true},{"name":"Macaristan","weight":569,"type":"country","code":"HU","searchable":true,"index_strings":["HU","Macaristan","Hungary"]},{"name":"Lahor","country_name":"Pakistan","country_code":"PK","code":"LHE","index_strings":["LHE","Lahor","Pakistan","PK","Lahore"],"timezone":"Asia\/Karachi","weight":569,"coordinates":{"lat":31.520832,"lon":74.40278000000001},"type":"city","searchable":false},{"name":"St Petersburg Pulkovo","country_name":"Rusya","city_code":"LED","city_name":"Saint Petersburg","code":"LED","country_code":"RU","index_strings":["LED","St Petersburg Pulkovo","Saint Petersburg","Rusya","RU","Pulkovo","Russia"],"timezone":"Europe\/Moscow","weight":568,"coordinates":{"lat":59.806084,"lon":30.3083},"type":"airport","searchable":true},{"name":"İslamabat","country_name":"Pakistan","country_code":"PK","code":"ISB","index_strings":["ISB","İslamabat","Pakistan","PK","Islamabad"],"timezone":"Asia\/Karachi","weight":568,"coordinates":{"lat":33.609707,"lon":73.10509999999999},"type":"city","searchable":false},{"name":"Islamabad Benazir Bhutto International","country_name":"Pakistan","city_code":"ISB","city_name":"İslamabat","code":"ISB","country_code":"PK","index_strings":["ISB","Islamabad Benazir Bhutto International","İslamabat","Pakistan","PK","Islamabad International","Islamabad"],"timezone":"Asia\/Karachi","weight":568,"coordinates":{"lat":33.609707,"lon":73.10509999999999},"type":"airport","searchable":true},{"name":"Saint Petersburg","country_name":"Rusya","country_code":"RU","code":"LED","index_strings":["sankt petersburg","st petersburg","leningrad","ленинград","питер","спб","LED","Saint Petersburg","Rusya","RU","Russia"],"timezone":"Europe\/Moscow","weight":568,"coordinates":{"lat":59.939039,"lon":30.315785},"type":"city","searchable":false},{"name":"Seattle","country_name":"ABD","country_code":"US","code":"SEA","index_strings":["tacoma","такома","塔科马","SEA","Seattle","ABD","US","United States"],"timezone":"America\/Los_Angeles","weight":566,"coordinates":{"lat":47.6062095,"lon":-122.3320708},"type":"city","searchable":true},{"name":"Tahran","country_name":"İran","country_code":"IR","code":"THR","index_strings":["THR","Tahran","İran","IR","Tehran","Iran"],"timezone":"Asia\/Tehran","weight":566,"coordinates":{"lat":35.6961111,"lon":51.4230556},"type":"city","searchable":true},{"name":"Kolombiya","weight":564,"type":"country","code":"CO","searchable":true,"index_strings":["CO","Kolombiya","Colombia"]},{"name":"Perth","country_name":"Avustralya","country_code":"AU","code":"PER","index_strings":["PER","Perth","Avustralya","AU","Australia"],"timezone":"Australia\/Perth","weight":563,"coordinates":{"lat":-31.9522222,"lon":115.8588889},"type":"city","searchable":false},{"name":"Cyprus","weight":563,"type":"country","code":"CY","searchable":true,"index_strings":["CY","Cyprus"]},{"name":"Perth International","city_code":"PER","city_name":"Perth","state_code":"WA","coordinates":{"lat":-31.933603,"lon":115.960236},"type":"airport","country_name":"Avustralya","country_code":"AU","code":"PER","index_strings":["PER","Perth International","Perth","Avustralya","AU","Australia"],"timezone":"Australia\/Perth","weight":561,"searchable":true},{"name":"Seattle\/Tacoma Sea\/Tac","city_code":"SEA","city_name":"Seattle","state_code":"WA","coordinates":{"lat":47.44384,"lon":-122.301735},"type":"airport","country_name":"ABD","country_code":"US","code":"SEA","index_strings":["SEA","Seattle\/Tacoma Sea\/Tac","Seattle","ABD","US","Seattle-Tacoma International","United States"],"timezone":"America\/Los_Angeles","weight":560,"searchable":true},{"name":"Hırvatistan","weight":556,"type":"country","code":"HR","searchable":true,"index_strings":["HR","Hırvatistan","Croatia"]},{"name":"Helsinki","country_name":"Finlandiya","country_code":"FI","code":"HEL","index_strings":["helsinki","хельсинки","HEL","Finlandiya","FI","Finland"],"timezone":"Europe\/Helsinki","weight":545,"coordinates":{"lat":60.2943605,"lon":25.0402427},"type":"city","searchable":false},{"name":"Peru","weight":542,"type":"country","code":"PE","searchable":true,"index_strings":["PE","Peru"]},{"name":"Gana","weight":535,"type":"country","code":"GH","searchable":true,"index_strings":["GH","Gana","Ghana"]},{"name":"Toronto","country_name":"Kanada","country_code":"CA","code":"YTO","index_strings":["YTO","Toronto","Kanada","CA","Canada"],"timezone":"America\/Toronto","weight":535,"coordinates":{"lat":43.653524,"lon":-79.3839069},"type":"city","searchable":true},{"name":"Yerevan Zvartnots International","country_name":"Ermenistan","city_code":"EVN","city_name":"Erivan","code":"EVN","country_code":"AM","index_strings":["EVN","Yerevan Zvartnots International","Erivan","Ermenistan","AM","Zvartnots International","Yerevan","Armenia"],"timezone":"Asia\/Yerevan","weight":533,"coordinates":{"lat":40.15272,"lon":44.39805},"type":"airport","searchable":true},{"name":"Erivan","country_name":"Ermenistan","country_code":"AM","code":"EVN","index_strings":["EVN","Erivan","Ermenistan","AM","Yerevan","Armenia"],"timezone":"Asia\/Yerevan","weight":533,"coordinates":{"lat":40.15272,"lon":44.39805},"type":"city","searchable":false},{"name":"Chengdu Shuangliu International","country_name":"Çin","city_code":"CTU","city_name":"Çengdu","code":"CTU","country_code":"CN","index_strings":["CTU","Chengdu Shuangliu International","Çengdu","Çin","CN","Shuangliu","Chengdu","China"],"timezone":"Asia\/Shanghai","weight":529,"coordinates":{"lat":30.581135,"lon":103.9568},"type":"airport","searchable":true},{"name":"Çengdu","country_name":"Çin","country_code":"CN","code":"CTU","index_strings":["CTU","Çengdu","Çin","CN","Chengdu","China"],"timezone":"Asia\/Shanghai","weight":529,"coordinates":{"lat":30.581135,"lon":103.9568},"type":"city","searchable":false},{"name":"Christchurch","country_name":"Yeni Zelanda","country_code":"NZ","code":"CHC","index_strings":["CHC","Christchurch","Yeni Zelanda","NZ","New Zealand"],"timezone":"Pacific\/Auckland","weight":528,"coordinates":{"lat":-43.488655,"lon":172.5389},"type":"city","searchable":false},{"name":"Christchurch International","country_name":"Yeni Zelanda","city_code":"CHC","city_name":"Christchurch","code":"CHC","country_code":"NZ","index_strings":["CHC","Christchurch International","Christchurch","Yeni Zelanda","NZ","New Zealand"],"timezone":"Pacific\/Auckland","weight":528,"coordinates":{"lat":-43.488655,"lon":172.5389},"type":"airport","searchable":true},{"name":"Ekvador","weight":523,"type":"country","code":"EC","searchable":true,"index_strings":["EC","Ekvador","Ecuador"]},{"name":"Da Nang Uluslararası Havaalanı","country_name":"Vietnam","city_code":"DAD","city_name":"Da Nang","code":"DAD","country_code":"VN","index_strings":["DAD","Da Nang Uluslararası Havaalanı","Da Nang","Vietnam","VN"],"timezone":"Asia\/Ho_Chi_Minh","weight":513,"coordinates":{"lat":16.055399,"lon":108.20298},"type":"airport","searchable":true},{"name":"Da Nang","country_name":"Vietnam","country_code":"VN","code":"DAD","index_strings":["DAD","Da Nang","Vietnam","VN"],"timezone":"Asia\/Ho_Chi_Minh","weight":513,"coordinates":{"lat":16.055399,"lon":108.20298},"type":"city","searchable":false},{"name":"Tanzanya","weight":506,"type":"country","code":"TZ","searchable":true,"index_strings":["TZ","Tanzanya","Tanzania"]},{"name":"Surabaya","country_name":"Endonezya","country_code":"ID","code":"SUB","index_strings":["SUB","Surabaya","Endonezya","ID","Indonesia"],"timezone":"Asia\/Jakarta","weight":502,"coordinates":{"lat":-7.38387,"lon":112.77724},"type":"city","searchable":false},{"name":"Siem Reap Angkor International","country_name":"Kamboçya","city_code":"REP","city_name":"Siem Reap","code":"REP","country_code":"KH","index_strings":["REP","Siem Reap Angkor International","Siem Reap","Kamboçya","KH","Cambodia"],"timezone":"Asia\/Phnom_Penh","weight":502,"coordinates":{"lat":13.408436,"lon":103.815926},"type":"airport","searchable":true},{"name":"Surabaya Juanda","country_name":"Endonezya","city_code":"SUB","city_name":"Surabaya","code":"SUB","country_code":"ID","index_strings":["SUB","Surabaya Juanda","Surabaya","Endonezya","ID","Juanda","Indonesia"],"timezone":"Asia\/Jakarta","weight":502,"coordinates":{"lat":-7.38387,"lon":112.77724},"type":"airport","searchable":true},{"name":"Siem Reap","country_name":"Kamboçya","country_code":"KH","code":"REP","index_strings":["REP","Siem Reap","Kamboçya","KH","Cambodia"],"timezone":"Asia\/Phnom_Penh","weight":502,"coordinates":{"lat":13.408436,"lon":103.815926},"type":"city","searchable":false},{"name":"Bodrum Imsik","country_name":"Türkiye","city_code":"BJV","city_name":"Bodrum","code":"BXN","country_code":"TR","index_strings":["BXN","Bodrum Imsik","Bodrum","BJV","Türkiye","TR","Imsik","Turkey"],"timezone":"Europe\/Istanbul","weight":498,"coordinates":{"lat":37.134724,"lon":27.667221},"type":"airport","searchable":true},{"name":"Ermenistan","weight":495,"type":"country","code":"AM","searchable":true,"index_strings":["AM","Ermenistan","Armenia"]},{"name":"Londra Heathrow Havalimanı","country_name":"Birleşik Krallık","city_code":"LON","city_name":"Londra","code":"LHR","country_code":"GB","index_strings":["LHR","Londra Heathrow Havalimanı","Londra","LON","Birleşik Krallık","GB","Heathrow","London","United Kingdom"],"timezone":"Europe\/London","weight":490,"coordinates":{"lat":51.469604,"lon":-0.453566},"type":"airport","searchable":true},{"name":"Venice Marco Polo","country_name":"İtalya","city_code":"VCE","city_name":"Venedik","code":"VCE","country_code":"IT","index_strings":["VCE","Venice Marco Polo","Venedik","İtalya","IT","Marco Polo","Venice","Italy"],"timezone":"Europe\/Rome","weight":489,"coordinates":{"lat":45.502285,"lon":12.337947},"type":"airport","searchable":true},{"name":"Dallas\/Ft Worth International","city_code":"DFW","city_name":"Dallas","state_code":"TX","coordinates":{"lat":32.89746,"lon":-97.036125},"type":"airport","country_name":"ABD","country_code":"US","code":"DFW","index_strings":["DFW","Dallas\/Ft Worth International","Dallas","ABD","US","Dallas\/Fort Worth International","United States"],"timezone":"America\/Chicago","weight":486,"searchable":true},{"name":"Bulgaristan","weight":485,"type":"country","code":"BG","searchable":true,"index_strings":["BG","Bulgaristan","Bulgaria"]},{"name":"Umman","weight":483,"type":"country","code":"OM","searchable":true,"index_strings":["OM","Umman","Oman"]},{"name":"Savannakhet","country_name":"Laos","country_code":"LA","code":"ZVK","index_strings":["ZVK","Savannakhet","Laos","LA"],"timezone":"Asia\/Vientiane","weight":479,"coordinates":{"lat":16.553612,"lon":104.7625},"type":"city","searchable":false},{"name":"Savannakhet","country_name":"Laos","city_code":"ZVK","city_name":"Savannakhet","code":"ZVK","country_code":"LA","index_strings":["ZVK","Savannakhet","Laos","LA"],"timezone":"Asia\/Vientiane","weight":479,"coordinates":{"lat":16.553612,"lon":104.7625},"type":"airport","searchable":true},{"name":"Qingdao","country_name":"Çin","country_code":"CN","code":"TAO","index_strings":["TAO","Qingdao","Çin","CN","China"],"timezone":"Asia\/Shanghai","weight":478,"coordinates":{"lat":36.265884,"lon":120.38236},"type":"city","searchable":false},{"name":"Qingdao Liuting International","country_name":"Çin","city_code":"TAO","city_name":"Qingdao","code":"TAO","country_code":"CN","index_strings":["TAO","Qingdao Liuting International","Qingdao","Çin","CN","China"],"timezone":"Asia\/Shanghai","weight":478,"coordinates":{"lat":36.265884,"lon":120.38236},"type":"airport","searchable":true},{"name":"Dallas","country_name":"ABD","country_code":"US","code":"DFW","index_strings":["DFW","Dallas","ABD","US","United States"],"timezone":"America\/Chicago","weight":477,"coordinates":{"lat":32.802955,"lon":-96.76992300000001},"type":"city","searchable":true},{"name":"Atina","country_name":"Yunanistan","country_code":"GR","code":"ATH","index_strings":["ATH","Atina","Yunanistan","GR","Athens","Greece"],"timezone":"Europe\/Athens","weight":470,"coordinates":{"lat":37.93635,"lon":23.946486},"type":"city","searchable":false},{"name":"Athens Eleftherios Venizelos","country_name":"Yunanistan","city_code":"ATH","city_name":"Atina","code":"ATH","country_code":"GR","index_strings":["ATH","Athens Eleftherios Venizelos","Atina","Yunanistan","GR","Athens International Airport \"Eleftherios Venizelos\"","Athens","Greece"],"timezone":"Europe\/Athens","weight":470,"coordinates":{"lat":37.93635,"lon":23.946486},"type":"airport","searchable":true},{"name":"Bangladeş","weight":469,"type":"country","code":"BD","searchable":true,"index_strings":["BD","Bangladeş","Bangladesh"]},{"name":"Brisbane International","city_code":"BNE","city_name":"Brisbane","state_code":"QL","coordinates":{"lat":-27.40303,"lon":153.10905},"type":"airport","country_name":"Avustralya","country_code":"AU","code":"BNE","index_strings":["BNE","Brisbane International","Brisbane","Avustralya","AU","Australia"],"timezone":"Australia\/Brisbane","weight":466,"searchable":true},{"name":"Brisbane","country_name":"Avustralya","country_code":"AU","code":"BNE","index_strings":["BNE","Brisbane","Avustralya","AU","Australia"],"timezone":"Australia\/Brisbane","weight":466,"coordinates":{"lat":-27.4709331,"lon":153.0235024},"type":"city","searchable":false},{"name":"Karaçi","country_name":"Pakistan","country_code":"PK","code":"KHI","index_strings":["KHI","Karaçi","Pakistan","PK","Karachi"],"timezone":"Asia\/Karachi","weight":465,"coordinates":{"lat":24.899986,"lon":67.16828},"type":"city","searchable":false},{"name":"Karachi Quaid-e-Azam Int'l","country_name":"Pakistan","city_code":"KHI","city_name":"Karaçi","code":"KHI","country_code":"PK","index_strings":["KHI","Karachi Quaid-e-Azam Int'l","Karaçi","Pakistan","PK","Quaid-e-azam International","Karachi"],"timezone":"Asia\/Karachi","weight":465,"coordinates":{"lat":24.899986,"lon":67.16828},"type":"airport","searchable":true},{"name":"Cebu Mactan International","country_name":"Filipinler","city_code":"CEB","city_name":"Cebu City","code":"CEB","country_code":"PH","index_strings":["CEB","Cebu Mactan International","Cebu City","Filipinler","PH","Mactan-Cebu International","Cebu","Philippines"],"timezone":"Asia\/Manila","weight":463,"coordinates":{"lat":10.313333,"lon":123.98278},"type":"airport","searchable":true},{"name":"Cebu City","country_name":"Filipinler","country_code":"PH","code":"CEB","index_strings":["CEB","Cebu City","Filipinler","PH","Cebu","Philippines"],"timezone":"Asia\/Manila","weight":463,"coordinates":{"lat":10.313333,"lon":123.98278},"type":"city","searchable":false},{"name":"Ürdün","weight":461,"type":"country","code":"JO","searchable":true,"index_strings":["JO","Ürdün","Jordan"]},{"name":"Paris","country_name":"Fransa","country_code":"FR","code":"PAR","index_strings":["PAR","Paris","Fransa","FR","France"],"timezone":"Europe\/Paris","weight":460,"coordinates":{"lat":48.856614,"lon":2.3522219},"type":"city","searchable":true},{"name":"Atlanta Hartsfield-Jackson ATL","city_code":"ATL","city_name":"Atlanta","state_code":"GA","coordinates":{"lat":33.640068,"lon":-84.44403},"type":"airport","country_name":"ABD","country_code":"US","code":"ATL","index_strings":["ATL","Atlanta Hartsfield-Jackson ATL","Atlanta","ABD","US","Hartsfield-jackson Atlanta International","United States"],"timezone":"America\/New_York","weight":457,"searchable":true},{"name":"Atlanta","country_name":"ABD","country_code":"US","code":"ATL","index_strings":["ATL","Atlanta","ABD","US","United States"],"timezone":"America\/New_York","weight":457,"coordinates":{"lat":33.7489954,"lon":-84.3879824},"type":"city","searchable":true},{"name":"Cenevre","country_name":"İsviçre","country_code":"CH","code":"GVA","index_strings":["GVA","Cenevre","İsviçre","CH","Geneva","Switzerland"],"timezone":"Europe\/Zurich","weight":448,"coordinates":{"lat":46.1983922,"lon":6.1422961},"type":"city","searchable":false},{"name":"Geneva International","country_name":"İsviçre","city_code":"GVA","city_name":"Cenevre","code":"GVA","country_code":"CH","index_strings":["GVA","Geneva International","Cenevre","İsviçre","CH","Geneve-cointrin","Geneva","Switzerland"],"timezone":"Europe\/Zurich","weight":447,"coordinates":{"lat":46.229633,"lon":6.105774},"type":"airport","searchable":true},{"name":"Haydarabad","country_name":"Hindistan","country_code":"IN","code":"HYD","index_strings":["HYD","Haydarabad","Hindistan","IN","Hyderabad","India"],"timezone":"Asia\/Kolkata","weight":439,"coordinates":{"lat":17.385044,"lon":78.486671},"type":"city","searchable":true},{"name":"Bursa Yenisehir","country_name":"Türkiye","city_code":"YEI","city_name":"Bursa","code":"YEI","country_code":"TR","index_strings":["YEI","Bursa Yenisehir","Bursa","Türkiye","TR","Yenisehir","Turkey"],"timezone":"Europe\/Istanbul","weight":438,"coordinates":{"lat":40.233334,"lon":29.55},"type":"airport","searchable":true},{"name":"Bursa","country_name":"Türkiye","country_code":"TR","code":"YEI","index_strings":["YEI","Bursa","Türkiye","TR","Turkey"],"timezone":"Europe\/Istanbul","weight":438,"coordinates":{"lat":40.233334,"lon":29.55},"type":"city","searchable":false},{"name":"Hyderabad Rajiv Gandhi International","country_name":"Hindistan","city_code":"HYD","city_name":"Haydarabad","code":"HYD","country_code":"IN","index_strings":["HYD","Hyderabad Rajiv Gandhi International","Haydarabad","Hindistan","IN","Hyderabad Airport","Hyderabad","India"],"timezone":"Asia\/Kolkata","weight":435,"coordinates":{"lat":17.24,"lon":78.428055},"type":"airport","searchable":true},{"name":"Lübnan","weight":432,"type":"country","code":"LB","searchable":true,"index_strings":["LB","Lübnan","Lebanon"]},{"name":"Katar","weight":423,"type":"country","code":"QA","searchable":true,"index_strings":["QA","Katar","Qatar"]},{"name":"Pakse International","country_name":"Laos","city_code":"PKZ","city_name":"Pakse","code":"PKZ","country_code":"LA","index_strings":["PKZ","Pakse International","Pakse","Laos","LA"],"timezone":"Asia\/Vientiane","weight":407,"coordinates":{"lat":15.136257,"lon":105.781296},"type":"airport","searchable":true},{"name":"Pakse","country_name":"Laos","country_code":"LA","code":"PKZ","index_strings":["PKZ","Pakse","Laos","LA"],"timezone":"Asia\/Vientiane","weight":407,"coordinates":{"lat":15.136257,"lon":105.781296},"type":"city","searchable":false},{"name":"Helsinki-vantaa Havalimanı","country_name":"Finlandiya","city_code":"HEL","city_name":"Helsinki","code":"HEL","country_code":"FI","index_strings":["HEL","Helsinki-vantaa Havalimanı","Helsinki","Finlandiya","FI","Helsinki-vantaa","Finland"],"timezone":"Europe\/Helsinki","weight":405,"coordinates":{"lat":60.31795,"lon":24.96645},"type":"airport","searchable":true},{"name":"Şili","weight":404,"type":"country","code":"CL","searchable":true,"index_strings":["CL","Şili","Chile"]},{"name":"Xiamen Gaoqi International","country_name":"Çin","city_code":"XMN","city_name":"Xiamen","code":"XMN","country_code":"CN","index_strings":["XMN","Xiamen Gaoqi International","Xiamen","Çin","CN","China"],"timezone":"Asia\/Shanghai","weight":402,"coordinates":{"lat":24.536882,"lon":118.1275},"type":"airport","searchable":true},{"name":"Xiamen","country_name":"Çin","country_code":"CN","code":"XMN","index_strings":["XMN","Xiamen","Çin","CN","China"],"timezone":"Asia\/Shanghai","weight":402,"coordinates":{"lat":24.536882,"lon":118.1275},"type":"city","searchable":false},{"name":"Gaya","country_name":"Hindistan","city_code":"GAY","city_name":"Gaya","code":"GAY","country_code":"IN","index_strings":["GAY","Gaya","Hindistan","IN","India"],"timezone":"Asia\/Kolkata","weight":402,"coordinates":{"lat":24.746668,"lon":84.94583},"type":"airport","searchable":true},{"name":"Gaya","country_name":"Hindistan","country_code":"IN","code":"GAY","index_strings":["GAY","Gaya","Hindistan","IN","India"],"timezone":"Asia\/Kolkata","weight":402,"coordinates":{"lat":24.746668,"lon":84.94583},"type":"city","searchable":false},{"name":"Kiev Boryspil International","country_name":"İspanya","city_code":"IEV","city_name":"Kiev","code":"KBP","country_code":"UA","index_strings":["KBP","Kiev Boryspil International","Kiev","IEV","İspanya","UA","Boryspil (Borispol)","Ukraine"],"timezone":"Europe\/Kiev","weight":398,"coordinates":{"lat":50.341244,"lon":30.895206},"type":"airport","searchable":true},{"name":"Bahreyn","weight":397,"type":"country","code":"BH","searchable":true,"index_strings":["BH","Bahreyn","Bahrain"]},{"name":"Dublin International","country_name":"İrlanda","city_code":"DUB","city_name":"Dublin","code":"DUB","country_code":"IE","index_strings":["DUB","Dublin International","Dublin","İrlanda","IE","Ireland"],"timezone":"Europe\/Dublin","weight":391,"coordinates":{"lat":53.42728,"lon":-6.24357},"type":"airport","searchable":true},{"name":"Dublin","country_name":"İrlanda","country_code":"IE","code":"DUB","index_strings":["DUB","Dublin","İrlanda","IE","Ireland"],"timezone":"Europe\/Dublin","weight":391,"coordinates":{"lat":53.42728,"lon":-6.24357},"type":"city","searchable":false},{"name":"Paris-charles De Gaulle Havalimanı","country_name":"Fransa","city_code":"PAR","city_name":"Paris","code":"CDG","country_code":"FR","index_strings":["CDG","Paris-charles De Gaulle Havalimanı","Paris","PAR","Fransa","FR","Charles De Gaulle","France"],"timezone":"Europe\/Paris","weight":390,"coordinates":{"lat":49.003197,"lon":2.567023},"type":"airport","searchable":true},{"name":"Kochi International","country_name":"Hindistan","city_code":"COK","city_name":"Koçi","code":"COK","country_code":"IN","index_strings":["COK","Kochi International","Koçi","Hindistan","IN","Cochin International","Kochi","India"],"timezone":"Asia\/Kolkata","weight":387,"coordinates":{"lat":10.155644,"lon":76.39053},"type":"airport","searchable":true},{"name":"Koçi","country_name":"Hindistan","country_code":"IN","code":"COK","index_strings":["COK","Koçi","Hindistan","IN","Kochi","India"],"timezone":"Asia\/Kolkata","weight":387,"coordinates":{"lat":10.155644,"lon":76.39053},"type":"city","searchable":false},