[{"country_name":"Türkiye","weight":180054,"type":"airport","code":"IST","searchable":true,"index_strings":["ist","atatürk havalimanı","i̇stanbul","türkiye","tr","istanbul ataturk airport","istanbul","turkey"],"coordinates":{"lat":40.976665,"lon":28.815277},"city_code":"IST","city_name":"İstanbul","timezone":"Europe\/Istanbul","country_code":"TR","name":"Atatürk Havalimanı"},{"weight":167502,"index_strings":["bkk","bangkok","tayland","th","thailand"],"code":"BKK","country_name":"Tayland","timezone":"Asia\/Bangkok","searchable":true,"country_code":"TH","coordinates":{"lat":13.7234186,"lon":100.4762319},"type":"city","name":"Bangkok"},{"country_name":"Tayland","weight":160824,"type":"airport","code":"BKK","searchable":true,"index_strings":["bkk","bangkok suvarnabhumi international","bangkok","tayland","th","suvarnabhumi airport","thailand"],"coordinates":{"lat":13.693062,"lon":100.752045},"city_code":"BKK","city_name":"Bangkok","timezone":"Asia\/Bangkok","country_code":"TH","name":"Bangkok Suvarnabhumi International"},{"weight":137295,"index_strings":["ist","i̇stanbul","türkiye","tr","istanbul","turkey"],"code":"IST","country_name":"Türkiye","timezone":"Europe\/Istanbul","searchable":true,"country_code":"TR","coordinates":{"lat":40.976665,"lon":28.815277},"type":"city","name":"İstanbul"},{"weight":61608,"index_strings":["chiang mai international","cnx","chiang mai","tayland","th","thailand","chiang mai international airport"],"code":"CNX","country_name":"Tayland","timezone":"Asia\/Bangkok","searchable":true,"country_code":"TH","coordinates":{"lat":18.769573,"lon":98.96841000000001},"type":"city","name":"Chiang Mai"},{"weight":31732,"index_strings":["phuket uluslararası havalimanı","hkt","phuket","tayland","th","thailand","phuket international airport"],"code":"HKT","country_name":"Tayland","timezone":"Asia\/Bangkok","searchable":true,"country_code":"TH","coordinates":{"lat":8.107619,"lon":98.30643499999999},"type":"city","name":"Phuket"},{"weight":26384,"index_strings":["hat yai international","hdy","hat yai","tayland","th","thailand","hat yai international airport"],"code":"HDY","country_name":"Tayland","timezone":"Asia\/Bangkok","searchable":true,"country_code":"TH","coordinates":{"lat":6.936764,"lon":100.39356},"type":"city","name":"Hat Yai"},{"weight":24784,"index_strings":["dalaman","dlm","türkiye","tr","turkey","dalaman airport"],"code":"DLM","country_name":"Türkiye","timezone":"Europe\/Istanbul","searchable":true,"country_code":"TR","coordinates":{"lat":36.716667,"lon":28.783333},"type":"city","name":"Dalaman"},{"weight":17796,"index_strings":["antalya","ayt","türkiye","tr","turkey","antalya airport"],"code":"AYT","country_name":"Türkiye","timezone":"Europe\/Istanbul","searchable":true,"country_code":"TR","coordinates":{"lat":36.89928,"lon":30.80135},"type":"city","name":"Antalya"},{"weight":15840,"index_strings":["singapore changi","sin","singapur","sg","singapore","changi international airport"],"code":"SIN","country_name":"Singapur","timezone":"Asia\/Singapore","searchable":true,"country_code":"SG","coordinates":{"lat":1.2894365,"lon":103.8499802},"type":"city","name":"Singapur"},{"weight":14397,"index_strings":["udon thani international","uth","udon thani","tayland","th","thailand","udon thani international airport"],"code":"UTH","country_name":"Tayland","timezone":"Asia\/Bangkok","searchable":true,"country_code":"TH","coordinates":{"lat":17.38661,"lon":102.774506},"type":"city","name":"Udon Thani"},{"weight":12926,"index_strings":["krabi","kbv","tayland","th","thailand","krabi airport"],"code":"KBV","country_name":"Tayland","timezone":"Asia\/Bangkok","searchable":true,"country_code":"TH","coordinates":{"lat":8.097281000000001,"lon":98.98062},"type":"city","name":"Krabi"},{"weight":11156,"index_strings":["chiang rai mae fah luang international","cei","chiang rai","tayland","th","thailand","chiang rai international airport"],"code":"CEI","country_name":"Tayland","timezone":"Asia\/Bangkok","searchable":true,"country_code":"TH","coordinates":{"lat":19.954609,"lon":99.878815},"type":"city","name":"Chiang Rai"},{"weight":10492,"index_strings":["ko samui","usm","tayland","th","koh samui","thailand","koh samui airport"],"code":"USM","country_name":"Tayland","timezone":"Asia\/Bangkok","searchable":true,"country_code":"TH","coordinates":{"lat":9.555315,"lon":100.0628},"type":"city","name":"Ko Samui"},{"country_name":"Hong Kong","weight":10313,"type":"airport","code":"HKG","searchable":true,"index_strings":["hkg","hong kong international","hong kong","hk","hong kong international airport"],"coordinates":{"lat":22.315248,"lon":113.93649},"city_code":"HKG","city_name":"Hong Kong","timezone":"Asia\/Hong_Kong","country_code":"HK","name":"Hong Kong International"},{"weight":10244,"index_strings":["hkg","hong kong","hk"],"code":"HKG","country_name":"Hong Kong","timezone":"Asia\/Hong_Kong","searchable":true,"country_code":"HK","coordinates":{"lat":22.2478599,"lon":114.2033843},"type":"city","name":"Hong Kong"},{"weight":9013,"index_strings":["surat thani","urt","tayland","th","thailand","surat thani airport"],"code":"URT","country_name":"Tayland","timezone":"Asia\/Bangkok","searchable":true,"country_code":"TH","coordinates":{"lat":9.133865,"lon":99.143196},"type":"city","name":"Surat Thani"},{"weight":8527,"index_strings":["khon kaen","kkc","tayland","th","thailand","khon kaen airport"],"code":"KKC","country_name":"Tayland","timezone":"Asia\/Bangkok","searchable":true,"country_code":"TH","coordinates":{"lat":16.46467,"lon":102.78749},"type":"city","name":"Khon Kaen"},{"weight":7205,"index_strings":["ubon ratchathani","ubp","tayland","th","thailand","ubon ratchathani international airport"],"code":"UBP","country_name":"Tayland","timezone":"Asia\/Bangkok","searchable":true,"country_code":"TH","coordinates":{"lat":15.246491,"lon":104.87068},"type":"city","name":"Ubon Ratchathani"},{"weight":6947,"index_strings":["ankara esenboğa havalimanı","ank","ankara","türkiye","tr","turkey","esenboga international airport"],"code":"ANK","country_name":"Türkiye","timezone":"Europe\/Istanbul","searchable":true,"country_code":"TR","coordinates":{"lat":39.866667,"lon":39.866667},"type":"city","name":"Ankara"},{"country_name":"Tayland","weight":6668,"type":"airport","code":"DMK","searchable":true,"index_strings":["dmk","bangkok don mueang international","bangkok","bkk","tayland","th","don mueang international airport","thailand"],"coordinates":{"lat":13.9125,"lon":100.60667},"city_code":"BKK","city_name":"Bangkok","timezone":"Asia\/Bangkok","country_code":"TH","name":"Bangkok Don Mueang International"},{"weight":6012,"index_strings":["gazipasa","gzp","gazipaşa","türkiye","tr","turkey","gazipasa airport"],"code":"GZP","country_name":"Türkiye","timezone":"Europe\/Istanbul","searchable":true,"country_code":"TR","coordinates":{"lat":36.2993,"lon":32.3014},"type":"city","name":"Gazipaşa"},{"country_name":"Türkiye","weight":5673,"type":"airport","code":"SAW","searchable":true,"index_strings":["saw","sabiha gökçen uluslararası havalimanı","i̇stanbul","ist","türkiye","tr","sabiha gokcen international airport","istanbul","turkey"],"coordinates":{"lat":40.904675,"lon":29.309189},"city_code":"IST","city_name":"İstanbul","timezone":"Europe\/Istanbul","country_code":"TR","name":"Sabiha Gökçen Uluslararası Havalimanı"},{"weight":4807,"index_strings":["kul","kuala lumpur","malezya","my","malaysia"],"code":"KUL","country_name":"Malezya","timezone":"Asia\/Kuala_Lumpur","searchable":true,"country_code":"MY","coordinates":{"lat":3.139003,"lon":101.686855},"type":"city","name":"Kuala Lumpur"},{"weight":4680,"index_strings":["u-tapao rayong-pattaya international","utp","utapao-rayong-pataya international airport","tayland","th","utapao","thailand","utapao airport"],"code":"UTP","country_name":"Tayland","timezone":"Asia\/Bangkok","searchable":true,"country_code":"TH","coordinates":{"lat":12.683333,"lon":101.01667},"type":"city","name":"Utapao-Rayong-Pataya International Airport"},{"country_name":"Malezya","weight":4677,"type":"airport","code":"KUL","searchable":true,"index_strings":["kul","kuala lumpur international","kuala lumpur","malezya","my","kuala lumpur international airport","malaysia"],"coordinates":{"lat":2.755672,"lon":101.70539},"city_code":"KUL","city_name":"Kuala Lumpur","timezone":"Asia\/Kuala_Lumpur","country_code":"MY","name":"Kuala Lumpur International"},{"weight":3678,"index_strings":["luang prabang international","lpq","luang prabang","laos","la","luang prabang international airport"],"code":"LPQ","country_name":"Laos","timezone":"Asia\/Vientiane","searchable":true,"country_code":"LA","coordinates":{"lat":19.897055,"lon":102.16371},"type":"city","name":"Luang Prabang"},{"weight":3670,"index_strings":["phitsanulok","phs","tayland","th","thailand","phitsanulok airport"],"code":"PHS","country_name":"Tayland","timezone":"Asia\/Bangkok","searchable":true,"country_code":"TH","coordinates":{"lat":16.771307,"lon":100.2812},"type":"city","name":"Phitsanulok"},{"weight":3600,"index_strings":["nakhon si thammarat","nst","tayland","th","thailand","nakhon si thammarat airport"],"code":"NST","country_name":"Tayland","timezone":"Asia\/Bangkok","searchable":true,"country_code":"TH","coordinates":{"lat":8.466666999999999,"lon":99.95},"type":"city","name":"Nakhon Si Thammarat"},{"weight":3257,"index_strings":["vientiane wattay international","vte","vientiane","laos","la","wattay international airport"],"code":"VTE","country_name":"Laos","timezone":"Asia\/Vientiane","searchable":true,"country_code":"LA","coordinates":{"lat":17.975431,"lon":102.56772},"type":"city","name":"Vientiane"},{"weight":3079,"index_strings":["sydney kingsford smith","syd","sidney","avustralya","au","sydney","australia","sydney (kingsford smith) airport"],"code":"SYD","country_name":"Avustralya","timezone":"Australia\/Sydney","searchable":true,"country_code":"AU","coordinates":{"lat":-33.8689009,"lon":151.2070914},"type":"city","name":"Sidney"},{"weight":3052,"index_strings":["mae hong son","hgn","tayland","th","thailand","mae hong son airport"],"code":"HGN","country_name":"Tayland","timezone":"Asia\/Bangkok","searchable":true,"country_code":"TH","coordinates":{"lat":19.29968,"lon":97.97523},"type":"city","name":"Mae Hong Son"},{"weight":2796,"index_strings":["manila ninoy aquino int'l","mnl","manila","filipinler","ph","philippines","ninoy aquino international airport"],"code":"MNL","country_name":"Filipinler","timezone":"Asia\/Manila","searchable":true,"country_code":"PH","coordinates":{"lat":14.5995124,"lon":120.9842195},"type":"city","name":"Manila"},{"weight":2712,"index_strings":["lax","los angeles","abd","us","united states"],"code":"LAX","country_name":"ABD","timezone":"America\/Los_Angeles","searchable":true,"country_code":"US","coordinates":{"lat":34.0522342,"lon":-118.2436849},"type":"city","name":"Los Angeles"},{"country_name":"ABD","weight":2711,"type":"airport","code":"LAX","searchable":true,"coordinates":{"lat":33.943398,"lon":-118.40828},"index_strings":["lax","los angeles international","los angeles","abd","us","los angeles international airport","united states"],"city_code":"LAX","city_name":"Los Angeles","state_code":"CA","country_code":"US","name":"Los Angeles International","timezone":"America\/Los_Angeles"},{"weight":2695,"index_strings":["lampang","lpt","tayland","th","thailand","lampang airport"],"code":"LPT","country_name":"Tayland","timezone":"Asia\/Bangkok","searchable":true,"country_code":"TH","coordinates":{"lat":18.274166,"lon":99.50722500000001},"type":"city","name":"Lampang"},{"weight":2638,"index_strings":["tpe","taipei","tayvan","tw","taiwan"],"code":"TPE","country_name":"Tayvan","timezone":"Asia\/Taipei","searchable":true,"country_code":"TW","coordinates":{"lat":25.091075,"lon":121.5598345},"type":"city","name":"Taipei"},{"weight":2630,"index_strings":["delhi indira gandhi international","del","yeni delhi","hindistan","in","delhi","india","indira gandhi international airport"],"code":"DEL","country_name":"Hindistan","timezone":"Asia\/Kolkata","searchable":true,"country_code":"IN","coordinates":{"lat":28.556555,"lon":77.10079},"type":"city","name":"Yeni Delhi"},{"weight":2590,"index_strings":["trang","tst","tayland","th","thailand","trang airport"],"code":"TST","country_name":"Tayland","timezone":"Asia\/Bangkok","searchable":true,"country_code":"TH","coordinates":{"lat":7.5,"lon":99.61667},"type":"city","name":"Trang"},{"country_name":"Tayvan","weight":2585,"type":"airport","code":"TPE","searchable":true,"index_strings":["tpe","taipei taiwan taoyuan international","taipei","tayvan","tw","taiwan taoyuan international airport","taiwan"],"coordinates":{"lat":25.07639,"lon":121.22389},"city_code":"TPE","city_name":"Taipei","timezone":"Asia\/Taipei","country_code":"TW","name":"Taipei Taiwan Taoyuan International"},{"weight":2544,"index_strings":["guangzhou baiyun international","can","guangzhou","çin","cn","china","guangzhou baiyun international airport"],"code":"CAN","country_name":"Çin","timezone":"Asia\/Shanghai","searchable":true,"country_code":"CN","coordinates":{"lat":23.387861,"lon":113.29734},"type":"city","name":"Guangzhou"},{"weight":2362,"index_strings":["sha","şanghay","çin","cn","shanghai","china"],"code":"SHA","country_name":"Çin","timezone":"Asia\/Shanghai","searchable":true,"country_code":"CN","coordinates":{"lat":31.230393,"lon":121.473704},"type":"city","name":"Şanghay"},{"weight":2283,"index_strings":["nan","nnt","tayland","th","thailand","nan airport"],"code":"NNT","country_name":"Tayland","timezone":"Asia\/Bangkok","searchable":true,"country_code":"TH","coordinates":{"lat":18.8,"lon":100.78333},"type":"city","name":"Nan"},{"weight":2183,"index_strings":["yangon international","rgn","yangon","myanmar (burma)","mm","myanmar","yangon international airport"],"code":"RGN","country_name":"Myanmar (Burma)","timezone":"Asia\/Rangoon","searchable":true,"country_code":"MM","coordinates":{"lat":16.900068,"lon":96.13415500000001},"type":"city","name":"Yangon"},{"weight":2104,"index_strings":["roi et","roi","tayland","th","thailand","roi et airport"],"code":"ROI","country_name":"Tayland","timezone":"Asia\/Bangkok","searchable":true,"country_code":"TH","coordinates":{"lat":16.115278,"lon":103.77695},"type":"city","name":"Roi Et"},{"country_name":"Çin","weight":2025,"type":"airport","code":"SHA","searchable":true,"index_strings":["sha","shanghai hongqiao international","şanghay","çin","cn","shanghai hongqiao international airport","shanghai","china"],"coordinates":{"lat":31.196815,"lon":121.34197},"city_code":"SHA","city_name":"Şanghay","timezone":"Asia\/Shanghai","country_code":"CN","name":"Shanghai Hongqiao International"},{"weight":1971,"index_strings":["fra","frankfurt am main","almanya","de","frankfurt","germany"],"code":"FRA","country_name":"Almanya","timezone":"Europe\/Berlin","searchable":true,"country_code":"DE","coordinates":{"lat":50.050735,"lon":8.570773000000001},"type":"city","name":"Frankfurt am Main"},{"country_name":"Almanya","weight":1959,"type":"airport","code":"FRA","searchable":true,"index_strings":["fra","frankfurt international","frankfurt am main","almanya","de","frankfurt airport","frankfurt","germany"],"coordinates":{"lat":50.050735,"lon":8.570773000000001},"city_code":"FRA","city_name":"Frankfurt am Main","timezone":"Europe\/Berlin","country_code":"DE","name":"Frankfurt International"},{"weight":1951,"index_strings":["bodrum milas","bjv","bodrum","türkiye","tr","turkey","milas-bodrum airport"],"code":"BJV","country_name":"Türkiye","timezone":"Europe\/Istanbul","searchable":true,"country_code":"TR","coordinates":{"lat":37.25,"lon":27.66},"type":"city","name":"Bodrum"},{"weight":1919,"index_strings":["sakon nakhon","sno","sakhon nakhon","tayland","th","thailand","sakon nakhon airport"],"code":"SNO","country_name":"Tayland","timezone":"Asia\/Bangkok","searchable":true,"country_code":"TH","coordinates":{"lat":17.283333,"lon":104.1},"type":"city","name":"Sakhon Nakhon"},{"weight":1889,"index_strings":["buriram","bfv","buri ram","tayland","th","thailand","buri ram airport"],"code":"BFV","country_name":"Tayland","timezone":"Asia\/Bangkok","searchable":true,"country_code":"TH","coordinates":{"lat":15.226944,"lon":103.25528},"type":"city","name":"Buri Ram"},{"weight":1835,"index_strings":["fukuoka","fuk","japonya","jp","japan","fukuoka airport"],"code":"FUK","country_name":"Japonya","timezone":"Asia\/Tokyo","searchable":true,"country_code":"JP","coordinates":{"lat":33.584286,"lon":130.4439},"type":"city","name":"Fukuoka"},{"weight":1817,"index_strings":["hanoi noi bai international","han","hanoi","vietnam","vn","noi bai international airport"],"code":"HAN","country_name":"Vietnam","timezone":"Asia\/Ho_Chi_Minh","searchable":true,"country_code":"VN","coordinates":{"lat":21.214184,"lon":105.802826},"type":"city","name":"Hanoi"},{"weight":1697,"index_strings":["ho chi minh city tan son nhat international","sgn","ho chi minh kenti","vietnam","vn","ho chi minh city","tan son nhat international airport"],"code":"SGN","country_name":"Vietnam","timezone":"Asia\/Ho_Chi_Minh","searchable":true,"country_code":"VN","coordinates":{"lat":10.813045,"lon":106.662476},"type":"city","name":"Ho Chi Minh Kenti"},{"weight":1692,"index_strings":["adana sakirpasa","ada","adana","türkiye","tr","turkey","adana airport"],"code":"ADA","country_name":"Türkiye","timezone":"Europe\/Istanbul","searchable":true,"country_code":"TR","coordinates":{"lat":37,"lon":35.3213333},"type":"city","name":"Adana"},{"weight":1664,"index_strings":["mel","melbourne","avustralya","au","australia"],"code":"MEL","country_name":"Avustralya","timezone":"Australia\/Melbourne","searchable":true,"country_code":"AU","coordinates":{"lat":-37.8131869,"lon":144.9629796},"type":"city","name":"Melbourne"},{"country_name":"Türkiye","weight":1652,"type":"airport","code":"ADB","searchable":true,"index_strings":["adb","izmir adnan menderes","i̇zmir","izm","türkiye","tr","izmir adnan menderes airport","izmir","turkey"],"coordinates":{"lat":38.294403,"lon":27.147594},"city_code":"IZM","city_name":"İzmir","timezone":"Europe\/Istanbul","country_code":"TR","name":"Izmir Adnan Menderes"},{"weight":1652,"index_strings":["izmir adnan menderes","izm","i̇zmir","türkiye","tr","izmir","turkey","izmir adnan menderes airport"],"code":"IZM","country_name":"Türkiye","timezone":"Europe\/Istanbul","searchable":true,"country_code":"TR","coordinates":{"lat":38.29,"lon":27.16},"type":"city","name":"İzmir"},{"weight":1592,"index_strings":["mae sot","maq","tayland","th","thailand","mae sot airport"],"code":"MAQ","country_name":"Tayland","timezone":"Asia\/Bangkok","searchable":true,"country_code":"TH","coordinates":{"lat":16.666668,"lon":98.583336},"type":"city","name":"Mae Sot"},{"weight":1564,"index_strings":["nakhon phanom","kop","tayland","th","thailand","nakhon phanom airport"],"code":"KOP","country_name":"Tayland","timezone":"Asia\/Bangkok","searchable":true,"country_code":"TH","coordinates":{"lat":17.4,"lon":104.75},"type":"city","name":"Nakhon Phanom"},{"weight":1478,"index_strings":["trat","tdx","tayland","th","thailand","trat airport"],"code":"TDX","country_name":"Tayland","timezone":"Asia\/Bangkok","searchable":true,"country_code":"TH","coordinates":{"lat":12.273953,"lon":102.31867},"type":"city","name":"Trat"},{"country_name":"Avustralya","weight":1456,"type":"airport","code":"MEL","searchable":true,"coordinates":{"lat":-37.669613,"lon":144.84978},"index_strings":["mel","melbourne","avustralya","au","tullamarine airport","australia"],"city_code":"MEL","city_name":"Melbourne","state_code":"VI","country_code":"AU","name":"Melbourne","timezone":"Australia\/Melbourne"},{"weight":1452,"index_strings":["amsterdam schiphol","ams","amsterdam","hollanda","nl","netherlands","amsterdam airport schiphol"],"code":"AMS","country_name":"Hollanda","timezone":"Europe\/Amsterdam","searchable":true,"country_code":"NL","coordinates":{"lat":52.3730556,"lon":4.8922222},"type":"city","name":"Amsterdam"},{"weight":1441,"index_strings":["tyo","tokyo","japonya","jp","japan"],"code":"TYO","country_name":"Japonya","timezone":"Asia\/Tokyo","searchable":true,"country_code":"JP","coordinates":{"lat":35.6894875,"lon":139.6917064},"type":"city","name":"Tokyo"},{"weight":1400,"index_strings":["penang international","pen","penang","malezya","my","malaysia","penang international airport"],"code":"PEN","country_name":"Malezya","timezone":"Asia\/Kuala_Lumpur","searchable":true,"country_code":"MY","coordinates":{"lat":5.292961,"lon":100.265175},"type":"city","name":"Penang"},{"weight":1347,"index_strings":["dxb","dubai","birleşik arap emirlikleri","ae","united arab emirates"],"code":"DXB","country_name":"Birleşik Arap Emirlikleri","timezone":"Asia\/Dubai","searchable":true,"country_code":"AE","coordinates":{"lat":25.2644444,"lon":55.3116667},"type":"city","name":"Dubai"},{"weight":1340,"index_strings":["mfm","macau","makao","mo"],"code":"MFM","country_name":"Makao","timezone":"Asia\/Macau","searchable":true,"country_code":"MO","coordinates":{"lat":22.1638446,"lon":113.5549937},"type":"city","name":"Macau"},{"country_name":"Makao","weight":1339,"type":"airport","code":"MFM","searchable":true,"index_strings":["mfm","macau international","macau","makao","mo","macau international airport"],"coordinates":{"lat":22.156588,"lon":113.57285},"city_code":"MFM","city_name":"Macau","timezone":"Asia\/Macau","country_code":"MO","name":"Macau International"},{"country_name":"Birleşik Arap Emirlikleri","weight":1335,"type":"airport","code":"DXB","searchable":true,"index_strings":["dxb","dubai international","dubai","birleşik arap emirlikleri","ae","dubai airport","united arab emirates"],"coordinates":{"lat":25.248665,"lon":55.352917},"city_code":"DXB","city_name":"Dubai","timezone":"Asia\/Dubai","country_code":"AE","name":"Dubai International"},{"country_name":"Türkiye","weight":1334,"type":"airport","code":"ESB","searchable":true,"index_strings":["esb","ankara esenboğa havalimanı","ankara","ank","türkiye","tr","esenboga international airport","turkey"],"coordinates":{"lat":40.11494,"lon":32.993145},"city_code":"ANK","city_name":"Ankara","timezone":"Europe\/Istanbul","country_code":"TR","name":"Ankara Esenboğa Havalimanı"},{"weight":1324,"index_strings":["бомбей","bombay","mumbai\/bombay chhatrapati shivaji int'l","bom","mumbai","hindistan","in","india","chhatrapati shivaji international airport"],"code":"BOM","country_name":"Hindistan","timezone":"Asia\/Kolkata","searchable":true,"country_code":"IN","coordinates":{"lat":19.095509,"lon":72.87497},"type":"city","name":"Mumbai"},{"weight":1324,"index_strings":["phrae","prh","tayland","th","thailand","phrae airport"],"code":"PRH","country_name":"Tayland","timezone":"Asia\/Bangkok","searchable":true,"country_code":"TH","coordinates":{"lat":18.15,"lon":100.13333},"type":"city","name":"Phrae"},{"weight":1296,"index_strings":["ngo","nagoya","japonya","jp","japan"],"code":"NGO","country_name":"Japonya","timezone":"Asia\/Tokyo","searchable":true,"country_code":"JP","coordinates":{"lat":34.8867002,"lon":136.8323973},"type":"city","name":"Nagoya"},{"country_name":"Japonya","weight":1294,"type":"airport","code":"NGO","searchable":true,"index_strings":["ngo","nagoya chubu centrair international","nagoya","japonya","jp","chubu centrair international airport","japan"],"coordinates":{"lat":34.858334,"lon":136.80528},"city_code":"NGO","city_name":"Nagoya","timezone":"Asia\/Tokyo","country_code":"JP","name":"Nagoya Chubu Centrair International"},{"weight":1288,"index_strings":["muc","münih","almanya","de","munich","germany"],"code":"MUC","country_name":"Almanya","timezone":"Europe\/Berlin","searchable":true,"country_code":"DE","coordinates":{"lat":48.1391265,"lon":11.5801863},"type":"city","name":"Münih"},{"country_name":"Almanya","weight":1284,"type":"airport","code":"MUC","searchable":true,"index_strings":["muc","munich franz joseph strauss int'l","münih","almanya","de","franz josef strauss airport","munich","germany"],"coordinates":{"lat":48.353004,"lon":11.790143},"city_code":"MUC","city_name":"Münih","timezone":"Europe\/Berlin","country_code":"DE","name":"Munich Franz Joseph Strauss Int'l"},{"weight":1284,"index_strings":["kathmandu tribhuvan international","ktm","katmandu","nepal","np","kathmandu","tribhuvan international airport"],"code":"KTM","country_name":"Nepal","timezone":"Asia\/Kathmandu","searchable":true,"country_code":"NP","coordinates":{"lat":27.699905,"lon":85.35657},"type":"city","name":"Katmandu"},{"weight":1275,"index_strings":["zürih havalimanı","zrh","zürih","i̇sviçre","ch","zurich","switzerland","zurich airport"],"code":"ZRH","country_name":"İsviçre","timezone":"Europe\/Zurich","searchable":true,"country_code":"CH","coordinates":{"lat":47.367347,"lon":8.5500025},"type":"city","name":"Zürih"},{"weight":1274,"index_strings":["trabzon","tzx","türkiye","tr","turkey","trabzon airport"],"code":"TZX","country_name":"Türkiye","timezone":"Europe\/Istanbul","searchable":true,"country_code":"TR","coordinates":{"lat":40.99419,"lon":39.78168},"type":"city","name":"Trabzon"},{"weight":1247,"index_strings":["kunming changshui international","kmg","kunming","çin","cn","china","kunming changshui international airport"],"code":"KMG","country_name":"Çin","timezone":"Asia\/Shanghai","searchable":true,"country_code":"CN","coordinates":{"lat":25.101944,"lon":102.92917},"type":"city","name":"Kunming"},{"weight":1230,"index_strings":["chumphon","cjm","tayland","th","thailand","chumphon airport"],"code":"CJM","country_name":"Tayland","timezone":"Asia\/Bangkok","searchable":true,"country_code":"TH","coordinates":{"lat":10.709722,"lon":99.36389},"type":"city","name":"Chumphon"},{"weight":1197,"index_strings":["viyana uluslararası havalimanı","vie","viyana","avusturya","at","vienna","austria","vienna international airport"],"code":"VIE","country_name":"Avusturya","timezone":"Europe\/Vienna","searchable":true,"country_code":"AT","coordinates":{"lat":48.2081743,"lon":16.3738189},"type":"city","name":"Viyana"},{"weight":1159,"index_strings":["auckland international","akl","auckland","yeni zelanda","nz","new zealand","auckland airport"],"code":"AKL","country_name":"Yeni Zelanda","timezone":"Pacific\/Auckland","searchable":true,"country_code":"NZ","coordinates":{"lat":-36.8484597,"lon":174.7633315},"type":"city","name":"Auckland"},{"weight":1155,"index_strings":["samsun carsamba","szf","samsun","türkiye","tr","turkey","samsun-carsamba airport"],"code":"SZF","country_name":"Türkiye","timezone":"Europe\/Istanbul","searchable":true,"country_code":"TR","coordinates":{"lat":41.25738,"lon":36.555058},"type":"city","name":"Samsun"},{"weight":1152,"index_strings":["san francisco uluslararası havalimanı","sfo","san francisco","abd","us","united states","san francisco international airport"],"code":"SFO","country_name":"ABD","timezone":"America\/Los_Angeles","searchable":true,"country_code":"US","coordinates":{"lat":37.7749295,"lon":-122.4194155},"type":"city","name":"San Francisco"},{"weight":1143,"index_strings":["chi","chicago","abd","us","united states"],"code":"CHI","country_name":"ABD","timezone":"America\/Chicago","searchable":true,"country_code":"US","coordinates":{"lat":41.8781136,"lon":-87.6297982},"type":"city","name":"Chicago"},{"weight":1135,"index_strings":["kayseri erkilet","asr","kayseri","türkiye","tr","turkey","kayseri airport"],"code":"ASR","country_name":"Türkiye","timezone":"Europe\/Istanbul","searchable":true,"country_code":"TR","coordinates":{"lat":38.7742,"lon":35.490707},"type":"city","name":"Kayseri"},{"weight":1131,"index_strings":["sel","seul","güney kore","kr","seoul","south korea"],"code":"SEL","country_name":"Güney Kore","timezone":"Asia\/Seoul","searchable":true,"country_code":"KR","coordinates":{"lat":37.566535,"lon":126.9779692},"type":"city","name":"Seul"},{"weight":1110,"index_strings":["kolkata\/calcutta netaji subhas chandra","ccu","kalküta","hindistan","in","kolkata","india","netaji subhas chandra bose airport"],"code":"CCU","country_name":"Hindistan","timezone":"Asia\/Kolkata","searchable":true,"country_code":"IN","coordinates":{"lat":22.64531,"lon":88.43931000000001},"type":"city","name":"Kalküta"},{"weight":1101,"index_strings":["бали","bali","denpasar-bali ngurah rai","dps","denpasar","endonezya","id","indonesia","ngurah rai international airport"],"code":"DPS","country_name":"Endonezya","timezone":"Asia\/Makassar","searchable":true,"country_code":"ID","coordinates":{"lat":-8.74446,"lon":115.16331},"type":"city","name":"Denpasar"},{"weight":1096,"index_strings":["ranong","unn","tayland","th","thailand","ranong airport"],"code":"UNN","country_name":"Tayland","timezone":"Asia\/Bangkok","searchable":true,"country_code":"TH","coordinates":{"lat":9.852778000000001,"lon":98.629166},"type":"city","name":"Ranong"},{"country_name":"Japonya","weight":1087,"type":"airport","code":"NRT","searchable":true,"index_strings":["nrt","tokyo narita international","tokyo","tyo","japonya","jp","narita international airport","japan"],"coordinates":{"lat":35.773212,"lon":140.38744},"city_code":"TYO","city_name":"Tokyo","timezone":"Asia\/Tokyo","country_code":"JP","name":"Tokyo Narita International"},{"country_name":"Güney Kore","weight":1078,"type":"airport","code":"ICN","searchable":true,"index_strings":["icn","seoul incheon international","seul","sel","güney kore","kr","incheon international airport","seoul","south korea"],"coordinates":{"lat":37.448524,"lon":126.45123},"city_code":"SEL","city_name":"Seul","timezone":"Asia\/Seoul","country_code":"KR","name":"Seoul Incheon International"},{"weight":1050,"index_strings":["szx","shenzhen","çin","cn","china"],"code":"SZX","country_name":"Çin","timezone":"Asia\/Shanghai","searchable":true,"country_code":"CN","coordinates":{"lat":22.543099,"lon":114.057868},"type":"city","name":"Shenzhen"},{"country_name":"Çin","weight":1049,"type":"airport","code":"SZX","searchable":true,"index_strings":["szx","shenzhen bao'an international","shenzhen","çin","cn","shenzhen bao'an international airport","china"],"coordinates":{"lat":22.639444,"lon":113.81084},"city_code":"SZX","city_name":"Shenzhen","timezone":"Asia\/Shanghai","country_code":"CN","name":"Shenzhen Bao'an International"},{"weight":1031,"index_strings":["mia","miami","abd","us","united states"],"code":"MIA","country_name":"ABD","timezone":"America\/New_York","searchable":true,"country_code":"US","coordinates":{"lat":25.7889689,"lon":-80.2264393},"type":"city","name":"Miami"},{"weight":1027,"index_strings":["mad","madrit","i̇spanya","es","madrid","spain"],"code":"MAD","country_name":"İspanya","timezone":"Europe\/Madrid","searchable":true,"country_code":"ES","coordinates":{"lat":40.4166909,"lon":-3.7003454},"type":"city","name":"Madrit"},{"weight":1008,"index_strings":["busan gimhae international","pus","busan","güney kore","kr","south korea","gimhae international airport"],"code":"PUS","country_name":"Güney Kore","timezone":"Asia\/Seoul","searchable":true,"country_code":"KR","coordinates":{"lat":35.179317,"lon":128.94873},"type":"city","name":"Busan"},{"weight":1008,"index_strings":["pai","pyy","pai district","tayland","th","thailand","pai airport"],"code":"PYY","country_name":"Tayland","timezone":"Asia\/Bangkok","searchable":true,"country_code":"TH","coordinates":{"lat":19.371666,"lon":98.43667000000001},"type":"city","name":"Pai District"},{"weight":1005,"index_strings":["loei","loe","tayland","th","thailand","loei airport"],"code":"LOE","country_name":"Tayland","timezone":"Asia\/Bangkok","searchable":true,"country_code":"TH","coordinates":{"lat":17.45,"lon":101.73333},"type":"city","name":"Loei"},{"weight":938,"index_strings":["ber","berlin","almanya","de","germany"],"code":"BER","country_name":"Almanya","timezone":"Europe\/Berlin","searchable":true,"country_code":"DE","coordinates":{"lat":52.5234051,"lon":13.4113999},"type":"city","name":"Berlin"},{"weight":921,"index_strings":["narathiwat","naw","tayland","th","thailand","narathiwat airport"],"code":"NAW","country_name":"Tayland","timezone":"Asia\/Bangkok","searchable":true,"country_code":"TH","coordinates":{"lat":6.516667,"lon":101.75},"type":"city","name":"Narathiwat"},{"weight":920,"index_strings":["prague ruzyne","prg","prag","çek cumhuriyeti","cz","prague","czech republic","vaclav havel airport prague"],"code":"PRG","country_name":"Çek Cumhuriyeti","timezone":"Europe\/Prague","searchable":true,"country_code":"CZ","coordinates":{"lat":50.0878114,"lon":14.4204598},"type":"city","name":"Prag"},{"weight":914,"index_strings":["mandalay international","mdl","mandalay","myanmar (burma)","mm","myanmar","mandalay international airport"],"code":"MDL","country_name":"Myanmar (Burma)","timezone":"Asia\/Rangoon","searchable":true,"country_code":"MM","coordinates":{"lat":21.940052,"lon":96.08750000000001},"type":"city","name":"Mandalay"},{"weight":881,"index_strings":["tiflis uluslararası havalimanı","tbs","tiflis","gürcistan","ge","tbilisi","georgia","tbilisi international airport"],"code":"TBS","country_name":"Gürcistan","timezone":"Asia\/Tbilisi","searchable":true,"country_code":"GE","coordinates":{"lat":41.674065,"lon":44.958958},"type":"city","name":"Tiflis"},{"weight":870,"index_strings":["yvr","vancouver","kanada","ca","canada"],"code":"YVR","country_name":"Kanada","timezone":"America\/Vancouver","searchable":true,"country_code":"CA","coordinates":{"lat":49.261226,"lon":-123.1139268},"type":"city","name":"Vancouver"},{"country_name":"Kanada","weight":868,"type":"airport","code":"YVR","searchable":true,"coordinates":{"lat":49.1947,"lon":-123.17919},"index_strings":["yvr","vancouver international","vancouver","kanada","ca","vancouver international airport","canada"],"city_code":"YVR","city_name":"Vancouver","state_code":"BC","country_code":"CA","name":"Vancouver International","timezone":"America\/Vancouver"},{"weight":868,"index_strings":["nyc","newark","abd","us","new york","united states"],"code":"NYC","country_name":"ABD","timezone":"America\/New_York","searchable":true,"country_code":"US","coordinates":{"lat":40.7143528,"lon":-74.00597310000001},"type":"city","name":"Newark"},{"weight":836,"index_strings":["gaziantep oguzeli","gzt","gaziantep","türkiye","tr","turkey","gaziantep airport"],"code":"GZT","country_name":"Türkiye","timezone":"Europe\/Istanbul","searchable":true,"country_code":"TR","coordinates":{"lat":36.944935,"lon":37.473747},"type":"city","name":"Gaziantep"},{"weight":819,"index_strings":["barcelona uluslararası havalimanı","bcn","barselona","i̇spanya","es","barcelona","spain","barcelona-el prat airport"],"code":"BCN","country_name":"İspanya","timezone":"Europe\/Madrid","searchable":true,"country_code":"ES","coordinates":{"lat":41.387917,"lon":2.1699187},"type":"city","name":"Barselona"},{"weight":799,"index_strings":["sawankolok","саванколок","sukhothai","ths","tayland","th","thailand","sukhothai airport"],"code":"THS","country_name":"Tayland","timezone":"Asia\/Bangkok","searchable":true,"country_code":"TH","coordinates":{"lat":17.223057,"lon":99.82222},"type":"city","name":"Sukhothai"},{"weight":789,"index_strings":["las","las vegas","abd","us","united states"],"code":"LAS","country_name":"ABD","timezone":"America\/Los_Angeles","searchable":true,"country_code":"US","coordinates":{"lat":36.114646,"lon":-115.172816},"type":"city","name":"Las Vegas"},{"country_name":"ABD","weight":788,"type":"airport","code":"LAS","searchable":true,"coordinates":{"lat":36.086945,"lon":-115.1486},"index_strings":["las","las vegas mccarran international","las vegas","abd","us","mccarran international airport","united states"],"city_code":"LAS","city_name":"Las Vegas","state_code":"NV","country_code":"US","name":"Las Vegas McCarran International","timezone":"America\/Los_Angeles"},{"weight":783,"index_strings":["phnom penh international","pnh","phnom penh","kamboçya","kh","cambodia","phnom penh international airport"],"code":"PNH","country_name":"Kamboçya","timezone":"Asia\/Phnom_Penh","searchable":true,"country_code":"KH","coordinates":{"lat":11.546111,"lon":104.84778},"type":"city","name":"Phnom Penh"},{"weight":781,"index_strings":["male ibrahim nasir international","mle","malé","maldivler","mv","male","maldives","male international airport"],"code":"MLE","country_name":"Maldivler","timezone":"Indian\/Maldives","searchable":true,"country_code":"MV","coordinates":{"lat":4.201389,"lon":73.524445},"type":"city","name":"Malé"},{"weight":775,"index_strings":["richmond international (byrd field)","ric","richmond","abd","us","united states","richmond international airport (byrd field)"],"code":"RIC","country_name":"ABD","timezone":"America\/New_York","searchable":true,"country_code":"US","coordinates":{"lat":37.542979,"lon":-77.469092},"type":"city","name":"Richmond"},{"weight":754,"index_strings":["iev","kiev","i̇spanya","ua","ukraine"],"code":"IEV","country_name":"İspanya","timezone":"Europe\/Kiev","searchable":true,"country_code":"UA","coordinates":{"lat":50.45,"lon":30.5},"type":"city","name":"Kiev"},{"weight":748,"index_strings":["tlv","tel aviv","i̇srail","il","tel aviv-yafo","israel"],"code":"TLV","country_name":"İsrail","timezone":"Asia\/Jerusalem","searchable":true,"country_code":"IL","coordinates":{"lat":32.000454,"lon":34.870743},"type":"city","name":"Tel Aviv"},{"weight":743,"index_strings":["copenhagen kastrup","cph","kopenhag","danimarka","dk","copenhagen","denmark","copenhagen airport"],"code":"CPH","country_name":"Danimarka","timezone":"Europe\/Copenhagen","searchable":true,"country_code":"DK","coordinates":{"lat":55.693403,"lon":12.583046},"type":"city","name":"Kopenhag"},{"weight":743,"index_strings":["nanning wuxu international","nng","nanning","çin","cn","china","nanning airport"],"code":"NNG","country_name":"Çin","timezone":"Asia\/Shanghai","searchable":true,"country_code":"CN","coordinates":{"lat":22.61321,"lon":108.1675},"type":"city","name":"Nanning"},{"country_name":"İsrail","weight":740,"type":"airport","code":"TLV","searchable":true,"index_strings":["tlv","tel aviv-yafo ben gurion international","tel aviv","i̇srail","il","ben gurion international airport","tel aviv-yafo","israel"],"coordinates":{"lat":32.000454,"lon":34.870743},"city_code":"TLV","city_name":"Tel Aviv","timezone":"Asia\/Jerusalem","country_code":"IL","name":"Tel Aviv-Yafo Ben Gurion International"},{"weight":727,"index_strings":["bos","boston","abd","us","united states"],"code":"BOS","country_name":"ABD","timezone":"America\/New_York","searchable":true,"country_code":"US","coordinates":{"lat":42.3584308,"lon":-71.0597732},"type":"city","name":"Boston"},{"country_name":"ABD","weight":726,"type":"airport","code":"BOS","searchable":true,"coordinates":{"lat":42.36646,"lon":-71.02018},"index_strings":["bos","boston logan international","boston","abd","us","logan international airport","united states"],"city_code":"BOS","city_name":"Boston","state_code":"MA","country_code":"US","name":"Boston Logan International","timezone":"America\/New_York"},{"weight":716,"index_strings":["lon","londra","birleşik krallık","gb","london","united kingdom"],"code":"LON","country_name":"Birleşik Krallık","timezone":"Europe\/London","searchable":true,"country_code":"GB","coordinates":{"lat":51.51,"lon":0.06},"type":"city","name":"Londra"},{"weight":701,"index_strings":["chennai international","maa","chennai","hindistan","in","india","chennai airport"],"code":"MAA","country_name":"Hindistan","timezone":"Asia\/Kolkata","searchable":true,"country_code":"IN","coordinates":{"lat":12.982267,"lon":80.16378},"type":"city","name":"Chennai"},{"weight":678,"index_strings":["bengaluru kempegowda international","blr","bangalore","hindistan","in","bengaluru","india","kempegowda international airport"],"code":"BLR","country_name":"Hindistan","timezone":"Asia\/Kolkata","searchable":true,"country_code":"IN","coordinates":{"lat":13.198889,"lon":77.70556000000001},"type":"city","name":"Bangalore"},{"country_name":"İspanya","weight":651,"type":"airport","code":"MAD","searchable":true,"index_strings":["mad","madrid adolfo suarez-barajas","madrit","i̇spanya","es","adolfo suarez madrid-barajas airport","madrid","spain"],"coordinates":{"lat":40.46515,"lon":-3.570209},"city_code":"MAD","city_name":"Madrit","timezone":"Europe\/Madrid","country_code":"ES","name":"Madrid Adolfo Suarez-Barajas"},{"weight":651,"index_strings":["jeju international","cju","jeju-si","güney kore","kr","jeju","south korea","jeju international airport"],"code":"CJU","country_name":"Güney Kore","timezone":"Asia\/Seoul","searchable":true,"country_code":"KR","coordinates":{"lat":33.4996213,"lon":126.5311884},"type":"city","name":"Jeju-si"},{"weight":650,"index_strings":["bru","brüksel","belçika","be","brussels","belgium"],"code":"BRU","country_name":"Belçika","timezone":"Europe\/Brussels","searchable":true,"country_code":"BE","coordinates":{"lat":50.8503396,"lon":4.3517103},"type":"city","name":"Brüksel"},{"weight":643,"index_strings":["manchester","man","birleşik krallık","gb","united kingdom","manchester airport"],"code":"MAN","country_name":"Birleşik Krallık","timezone":"Europe\/London","searchable":true,"country_code":"GB","coordinates":{"lat":53.4807125,"lon":-2.2343765},"type":"city","name":"Manchester"},{"weight":640,"index_strings":["vce","venedik","i̇talya","it","venice","italy"],"code":"VCE","country_name":"İtalya","timezone":"Europe\/Rome","searchable":true,"country_code":"IT","coordinates":{"lat":45.4343363,"lon":12.3387844},"type":"city","name":"Venedik"},{"country_name":"Belçika","weight":634,"type":"airport","code":"BRU","searchable":true,"index_strings":["bru","brussels","brüksel","belçika","be","brussels airport","belgium"],"coordinates":{"lat":50.89717,"lon":4.483602},"city_code":"BRU","city_name":"Brüksel","timezone":"Europe\/Brussels","country_code":"BE","name":"Brussels"},{"weight":634,"index_strings":["colombo bandaranaike international","cmb","kolombo","sri lanka","lk","colombo","bandaranaike international airport"],"code":"CMB","country_name":"Sri Lanka","timezone":"Asia\/Colombo","searchable":true,"country_code":"LK","coordinates":{"lat":6.927468,"lon":79.848358},"type":"city","name":"Kolombo"},{"weight":633,"index_strings":["cairo international","cai","kahire","mısır","eg","cairo","egypt","cairo international airport"],"code":"CAI","country_name":"Mısır","timezone":"Africa\/Cairo","searchable":true,"country_code":"EG","coordinates":{"lat":30.120106,"lon":31.40647},"type":"city","name":"Kahire"},{"weight":617,"index_strings":["konya","kya","türkiye","tr","turkey","konya airport"],"code":"KYA","country_name":"Türkiye","timezone":"Europe\/Istanbul","searchable":true,"country_code":"TR","coordinates":{"lat":37.979168,"lon":32.56222},"type":"city","name":"Konya"},{"country_name":"ABD","weight":609,"type":"airport","code":"MIA","searchable":true,"coordinates":{"lat":25.796,"lon":-80.27824},"index_strings":["mia","miami international","miami","abd","us","miami international airport","united states"],"city_code":"MIA","city_name":"Miami","state_code":"FL","country_code":"US","name":"Miami International","timezone":"America\/New_York"},{"weight":609,"index_strings":["osl","oslo","norveç","no","norway"],"code":"OSL","country_name":"Norveç","timezone":"Europe\/Oslo","searchable":true,"country_code":"NO","coordinates":{"lat":59.9138688,"lon":10.7522454},"type":"city","name":"Oslo"},{"weight":597,"index_strings":["denizli cardak","dnz","denizli","türkiye","tr","turkey","cardak airport"],"code":"DNZ","country_name":"Türkiye","timezone":"Europe\/Istanbul","searchable":true,"country_code":"TR","coordinates":{"lat":37.787224,"lon":29.703333},"type":"city","name":"Denizli"},{"weight":592,"index_strings":["orl","orlando","abd","us","united states"],"code":"ORL","country_name":"ABD","timezone":"America\/New_York","searchable":true,"country_code":"US","coordinates":{"lat":28.533611,"lon":-81.386667},"type":"city","name":"Orlando"},{"country_name":"Norveç","weight":589,"type":"airport","code":"OSL","searchable":true,"index_strings":["osl","oslo gardermoen","oslo","norveç","no","oslo airport gardermoen","norway"],"coordinates":{"lat":60.19419,"lon":11.100411},"city_code":"OSL","city_name":"Oslo","timezone":"Europe\/Oslo","country_code":"NO","name":"Oslo Gardermoen"},{"country_name":"ABD","weight":585,"type":"airport","code":"JFK","searchable":true,"coordinates":{"lat":40.642334,"lon":-73.78816999999999},"index_strings":["jfk","new york john f kennedy international","newark","nyc","abd","us","john f. kennedy international airport","new york","united states"],"city_code":"NYC","city_name":"Newark","state_code":"NY","country_code":"US","name":"New York John F Kennedy International","timezone":"America\/New_York"},{"weight":577,"index_strings":["kutahya zafer","kzr","kütahya","türkiye","tr","kutahya","turkey","zafer airport"],"code":"KZR","country_name":"Türkiye","timezone":"Europe\/Istanbul","searchable":true,"country_code":"TR","coordinates":{"lat":39.120277,"lon":30.116945},"type":"city","name":"Kütahya"},{"weight":569,"index_strings":["lahore allama iqbal international","lhe","lahor","pakistan","pk","lahore","allama iqbal international airport"],"code":"LHE","country_name":"Pakistan","timezone":"Asia\/Karachi","searchable":true,"country_code":"PK","coordinates":{"lat":31.520832,"lon":74.40278000000001},"type":"city","name":"Lahor"},{"weight":568,"index_strings":["sankt petersburg","st petersburg","leningrad","ленинград","питер","спб","st petersburg pulkovo","led","saint petersburg","rusya","ru","russia","pulkovo airport"],"code":"LED","country_name":"Rusya","timezone":"Europe\/Moscow","searchable":true,"country_code":"RU","coordinates":{"lat":59.939039,"lon":30.315785},"type":"city","name":"Saint Petersburg"},{"weight":568,"index_strings":["islamabad benazir bhutto international","isb","i̇slamabat","pakistan","pk","islamabad","benazir bhutto international airport"],"code":"ISB","country_name":"Pakistan","timezone":"Asia\/Karachi","searchable":true,"country_code":"PK","coordinates":{"lat":33.609707,"lon":73.10509999999999},"type":"city","name":"İslamabat"},{"weight":566,"index_strings":["thr","tahran","i̇ran","ir","tehran","iran"],"code":"THR","country_name":"İran","timezone":"Asia\/Tehran","searchable":true,"country_code":"IR","coordinates":{"lat":35.6961111,"lon":51.4230556},"type":"city","name":"Tahran"},{"weight":566,"index_strings":["tacoma","такома","塔科马","sea","seattle","abd","us","united states"],"code":"SEA","country_name":"ABD","timezone":"America\/Los_Angeles","searchable":true,"country_code":"US","coordinates":{"lat":47.6062095,"lon":-122.3320708},"type":"city","name":"Seattle"},{"weight":563,"index_strings":["perth international","per","perth","avustralya","au","australia","perth airport"],"code":"PER","country_name":"Avustralya","timezone":"Australia\/Perth","searchable":true,"country_code":"AU","coordinates":{"lat":-31.9522222,"lon":115.8588889},"type":"city","name":"Perth"},{"country_name":"ABD","weight":560,"type":"airport","code":"SEA","searchable":true,"coordinates":{"lat":47.44384,"lon":-122.301735},"index_strings":["sea","seattle\/tacoma sea\/tac","seattle","abd","us","seattle-tacoma international airport","united states"],"city_code":"SEA","city_name":"Seattle","state_code":"WA","country_code":"US","name":"Seattle\/Tacoma Sea\/Tac","timezone":"America\/Los_Angeles"},{"weight":545,"index_strings":["helsinki","хельсинки","helsinki-vantaa havalimanı","hel","finlandiya","fi","finland","helsinki-vantaa airport"],"code":"HEL","country_name":"Finlandiya","timezone":"Europe\/Helsinki","searchable":true,"country_code":"FI","coordinates":{"lat":60.2943605,"lon":25.0402427},"type":"city","name":"Helsinki"},{"weight":535,"index_strings":["yto","toronto","kanada","ca","canada"],"code":"YTO","country_name":"Kanada","timezone":"America\/Toronto","searchable":true,"country_code":"CA","coordinates":{"lat":43.653524,"lon":-79.3839069},"type":"city","name":"Toronto"},{"weight":533,"index_strings":["yerevan zvartnots international","evn","erivan","ermenistan","am","yerevan","armenia","zvartnots international airport"],"code":"EVN","country_name":"Ermenistan","timezone":"Asia\/Yerevan","searchable":true,"country_code":"AM","coordinates":{"lat":40.15272,"lon":44.39805},"type":"city","name":"Erivan"},{"weight":529,"index_strings":["chengdu shuangliu international","ctu","çengdu","çin","cn","chengdu","china","chengdu shuangliu international airport"],"code":"CTU","country_name":"Çin","timezone":"Asia\/Shanghai","searchable":true,"country_code":"CN","coordinates":{"lat":30.581135,"lon":103.9568},"type":"city","name":"Çengdu"},{"weight":528,"index_strings":["christchurch international","chc","christchurch","yeni zelanda","nz","new zealand","christchurch international airport"],"code":"CHC","country_name":"Yeni Zelanda","timezone":"Pacific\/Auckland","searchable":true,"country_code":"NZ","coordinates":{"lat":-43.488655,"lon":172.5389},"type":"city","name":"Christchurch"},{"weight":513,"index_strings":["da nang uluslararası havaalanı","dad","da nang","vietnam","vn","da nang international airport"],"code":"DAD","country_name":"Vietnam","timezone":"Asia\/Ho_Chi_Minh","searchable":true,"country_code":"VN","coordinates":{"lat":16.055399,"lon":108.20298},"type":"city","name":"Da Nang"},{"weight":502,"index_strings":["siem reap angkor international","rep","siem reap","kamboçya","kh","cambodia","siem reap international airport"],"code":"REP","country_name":"Kamboçya","timezone":"Asia\/Phnom_Penh","searchable":true,"country_code":"KH","coordinates":{"lat":13.408436,"lon":103.815926},"type":"city","name":"Siem Reap"},{"weight":502,"index_strings":["surabaya juanda","sub","surabaya","endonezya","id","indonesia","juanda international airport"],"code":"SUB","country_name":"Endonezya","timezone":"Asia\/Jakarta","searchable":true,"country_code":"ID","coordinates":{"lat":-7.38387,"lon":112.77724},"type":"city","name":"Surabaya"},{"country_name":"Birleşik Krallık","weight":490,"type":"airport","code":"LHR","searchable":true,"index_strings":["lhr","londra heathrow havalimanı","londra","lon","birleşik krallık","gb","london heathrow airport","london","united kingdom"],"coordinates":{"lat":51.469604,"lon":-0.453566},"city_code":"LON","city_name":"Londra","timezone":"Europe\/London","country_code":"GB","name":"Londra Heathrow Havalimanı"},{"country_name":"İtalya","weight":489,"type":"airport","code":"VCE","searchable":true,"index_strings":["vce","venice marco polo","venedik","i̇talya","it","venice marco polo airport","venice","italy"],"coordinates":{"lat":45.502285,"lon":12.337947},"city_code":"VCE","city_name":"Venedik","timezone":"Europe\/Rome","country_code":"IT","name":"Venice Marco Polo"},{"country_name":"ABD","weight":486,"type":"airport","code":"DFW","searchable":true,"coordinates":{"lat":32.89746,"lon":-97.036125},"index_strings":["dfw","dallas\/ft worth international","dallas","abd","us","dallas\/fort worth international airport","united states"],"city_code":"DFW","city_name":"Dallas","state_code":"TX","country_code":"US","name":"Dallas\/Ft Worth International","timezone":"America\/Chicago"},{"weight":478,"index_strings":["qingdao liuting international","tao","qingdao","çin","cn","china","qingdao liuting international airport"],"code":"TAO","country_name":"Çin","timezone":"Asia\/Shanghai","searchable":true,"country_code":"CN","coordinates":{"lat":36.265884,"lon":120.38236},"type":"city","name":"Qingdao"},{"weight":477,"index_strings":["dfw","dallas","abd","us","united states"],"code":"DFW","country_name":"ABD","timezone":"America\/Chicago","searchable":true,"country_code":"US","coordinates":{"lat":32.802955,"lon":-96.76992300000001},"type":"city","name":"Dallas"},{"weight":470,"index_strings":["athens eleftherios venizelos","ath","atina","yunanistan","gr","athens","greece","eleftherios venizelos international airport"],"code":"ATH","country_name":"Yunanistan","timezone":"Europe\/Athens","searchable":true,"country_code":"GR","coordinates":{"lat":37.93635,"lon":23.946486},"type":"city","name":"Atina"},{"weight":466,"index_strings":["brisbane international","bne","brisbane","avustralya","au","australia","brisbane airport"],"code":"BNE","country_name":"Avustralya","timezone":"Australia\/Brisbane","searchable":true,"country_code":"AU","coordinates":{"lat":-27.4709331,"lon":153.0235024},"type":"city","name":"Brisbane"},{"weight":465,"index_strings":["karachi quaid-e-azam int'l","khi","karaçi","pakistan","pk","karachi","jinnah international airport"],"code":"KHI","country_name":"Pakistan","timezone":"Asia\/Karachi","searchable":true,"country_code":"PK","coordinates":{"lat":24.899986,"lon":67.16828},"type":"city","name":"Karaçi"},{"weight":463,"index_strings":["cebu mactan international","ceb","cebu city","filipinler","ph","philippines","mactan-cebu international airport"],"code":"CEB","country_name":"Filipinler","timezone":"Asia\/Manila","searchable":true,"country_code":"PH","coordinates":{"lat":10.313333,"lon":123.98278},"type":"city","name":"Cebu City"},{"weight":460,"index_strings":["par","paris","fransa","fr","france"],"code":"PAR","country_name":"Fransa","timezone":"Europe\/Paris","searchable":true,"country_code":"FR","coordinates":{"lat":48.856614,"lon":2.3522219},"type":"city","name":"Paris"},{"weight":457,"index_strings":["atl","atlanta","abd","us","united states"],"code":"ATL","country_name":"ABD","timezone":"America\/New_York","searchable":true,"country_code":"US","coordinates":{"lat":33.7489954,"lon":-84.3879824},"type":"city","name":"Atlanta"},{"country_name":"ABD","weight":457,"type":"airport","code":"ATL","searchable":true,"coordinates":{"lat":33.640068,"lon":-84.44403},"index_strings":["atl","atlanta hartsfield-jackson atl","atlanta","abd","us","hartsfield-jackson atlanta international airport","united states"],"city_code":"ATL","city_name":"Atlanta","state_code":"GA","country_code":"US","name":"Atlanta Hartsfield-Jackson ATL","timezone":"America\/New_York"},{"weight":448,"index_strings":["geneva international","gva","cenevre","i̇sviçre","ch","geneva","switzerland","geneve airport"],"code":"GVA","country_name":"İsviçre","timezone":"Europe\/Zurich","searchable":true,"country_code":"CH","coordinates":{"lat":46.1983922,"lon":6.1422961},"type":"city","name":"Cenevre"},{"weight":439,"index_strings":["hyderabad rajiv gandhi international","hyd","haydarabad","hindistan","in","hyderabad","india","rajiv gandhi international airport"],"code":"HYD","country_name":"Hindistan","timezone":"Asia\/Kolkata","searchable":true,"country_code":"IN","coordinates":{"lat":17.385044,"lon":78.486671},"type":"city","name":"Haydarabad"},{"weight":438,"index_strings":["bursa yenisehir","yei","bursa","türkiye","tr","turkey","yenisehir airport"],"code":"YEI","country_name":"Türkiye","timezone":"Europe\/Istanbul","searchable":true,"country_code":"TR","coordinates":{"lat":40.233334,"lon":29.55},"type":"city","name":"Bursa"},{"weight":407,"index_strings":["pakse international","pkz","pakse","laos","la","pakse airport"],"code":"PKZ","country_name":"Laos","timezone":"Asia\/Vientiane","searchable":true,"country_code":"LA","coordinates":{"lat":15.136257,"lon":105.781296},"type":"city","name":"Pakse"},{"weight":402,"index_strings":["gaya","gay","hindistan","in","india","gaya airport"],"code":"GAY","country_name":"Hindistan","timezone":"Asia\/Kolkata","searchable":true,"country_code":"IN","coordinates":{"lat":24.746668,"lon":84.94583},"type":"city","name":"Gaya"},{"weight":402,"index_strings":["xiamen gaoqi international","xmn","xiamen","çin","cn","china","xiamen gaoqi international airport"],"code":"XMN","country_name":"Çin","timezone":"Asia\/Shanghai","searchable":true,"country_code":"CN","coordinates":{"lat":24.536882,"lon":118.1275},"type":"city","name":"Xiamen"},{"country_name":"İspanya","weight":398,"type":"airport","code":"KBP","searchable":true,"index_strings":["kbp","kiev boryspil international","kiev","iev","i̇spanya","ua","boryspil international airport","ukraine"],"coordinates":{"lat":50.341244,"lon":30.895206},"city_code":"IEV","city_name":"Kiev","timezone":"Europe\/Kiev","country_code":"UA","name":"Kiev Boryspil International"},{"weight":391,"index_strings":["dublin international","dub","dublin","i̇rlanda","ie","ireland","dublin airport"],"code":"DUB","country_name":"İrlanda","timezone":"Europe\/Dublin","searchable":true,"country_code":"IE","coordinates":{"lat":53.42728,"lon":-6.24357},"type":"city","name":"Dublin"},{"country_name":"Fransa","weight":390,"type":"airport","code":"CDG","searchable":true,"index_strings":["cdg","paris-charles de gaulle havalimanı","paris","par","fransa","fr","charles de gaulle airport","france"],"coordinates":{"lat":49.003197,"lon":2.567023},"city_code":"PAR","city_name":"Paris","timezone":"Europe\/Paris","country_code":"FR","name":"Paris-charles De Gaulle Havalimanı"},{"weight":387,"index_strings":["kochi international","cok","koçi","hindistan","in","kochi","india","cochin international airport"],"code":"COK","country_name":"Hindistan","timezone":"Asia\/Kolkata","searchable":true,"country_code":"IN","coordinates":{"lat":10.155644,"lon":76.39053},"type":"city","name":"Koçi"},{"weight":380,"index_strings":["hangzhou xiaoshan international","hgh","hangzhou","çin","cn","china","hangzhou xiaoshan international airport"],"code":"HGH","country_name":"Çin","timezone":"Asia\/Shanghai","searchable":true,"country_code":"CN","coordinates":{"lat":30.236935,"lon":120.43236},"type":"city","name":"Hangzhou"},{"weight":379,"index_strings":["budapest liszt ferenc international","bud","budapeşte","macaristan","hu","budapest","hungary","budapest ferenc liszt international airport"],"code":"BUD","country_name":"Macaristan","timezone":"Europe\/Budapest","searchable":true,"country_code":"HU","coordinates":{"lat":47.4984056,"lon":19.0407578},"type":"city","name":"Budapeşte"},{"weight":374,"index_strings":["honolulu international","hnl","honolulu","abd","us","united states","honolulu international airport"],"code":"HNL","country_name":"ABD","timezone":"Pacific\/Honolulu","searchable":true,"country_code":"US","coordinates":{"lat":21.3069444,"lon":-157.8583333},"type":"city","name":"Honolulu"},{"weight":373,"index_strings":["shantou jieyang chaoshan","swa","jieyang","çin","cn","china","jieyang chaoshan airport"],"code":"SWA","country_name":"Çin","timezone":"Asia\/Shanghai","searchable":true,"country_code":"CN","coordinates":{"lat":23.430237,"lon":116.75859},"type":"city","name":"Jieyang"},{"weight":372,"index_strings":["goa dabolim","goi","goa","hindistan","in","india","dabolim airport"],"code":"GOI","country_name":"Hindistan","timezone":"Asia\/Kolkata","searchable":true,"country_code":"IN","coordinates":{"lat":15.384534,"lon":73.83983000000001},"type":"city","name":"Goa"},{"weight":371,"index_strings":["paro international","pbh","paro","butan","bt","bhutan","paro airport"],"code":"PBH","country_name":"Butan","timezone":"Asia\/Thimphu","searchable":true,"country_code":"BT","coordinates":{"lat":27.433332,"lon":89.416664},"type":"city","name":"Paro"},{"weight":365,"index_strings":["dus","düsseldorf","almanya","de","dusseldorf","germany"],"code":"DUS","country_name":"Almanya","timezone":"Europe\/Berlin","searchable":true,"country_code":"DE","coordinates":{"lat":51.2249429,"lon":6.7756524},"type":"city","name":"Düsseldorf"},{"weight":364,"index_strings":["thiruvananthapuram international","trv","thiruvananthapuram","hindistan","in","india","trivandrum international airport"],"code":"TRV","country_name":"Hindistan","timezone":"Asia\/Kolkata","searchable":true,"country_code":"IN","coordinates":{"lat":8.476126000000001,"lon":76.91907},"type":"city","name":"Thiruvananthapuram"},{"weight":363,"index_strings":["dhaka hazrat shahjalal international","dac","dakka","bangladeş","bd","dhaka","bangladesh","hazrat shahjalal international airport"],"code":"DAC","country_name":"Bangladeş","timezone":"Asia\/Dhaka","searchable":true,"country_code":"BD","coordinates":{"lat":23.848648,"lon":90.40587600000001},"type":"city","name":"Dakka"},{"weight":363,"index_strings":["langkawi international","lgk","langkawi","malezya","my","malaysia","langkawi international airport"],"code":"LGK","country_name":"Malezya","timezone":"Asia\/Kuala_Lumpur","searchable":true,"country_code":"MY","coordinates":{"lat":6.342174,"lon":99.73139999999999},"type":"city","name":"Langkawi"},{"weight":361,"index_strings":["нерезиновая","понаехавск","нерезиновск","defaultcity","mow","moskova","rusya","ru","moscow","russia"],"code":"MOW","country_name":"Rusya","timezone":"Europe\/Moscow","searchable":true,"country_code":"RU","coordinates":{"lat":55.755786,"lon":37.617633},"type":"city","name":"Moskova"},{"country_name":"İspanya","weight":356,"type":"airport","code":"IEV","searchable":true,"index_strings":["iev","kiev zhuliany international","kiev","i̇spanya","ua","kyiv international airport","ukraine"],"coordinates":{"lat":50.401943,"lon":30.450832},"city_code":"IEV","city_name":"Kiev","timezone":"Europe\/Kiev","country_code":"UA","name":"Kiev Zhuliany International"},{"country_name":"Japonya","weight":353,"type":"airport","code":"HND","searchable":true,"index_strings":["hnd","tokyo uluslararası havalimanı","tokyo","tyo","japonya","jp","haneda airport","japan"],"coordinates":{"lat":35.54907,"lon":139.78453},"city_code":"TYO","city_name":"Tokyo","timezone":"Asia\/Tokyo","country_code":"JP","name":"Tokyo Uluslararası Havalimanı"},{"country_name":"Almanya","weight":351,"type":"airport","code":"DUS","searchable":true,"index_strings":["dus","duesseldorf international","düsseldorf","almanya","de","dusseldorf international airport","dusseldorf","germany"],"coordinates":{"lat":51.278328,"lon":6.76558},"city_code":"DUS","city_name":"Düsseldorf","timezone":"Europe\/Berlin","country_code":"DE","name":"Duesseldorf International"},{"weight":350,"index_strings":["bjs","pekin","çin","cn","beijing","china"],"code":"BJS","country_name":"Çin","timezone":"Asia\/Shanghai","searchable":true,"country_code":"CN","coordinates":{"lat":39.904214,"lon":116.407413},"type":"city","name":"Pekin"},{"weight":350,"index_strings":["jnb","johannesburg","güney afrika","za","south africa"],"code":"JNB","country_name":"Güney Afrika","timezone":"Africa\/Johannesburg","searchable":true,"country_code":"ZA","coordinates":{"lat":-26.2041028,"lon":28.0473051},"type":"city","name":"Johannesburg"},{"weight":346,"index_strings":["den","denver","abd","us","united states"],"code":"DEN","country_name":"ABD","timezone":"America\/Denver","searchable":true,"country_code":"US","coordinates":{"lat":39.7391536,"lon":-104.9847034},"type":"city","name":"Denver"},{"weight":345,"index_strings":["okinawa","окинава","okinawa naha","oka","okinava","japonya","jp","japan","naha airport"],"code":"OKA","country_name":"Japonya","timezone":"Asia\/Tokyo","searchable":true,"country_code":"JP","coordinates":{"lat":26.2285302,"lon":127.6891103},"type":"city","name":"Okinava"},{"country_name":"ABD","weight":343,"type":"airport","code":"DEN","searchable":true,"coordinates":{"lat":39.84939,"lon":-104.672844},"index_strings":["den","denver international","denver","abd","us","denver international airport","united states"],"city_code":"DEN","city_name":"Denver","state_code":"CO","country_code":"US","name":"Denver International","timezone":"America\/Denver"},{"weight":342,"index_strings":["jeddah king abdulaziz international","jed","cidde","suudi arabistan","sa","jeddah","saudi arabia","king abdulaziz international airport"],"code":"JED","country_name":"Suudi Arabistan","timezone":"Asia\/Riyadh","searchable":true,"country_code":"SA","coordinates":{"lat":21.670233,"lon":39.150578},"type":"city","name":"Cidde"},{"weight":338,"index_strings":["van ferit melen","van","türkiye","tr","turkey","van ferit melen airport"],"code":"VAN","country_name":"Türkiye","timezone":"Europe\/Istanbul","searchable":true,"country_code":"TR","coordinates":{"lat":38.45861,"lon":43.332222},"type":"city","name":"Van"},{"country_name":"Güney Afrika","weight":337,"type":"airport","code":"JNB","searchable":true,"index_strings":["jnb","johannesburg o.r. tambo international","johannesburg","güney afrika","za","o.r. tambo international airport","south africa"],"coordinates":{"lat":-26.132664,"lon":28.231314},"city_code":"JNB","city_name":"Johannesburg","timezone":"Africa\/Johannesburg","country_code":"ZA","name":"Johannesburg O.R. Tambo International"},{"country_name":"Çin","weight":337,"type":"airport","code":"PEK","searchable":true,"index_strings":["pek","pekin havaalanı","pekin","bjs","çin","cn","beijing capital international airport","beijing","china"],"coordinates":{"lat":40.078537,"lon":116.5871},"city_code":"BJS","city_name":"Pekin","timezone":"Asia\/Shanghai","country_code":"CN","name":"Pekin Havaalanı"},{"country_name":"Çin","weight":336,"type":"airport","code":"PVG","searchable":true,"index_strings":["pvg","shanghai pudong international","şanghay","sha","çin","cn","shanghai pudong international airport","shanghai","china"],"coordinates":{"lat":31.151825,"lon":121.799805},"city_code":"SHA","city_name":"Şanghay","timezone":"Asia\/Shanghai","country_code":"CN","name":"Shanghai Pudong International"},{"weight":324,"index_strings":["bahrain international","bah","bahrain island","bahreyn","bh","bahrain","bahrain international airport"],"code":"BAH","country_name":"Bahreyn","timezone":"Asia\/Bahrain","searchable":true,"country_code":"BH","coordinates":{"lat":26.26918,"lon":50.62605},"type":"city","name":"Bahrain Island"},{"weight":312,"index_strings":["mex","mexico city","meksika","mx","mexico"],"code":"MEX","country_name":"Meksika","timezone":"America\/Mexico_City","searchable":true,"country_code":"MX","coordinates":{"lat":19.4270499,"lon":-99.1275711},"type":"city","name":"Mexico City"},{"country_name":"Polonya","weight":311,"type":"airport","code":"WAW","searchable":true,"index_strings":["waw","warsaw frederic chopin","varşova","polonya","pl","frederic chopin airport","warsaw","poland"],"coordinates":{"lat":52.170906,"lon":20.97329},"city_code":"WAW","city_name":"Varşova","timezone":"Europe\/Warsaw","country_code":"PL","name":"Warsaw Frederic Chopin"},{"weight":311,"index_strings":["waw","varşova","polonya","pl","warsaw","poland"],"code":"WAW","country_name":"Polonya","timezone":"Europe\/Warsaw","searchable":true,"country_code":"PL","coordinates":{"lat":52.170906,"lon":20.97329},"type":"city","name":"Varşova"},{"country_name":"Meksika","weight":309,"type":"airport","code":"MEX","searchable":true,"index_strings":["mex","mexico city benito juarez international","mexico city","meksika","mx","benito juarez international airport","mexico"],"coordinates":{"lat":19.435278,"lon":-99.07277999999999},"city_code":"MEX","city_name":"Mexico City","timezone":"America\/Mexico_City","country_code":"MX","name":"Mexico City Benito Juarez International"},{"weight":308,"index_strings":["abu dhabi international","auh","abu dabi","birleşik arap emirlikleri","ae","abu dhabi","united arab emirates","abu dhabi international airport"],"code":"AUH","country_name":"Birleşik Arap Emirlikleri","timezone":"Asia\/Dubai","searchable":true,"country_code":"AE","coordinates":{"lat":24.4666667,"lon":54.3666667},"type":"city","name":"Abu Dabi"},{"weight":307,"index_strings":["kaohsiung international","khh","kaohsiung city","tayvan","tw","kaohsiung","taiwan","kaohsiung international airport"],"code":"KHH","country_name":"Tayvan","timezone":"Asia\/Taipei","searchable":true,"country_code":"TW","coordinates":{"lat":22.5725,"lon":120.345276},"type":"city","name":"Kaohsiung City"},{"weight":304,"index_strings":["portela havaalanı","lis","lizbon","portekiz","pt","lisbon","portugal","lisbon portela airport"],"code":"LIS","country_name":"Portekiz","timezone":"Europe\/Lisbon","searchable":true,"country_code":"PT","coordinates":{"lat":38.706932,"lon":-9.1356321},"type":"city","name":"Lizbon"},{"weight":303,"index_strings":["guilin liangjiang international","kwl","guilin","çin","cn","china","guilin liangjiang international airport"],"code":"KWL","country_name":"Çin","timezone":"Asia\/Shanghai","searchable":true,"country_code":"CN","coordinates":{"lat":25.133333,"lon":110.316666},"type":"city","name":"Guilin"},{"weight":301,"index_strings":["medan kuala namu","mes","medan","endonezya","id","kuala namu","indonesia","kuala namu international airport"],"code":"MES","country_name":"Endonezya","timezone":"Asia\/Jakarta","searchable":true,"country_code":"ID","coordinates":{"lat":3.561111,"lon":98.672775},"type":"city","name":"Medan"},{"weight":299,"index_strings":["erzurum","erz","türkiye","tr","turkey","erzurum airport"],"code":"ERZ","country_name":"Türkiye","timezone":"Europe\/Istanbul","searchable":true,"country_code":"TR","coordinates":{"lat":39.955555,"lon":41.17361},"type":"city","name":"Erzurum"},{"weight":299,"index_strings":["portland international","pdx","portland","abd","us","united states","portland international airport"],"code":"PDX","country_name":"ABD","timezone":"America\/Los_Angeles","searchable":true,"country_code":"US","coordinates":{"lat":45.588997,"lon":-122.5929},"type":"city","name":"Portland"},{"weight":299,"index_strings":["malatya erhac","mlx","malatya","türkiye","tr","turkey","malatya airport"],"code":"MLX","country_name":"Türkiye","timezone":"Europe\/Istanbul","searchable":true,"country_code":"TR","coordinates":{"lat":38.354443,"lon":38.253613},"type":"city","name":"Malatya"},{"weight":298,"index_strings":["was","washington","abd","us","united states"],"code":"WAS","country_name":"ABD","timezone":"America\/New_York","searchable":true,"country_code":"US","coordinates":{"lat":38.8951118,"lon":-77.0363658},"type":"city","name":"Washington"},{"weight":297,"index_strings":["hou","houston","abd","us","united states"],"code":"HOU","country_name":"ABD","timezone":"America\/Chicago","searchable":true,"country_code":"US","coordinates":{"lat":29.762778,"lon":-95.383056},"type":"city","name":"Houston"},{"weight":292,"index_strings":["phl","philadelphia","abd","us","united states"],"code":"PHL","country_name":"ABD","timezone":"America\/New_York","searchable":true,"country_code":"US","coordinates":{"lat":39.952335,"lon":-75.16378899999999},"type":"city","name":"Philadelphia"},{"weight":290,"index_strings":["ham","hamburg","almanya","de","germany"],"code":"HAM","country_name":"Almanya","timezone":"Europe\/Berlin","searchable":true,"country_code":"DE","coordinates":{"lat":53.553813,"lon":9.991586},"type":"city","name":"Hamburg"},{"weight":290,"index_strings":["minsk international","msq","minsk","beyaz rusya","by","belarus","minsk national airport"],"code":"MSQ","country_name":"Beyaz Rusya","timezone":"Europe\/Minsk","searchable":true,"country_code":"BY","coordinates":{"lat":53.9,"lon":27.5666667},"type":"city","name":"Minsk"},{"weight":288,"index_strings":["jkt","jakarta","endonezya","id","indonesia"],"code":"JKT","country_name":"Endonezya","timezone":"Asia\/Jakarta","searchable":true,"country_code":"ID","coordinates":{"lat":-6.211544,"lon":106.845172},"type":"city","name":"Jakarta"},{"weight":287,"index_strings":["ulaanbaatar chinggis khaan international","uln","ulan batur","moğolistan","mn","ulaanbaatar","mongolia","chinggis khaan international airport"],"code":"ULN","country_name":"Moğolistan","timezone":"Asia\/Ulaanbaatar","searchable":true,"country_code":"MN","coordinates":{"lat":47.85275,"lon":106.76327},"type":"city","name":"Ulan Batur"},{"country_name":"Almanya","weight":285,"type":"airport","code":"HAM","searchable":true,"index_strings":["ham","hamburg havalimanı","hamburg","almanya","de","hamburg airport","germany"],"coordinates":{"lat":53.63128,"lon":10.006414},"city_code":"HAM","city_name":"Hamburg","timezone":"Europe\/Berlin","country_code":"DE","name":"Hamburg Havalimanı"},{"country_name":"ABD","weight":284,"type":"airport","code":"MCO","searchable":true,"coordinates":{"lat":28.432177,"lon":-81.30830400000001},"index_strings":["mco","orlando international","orlando","orl","abd","us","orlando international airport","united states"],"city_code":"ORL","city_name":"Orlando","state_code":"FL","country_code":"US","name":"Orlando International","timezone":"America\/New_York"},{"country_name":"Endonezya","weight":282,"type":"airport","code":"CGK","searchable":true,"index_strings":["cgk","jakarta soekarno-hatta","jakarta","jkt","endonezya","id","soekarno-hatta international airport","indonesia"],"coordinates":{"lat":-6.130643,"lon":106.655525},"city_code":"JKT","city_name":"Jakarta","timezone":"Asia\/Jakarta","country_code":"ID","name":"Jakarta Soekarno-Hatta"},{"weight":282,"index_strings":["muscat international","mct","maskat","umman","om","muscat","oman","muscat international airport"],"code":"MCT","country_name":"Umman","timezone":"Asia\/Muscat","searchable":true,"country_code":"OM","coordinates":{"lat":23.588078,"lon":58.29022},"type":"city","name":"Maskat"},{"country_name":"Umman","weight":282,"type":"airport","code":"MCT","searchable":true,"index_strings":["mct","muscat international","maskat","umman","om","muscat international airport","muscat","oman"],"coordinates":{"lat":23.588078,"lon":58.29022},"city_code":"MCT","city_name":"Maskat","timezone":"Asia\/Muscat","country_code":"OM","name":"Muscat International"},{"country_name":"ABD","weight":281,"type":"airport","code":"PHL","searchable":true,"coordinates":{"lat":39.87641,"lon":-75.2433},"index_strings":["phl","philadelphia\/wilmington int'l","philadelphia","abd","us","philadelphia international airport","united states"],"city_code":"PHL","city_name":"Philadelphia","state_code":"PA","country_code":"US","name":"Philadelphia\/Wilmington Int'l","timezone":"America\/New_York"},{"weight":279,"index_strings":["osa","osaka","japonya","jp","japan"],"code":"OSA","country_name":"Japonya","timezone":"Asia\/Tokyo","searchable":true,"country_code":"JP","coordinates":{"lat":34.6937378,"lon":135.5021651},"type":"city","name":"Osaka"},{"weight":277,"index_strings":["chongqing jiangbei international","ckg","chongqing","çin","cn","china","chongqing jiangbei international airport"],"code":"CKG","country_name":"Çin","timezone":"Asia\/Shanghai","searchable":true,"country_code":"CN","coordinates":{"lat":29.72034,"lon":106.63408},"type":"city","name":"Chongqing"},{"weight":276,"index_strings":["caticlan godofredo p. ramos","mph","caticlan","filipinler","ph","philippines","boracay airport"],"code":"MPH","country_name":"Filipinler","timezone":"Asia\/Manila","searchable":true,"country_code":"PH","coordinates":{"lat":11.925263,"lon":121.9521},"type":"city","name":"Caticlan"},{"country_name":"İran","weight":275,"type":"airport","code":"THR","searchable":true,"index_strings":["thr","tehran mehrabad international","tahran","i̇ran","ir","mehrabad international airport","tehran","iran"],"coordinates":{"lat":35.691532,"lon":51.32187},"city_code":"THR","city_name":"Tahran","timezone":"Asia\/Tehran","country_code":"IR","name":"Tehran Mehrabad International"},{"weight":272,"index_strings":["doha hamad international","doh","doha","katar","qa","qatar","hamad international airport"],"code":"DOH","country_name":"Katar","timezone":"Asia\/Qatar","searchable":true,"country_code":"QA","coordinates":{"lat":25.267569,"lon":51.558067},"type":"city","name":"Doha"},{"weight":272,"index_strings":["vilnius international","vno","vilnius","litvanya","lt","lithuania","vilnius international airport"],"code":"VNO","country_name":"Litvanya","timezone":"Europe\/Vilnius","searchable":true,"country_code":"LT","coordinates":{"lat":54.643078,"lon":25.279606},"type":"city","name":"Vilnius"},{"weight":270,"index_strings":["kozhikode international","ccj","kozhikode","hindistan","in","india","calicut international airport"],"code":"CCJ","country_name":"Hindistan","timezone":"Asia\/Kolkata","searchable":true,"country_code":"IN","coordinates":{"lat":11.14025,"lon":75.95058400000001},"type":"city","name":"Kozhikode"},{"weight":267,"index_strings":["chisinau international","kiv","kişinev","moldova","md","chisinau","chisinau international airport"],"code":"KIV","country_name":"Moldova","timezone":"Europe\/Chisinau","searchable":true,"country_code":"MD","coordinates":{"lat":46.935444,"lon":28.934967},"type":"city","name":"Kişinev"},{"weight":261,"index_strings":["san","san diego","abd","us","united states"],"code":"SAN","country_name":"ABD","timezone":"America\/Los_Angeles","searchable":true,"country_code":"US","coordinates":{"lat":32.7153292,"lon":-117.1572551},"type":"city","name":"San Diego"},{"weight":259,"index_strings":["diyarbakir","diy","diyarbakır","türkiye","tr","turkey","diyarbakir airport"],"code":"DIY","country_name":"Türkiye","timezone":"Europe\/Istanbul","searchable":true,"country_code":"TR","coordinates":{"lat":37.903873,"lon":40.20458},"type":"city","name":"Diyarbakır"},{"weight":258,"index_strings":["ahmedabad s.vallabhbhai patel","amd","amhedabad","hindistan","in","ahmedabad","india","ahmedabad airport"],"code":"AMD","country_name":"Hindistan","timezone":"Asia\/Kolkata","searchable":true,"country_code":"IN","coordinates":{"lat":23.06639,"lon":72.62417000000001},"type":"city","name":"Amhedabad"},{"weight":257,"index_strings":["wuhan tianhe international","wuh","vuhan","çin","cn","wuhan","china","wuhan tianhe international airport"],"code":"WUH","country_name":"Çin","timezone":"Asia\/Shanghai","searchable":true,"country_code":"CN","coordinates":{"lat":30.776598,"lon":114.209625},"type":"city","name":"Vuhan"},{"country_name":"ABD","weight":256,"type":"airport","code":"SAN","searchable":true,"coordinates":{"lat":32.731937,"lon":-117.19731},"index_strings":["san","san diego lindbergh field","san diego","abd","us","san diego international airport","united states"],"city_code":"SAN","city_name":"San Diego","state_code":"CA","country_code":"US","name":"San Diego Lindbergh Field","timezone":"America\/Los_Angeles"},{"weight":254,"index_strings":["msp","minneapolis","abd","us","united states"],"code":"MSP","country_name":"ABD","timezone":"America\/Chicago","searchable":true,"country_code":"US","coordinates":{"lat":44.9799654,"lon":-93.26383610000001},"type":"city","name":"Minneapolis"},{"weight":253,"index_strings":["dalian zhoushuizi international","dlc","dalian","çin","cn","china","dalian zhoushuizi international airport"],"code":"DLC","country_name":"Çin","timezone":"Asia\/Shanghai","searchable":true,"country_code":"CN","coordinates":{"lat":38.96102,"lon":121.53999},"type":"city","name":"Dalian"},{"country_name":"ABD","weight":253,"type":"airport","code":"MSP","searchable":true,"coordinates":{"lat":44.883015,"lon":-93.21092},"index_strings":["msp","minneapolis st paul international","minneapolis","abd","us","minneapolis-st. paul international airport","united states"],"city_code":"MSP","city_name":"Minneapolis","state_code":"MN","country_code":"US","name":"Minneapolis St Paul International","timezone":"America\/Chicago"},{"weight":252,"index_strings":["novosibirsk tolmachevo","ovb","novosibirsk","rusya","ru","russia","novosibirsk tolmachevo airport"],"code":"OVB","country_name":"Rusya","timezone":"Asia\/Phnom_Penh","searchable":true,"country_code":"RU","coordinates":{"lat":55.00901,"lon":82.667},"type":"city","name":"Novosibirsk"},{"country_name":"Kanada","weight":251,"type":"airport","code":"YYZ","searchable":true,"coordinates":{"lat":43.681583,"lon":-79.61145999999999},"index_strings":["yyz","toronto lester b pearson","toronto","yto","kanada","ca","pearson international airport","canada"],"city_code":"YTO","city_name":"Toronto","state_code":"ON","country_code":"CA","name":"Toronto Lester B Pearson","timezone":"America\/Toronto"},{"weight":251,"index_strings":["tpa","tampa","abd","us","united states"],"code":"TPA","country_name":"ABD","timezone":"America\/New_York","searchable":true,"country_code":"US","coordinates":{"lat":27.949436,"lon":-82.4651441},"type":"city","name":"Tampa"},{"weight":250,"index_strings":["cape town international","cpt","cape town","güney afrika","za","south africa","cape town international airport"],"code":"CPT","country_name":"Güney Afrika","timezone":"Africa\/Johannesburg","searchable":true,"country_code":"ZA","coordinates":{"lat":-33.968906,"lon":18.596489},"type":"city","name":"Cape Town"},{"weight":250,"index_strings":["miami","майами","迈阿密","fll","fort lauderdale","abd","us","united states"],"code":"FLL","country_name":"ABD","timezone":"America\/New_York","searchable":true,"country_code":"US","coordinates":{"lat":26.1223084,"lon":-80.14337860000001},"type":"city","name":"Fort Lauderdale"},{"country_name":"ABD","weight":248,"type":"airport","code":"FLL","searchable":true,"coordinates":{"lat":26.071491,"lon":-80.14490499999999},"index_strings":["fll","fort lauderdale international","fort lauderdale","abd","us","fort lauderdale-hollywood international airport","united states"],"city_code":"FLL","city_name":"Fort Lauderdale","state_code":"FL","country_code":"US","name":"Fort Lauderdale International","timezone":"America\/New_York"},{"weight":246,"index_strings":["thira","тира","thira santorini","jtr","santorini","yunanistan","gr","greece","santorini international airport"],"code":"JTR","country_name":"Yunanistan","timezone":"Europe\/Athens","searchable":true,"country_code":"GR","coordinates":{"lat":36.4,"lon":25.483334},"type":"city","name":"Santorini"},{"weight":245,"index_strings":["harbin taiping international","hrb","harbin","çin","cn","china","harbin taiping international airport"],"code":"HRB","country_name":"Çin","timezone":"Asia\/Shanghai","searchable":true,"country_code":"CN","coordinates":{"lat":45.620853,"lon":126.23644},"type":"city","name":"Harbin"},{"weight":245,"index_strings":["amman queen alia international","amm","başkent ili","ürdün","jo","amman","jordan","queen alia international airport"],"code":"AMM","country_name":"Ürdün","timezone":"Asia\/Amman","searchable":true,"country_code":"JO","coordinates":{"lat":31.722534,"lon":35.98932},"type":"city","name":"Başkent ili"},{"weight":245,"index_strings":["havana jose marti international","hav","havana","küba","cu","cuba","jose marti international airport"],"code":"HAV","country_name":"Küba","timezone":"America\/Havana","searchable":true,"country_code":"CU","coordinates":{"lat":22.99845,"lon":-82.40818},"type":"city","name":"Havana"},{"weight":244,"index_strings":["lima j. chavez","lim","lima","peru","pe","jorge chavez international airport"],"code":"LIM","country_name":"Peru","timezone":"America\/Lima","searchable":true,"country_code":"PE","coordinates":{"lat":-12.019421,"lon":-77.10766599999999},"type":"city","name":"Lima"},{"weight":241,"index_strings":["taşkent uluslararası havalimanı","tas","taşkent","özbekistan","uz","tashkent","uzbekistan","yuzhny airport"],"code":"TAS","country_name":"Özbekistan","timezone":"Asia\/Tashkent","searchable":true,"country_code":"UZ","coordinates":{"lat":41.262714,"lon":69.26618999999999},"type":"city","name":"Taşkent"},{"weight":239,"index_strings":["almaty international","ala","almatı","kazakistan","kz","almaty","kazakhstan","almaty airport"],"code":"ALA","country_name":"Kazakistan","timezone":"Asia\/Almaty","searchable":true,"country_code":"KZ","coordinates":{"lat":43.255058,"lon":76.912628},"type":"city","name":"Almatı"},{"weight":239,"index_strings":["mardin","mqm","türkiye","tr","turkey","mardin airport"],"code":"MQM","country_name":"Türkiye","timezone":"Europe\/Istanbul","searchable":true,"country_code":"TR","coordinates":{"lat":37.2233,"lon":40.6317},"type":"city","name":"Mardin"},{"country_name":"ABD","weight":238,"type":"airport","code":"ORD","searchable":true,"coordinates":{"lat":41.976913,"lon":-87.90488000000001},"index_strings":["ord","chicago o'hare","chicago","chi","abd","us","o'hare international airport","united states"],"city_code":"CHI","city_name":"Chicago","state_code":"IL","country_code":"US","name":"Chicago O'Hare","timezone":"America\/Chicago"},{"weight":237,"index_strings":["nice cote d'azur","nce","nice","fransa","fr","france","cote d'azur airport"],"code":"NCE","country_name":"Fransa","timezone":"Europe\/Paris","searchable":true,"country_code":"FR","coordinates":{"lat":43.66049,"lon":7.205232},"type":"city","name":"Nice"},{"country_name":"ABD","weight":235,"type":"airport","code":"TPA","searchable":true,"coordinates":{"lat":27.97987,"lon":-82.535416},"index_strings":["tpa","tampa international","tampa","abd","us","tampa international airport","united states"],"city_code":"TPA","city_name":"Tampa","state_code":"FL","country_code":"US","name":"Tampa International","timezone":"America\/New_York"},{"weight":235,"index_strings":["yogyakarta adisutjipto","jog","yogyakarta city","endonezya","id","yogyakarta","indonesia","adisutjipto international airport"],"code":"JOG","country_name":"Endonezya","timezone":"Asia\/Jakarta","searchable":true,"country_code":"ID","coordinates":{"lat":-7.785572,"lon":110.43706},"type":"city","name":"Yogyakarta City"},{"weight":230,"index_strings":["beirut rafic hariri international","bey","beyrut","lübnan","lb","beirut","lebanon","beirut-rafic hariri international airport"],"code":"BEY","country_name":"Lübnan","timezone":"Asia\/Beirut","searchable":true,"country_code":"LB","coordinates":{"lat":33.826073,"lon":35.49308},"type":"city","name":"Beyrut"},{"country_name":"Fransa","weight":230,"type":"airport","code":"LYS","searchable":true,"index_strings":["lys","lyon st-exupery","lyon","fransa","fr","lyon saint-exupery international airport","france"],"coordinates":{"lat":45.721424,"lon":5.080334},"city_code":"LYS","city_name":"Lyon","timezone":"Europe\/Paris","country_code":"FR","name":"Lyon St-Exupery"},{"weight":226,"index_strings":["phx","phoenix","abd","us","united states"],"code":"PHX","country_name":"ABD","timezone":"America\/Phoenix","searchable":true,"country_code":"US","coordinates":{"lat":33.4483771,"lon":-112.0740373},"type":"city","name":"Phoenix"},{"weight":223,"index_strings":["cancun international","cun","cancún","meksika","mx","cancun","mexico","cancun international airport"],"code":"CUN","country_name":"Meksika","timezone":"America\/Cancun","searchable":true,"country_code":"MX","coordinates":{"lat":21.040457,"lon":-86.87443500000001},"type":"city","name":"Cancún"},{"weight":223,"index_strings":["haikou meilan international","hak","haikou","çin","cn","china","haikou airport"],"code":"HAK","country_name":"Çin","timezone":"Asia\/Shanghai","searchable":true,"country_code":"CN","coordinates":{"lat":19.941612,"lon":110.45717},"type":"city","name":"Haikou"},{"weight":222,"index_strings":["xi'an xianyang international","sia","xi'an","çin","cn","xian","china","xianyang international airport"],"code":"SIA","country_name":"Çin","timezone":"Asia\/Shanghai","searchable":true,"country_code":"CN","coordinates":{"lat":34.44104,"lon":108.75874},"type":"city","name":"Xi'an"},{"weight":221,"index_strings":["goteborg landvetter","got","göteborg","i̇sveç","se","gothenburg","sweden","goteborg landvetter airport"],"code":"GOT","country_name":"İsveç","timezone":"Europe\/Stockholm","searchable":true,"country_code":"SE","coordinates":{"lat":57.6969943,"lon":11.9865},"type":"city","name":"Göteborg"},{"country_name":"Japonya","weight":220,"type":"airport","code":"KIX","searchable":true,"index_strings":["kix","osaka kansai international","osaka","osa","japonya","jp","kansai international airport","japan"],"coordinates":{"lat":34.43533,"lon":135.24397},"city_code":"OSA","city_name":"Osaka","timezone":"Asia\/Tokyo","country_code":"JP","name":"Osaka Kansai International"},{"country_name":"ABD","weight":219,"type":"airport","code":"PHX","searchable":true,"coordinates":{"lat":33.435036,"lon":-112.00016},"index_strings":["phx","phoenix sky harbor int'l","phoenix","abd","us","phoenix sky harbor international airport","united states"],"city_code":"PHX","city_name":"Phoenix","state_code":"AZ","country_code":"US","name":"Phoenix Sky Harbor Int'l","timezone":"America\/Phoenix"},{"weight":215,"index_strings":["calgary international","yyc","calgary","kanada","ca","canada","calgary international airport"],"code":"YYC","country_name":"Kanada","timezone":"America\/Edmonton","searchable":true,"country_code":"CA","coordinates":{"lat":51.131393,"lon":-114.01055},"type":"city","name":"Calgary"},{"weight":215,"index_strings":["johor bahru senai international","jhb","johor bahru","malezya","my","johor bharu","malaysia","senai airport"],"code":"JHB","country_name":"Malezya","timezone":"Asia\/Kuala_Lumpur","searchable":true,"country_code":"MY","coordinates":{"lat":1.638889,"lon":103.67083},"type":"city","name":"Johor Bahru"},{"weight":214,"index_strings":["rom","roma","i̇talya","it","rome","italy"],"code":"ROM","country_name":"İtalya","timezone":"Europe\/Rome","searchable":true,"country_code":"IT","coordinates":{"lat":41.8905198,"lon":12.4942486},"type":"city","name":"Roma"},{"weight":210,"index_strings":["nbo","nairobi","kenya","ke"],"code":"NBO","country_name":"Kenya","timezone":"Africa\/Nairobi","searchable":true,"country_code":"KE","coordinates":{"lat":-1.2833333,"lon":36.8166667},"type":"city","name":"Nairobi"},{"weight":209,"index_strings":["tianjin binhai international","tsn","tianjin","çin","cn","china","tianjin binhai international airport"],"code":"TSN","country_name":"Çin","timezone":"Asia\/Shanghai","searchable":true,"country_code":"CN","coordinates":{"lat":39.084158,"lon":117.200983},"type":"city","name":"Tianjin"},{"weight":209,"index_strings":["sendai","sdj","japonya","jp","japan","sendai airport"],"code":"SDJ","country_name":"Japonya","timezone":"Asia\/Tokyo","searchable":true,"country_code":"JP","coordinates":{"lat":38.135555,"lon":140.92389},"type":"city","name":"Sendai"},{"country_name":"Kenya","weight":202,"type":"airport","code":"NBO","searchable":true,"index_strings":["nbo","nairobi jomo kenyatta int'l","nairobi","kenya","ke","jomo kenyatta international airport"],"coordinates":{"lat":-1.319167,"lon":36.92578},"city_code":"NBO","city_name":"Nairobi","timezone":"Africa\/Nairobi","country_code":"KE","name":"Nairobi Jomo Kenyatta Int'l"},{"country_name":"Rusya","weight":201,"type":"airport","code":"DME","searchable":true,"index_strings":["dme","moscow domodedovo","moskova","mow","rusya","ru","moscow domodedovo airport","moscow","russia"],"coordinates":{"lat":55.414566,"lon":37.899494},"city_code":"MOW","city_name":"Moskova","timezone":"Europe\/Moscow","country_code":"RU","name":"Moscow Domodedovo"},{"weight":201,"index_strings":["fort myers southwest florida reg","fmy","fort myers","abd","us","united states","southwest florida international airport"],"code":"FMY","country_name":"ABD","timezone":"America\/New_York","searchable":true,"country_code":"US","coordinates":{"lat":26.640628,"lon":-81.87230839999999},"type":"city","name":"Fort Myers"},{"weight":199,"index_strings":["kocaeli cengiz topel","kco","kocaeli","türkiye","tr","izmit","turkey","cengiz topel airport"],"code":"KCO","country_name":"Türkiye","timezone":"Europe\/Istanbul","searchable":true,"country_code":"TR","coordinates":{"lat":40.75,"lon":29.833332},"type":"city","name":"Kocaeli"},{"weight":199,"index_strings":["elazig","ezs","elâzığ","türkiye","tr","turkey","elazig airport"],"code":"EZS","country_name":"Türkiye","timezone":"Europe\/Istanbul","searchable":true,"country_code":"TR","coordinates":{"lat":38.608334,"lon":39.291668},"type":"city","name":"Elâzığ"},{"weight":199,"index_strings":["kengtung","ket","kentung","myanmar (burma)","mm","keng tung","myanmar","keng tung airport"],"code":"KET","country_name":"Myanmar (Burma)","timezone":"Asia\/Rangoon","searchable":true,"country_code":"MM","coordinates":{"lat":21.3,"lon":99.61667},"type":"city","name":"Kentung"},{"weight":198,"index_strings":["varanasi lal bahadur shastri","vns","varanasi","hindistan","in","india","lal bahadur shastri international airport"],"code":"VNS","country_name":"Hindistan","timezone":"Asia\/Kolkata","searchable":true,"country_code":"IN","coordinates":{"lat":25.449697,"lon":82.85373},"type":"city","name":"Varanasi"},{"weight":198,"index_strings":["msy","new orleans","abd","us","united states"],"code":"MSY","country_name":"ABD","timezone":"America\/Chicago","searchable":true,"country_code":"US","coordinates":{"lat":29.9647222,"lon":-90.07055560000001},"type":"city","name":"New Orleans"},{"weight":197,"index_strings":["adelaide international","adl","adelaide","avustralya","au","australia","adelaide airport"],"code":"ADL","country_name":"Avustralya","timezone":"Australia\/Adelaide","searchable":true,"country_code":"AU","coordinates":{"lat":-34.9286212,"lon":138.5999594},"type":"city","name":"Adelaide"},{"country_name":"ABD","weight":196,"type":"airport","code":"MSY","searchable":true,"coordinates":{"lat":29.984564,"lon":-90.25639},"index_strings":["msy","new orleans l. armstrong int'l","new orleans","abd","us","louis armstrong new orleans international airport","united states"],"city_code":"MSY","city_name":"New Orleans","state_code":"LA","country_code":"US","name":"New Orleans L. Armstrong Int'l","timezone":"America\/Chicago"},{"country_name":"ABD","weight":194,"type":"airport","code":"EWR","searchable":true,"coordinates":{"lat":40.68907,"lon":-74.17876},"index_strings":["ewr","newark liberty international","newark","nyc","abd","us","newark liberty international airport","new york","united states"],"city_code":"NYC","city_name":"Newark","state_code":"NY","country_code":"US","name":"Newark Liberty International","timezone":"America\/New_York"},{"country_name":"İtalya","weight":194,"type":"airport","code":"FCO","searchable":true,"index_strings":["fco","rome leonardo da vinci-fiumicino","roma","rom","i̇talya","it","leonardo da vinci-fiumicino airport","rome","italy"],"coordinates":{"lat":41.794594,"lon":12.250346},"city_code":"ROM","city_name":"Roma","timezone":"Europe\/Rome","country_code":"IT","name":"Rome Leonardo da Vinci-Fiumicino"},{"weight":193,"index_strings":["batum havalimanı","bus","batum","gürcistan","ge","batumi","georgia","batumi airport"],"code":"BUS","country_name":"Gürcistan","timezone":"Asia\/Tbilisi","searchable":true,"country_code":"GE","coordinates":{"lat":41.610832,"lon":41.600555},"type":"city","name":"Batum"},{"weight":192,"index_strings":["yiwu","yiw","çin","cn","china","yiwu airport"],"code":"YIW","country_name":"Çin","timezone":"Asia\/Shanghai","searchable":true,"country_code":"CN","coordinates":{"lat":29.344563,"lon":120.02881},"type":"city","name":"Yiwu"},{"weight":192,"index_strings":["kota kinabalu international","bki","kota kinabalu","malezya","my","malaysia","kota kinabalu international airport"],"code":"BKI","country_name":"Malezya","timezone":"Asia\/Kuching","searchable":true,"country_code":"MY","coordinates":{"lat":5.923961,"lon":116.05075},"type":"city","name":"Kota Kinabalu"},{"weight":191,"index_strings":["wellington international","wlg","wellington","yeni zelanda","nz","new zealand","wellington international airport"],"code":"WLG","country_name":"Yeni Zelanda","timezone":"Pacific\/Auckland","searchable":true,"country_code":"NZ","coordinates":{"lat":-41.329037,"lon":174.81216},"type":"city","name":"Wellington"},{"country_name":"ABD","weight":189,"type":"airport","code":"IAD","searchable":true,"coordinates":{"lat":38.95315,"lon":-77.44774},"index_strings":["iad","washington dulles international","washington","was","abd","us","washington dulles international airport","united states"],"city_code":"WAS","city_name":"Washington","state_code":"DC","country_code":"US","name":"Washington Dulles International","timezone":"America\/New_York"},{"weight":189,"index_strings":["casablanca mohammed v","cas","kasablanka","fas","ma","casablanca","morocco","mohamed v international airport"],"code":"CAS","country_name":"Fas","timezone":"Africa\/Casablanca","searchable":true,"country_code":"MA","coordinates":{"lat":33.533333,"lon":-7.583333},"type":"city","name":"Kasablanka"},{"weight":189,"index_strings":["pune lohegaon","pnq","pune","hindistan","in","india","pune airport"],"code":"PNQ","country_name":"Hindistan","timezone":"Asia\/Kolkata","searchable":true,"country_code":"IN","coordinates":{"lat":18.581388,"lon":73.92055499999999},"type":"city","name":"Pune"},{"weight":188,"index_strings":["changsha huanghua international","csx","changsha","çin","cn","china","changsha huanghua airport"],"code":"CSX","country_name":"Çin","timezone":"Asia\/Shanghai","searchable":true,"country_code":"CN","coordinates":{"lat":28.193336,"lon":113.21459},"type":"city","name":"Changsha"},{"weight":187,"index_strings":["odesa international","ods","odessa","i̇spanya","ua","ukraine","odessa international airport"],"code":"ODS","country_name":"İspanya","timezone":"Europe\/Kiev","searchable":true,"country_code":"UA","coordinates":{"lat":46.44101,"lon":30.676718},"type":"city","name":"Odessa"},{"weight":186,"index_strings":["lagos m. muhammed","los","lagos","nijerya","ng","nigeria","murtala muhammed international airport"],"code":"LOS","country_name":"Nijerya","timezone":"Africa\/Lagos","searchable":true,"country_code":"NG","coordinates":{"lat":6.577871,"lon":3.321178},"type":"city","name":"Lagos"},{"weight":185,"index_strings":["riyadh king khalid international","ruh","riyad","suudi arabistan","sa","riyadh","saudi arabia","king khaled international airport"],"code":"RUH","country_name":"Suudi Arabistan","timezone":"Asia\/Riyadh","searchable":true,"country_code":"SA","coordinates":{"lat":24.95929,"lon":46.702877},"type":"city","name":"Riyad"},{"weight":185,"index_strings":["vladivostok knevichi","vvo","vladivostok","rusya","ru","russia","vladivostok international airport"],"code":"VVO","country_name":"Rusya","timezone":"Asia\/Vladivostok","searchable":true,"country_code":"RU","coordinates":{"lat":43.378574,"lon":132.14075},"type":"city","name":"Vladivostok"},{"weight":184,"index_strings":["riga uluslararası havalimanı","rix","riga","letonya","lv","latvia","riga international airport"],"code":"RIX","country_name":"Letonya","timezone":"Europe\/Riga","searchable":true,"country_code":"LV","coordinates":{"lat":56.92208,"lon":23.979807},"type":"city","name":"Riga"},{"weight":183,"index_strings":["dushanbe international","dyu","duşanbe","tacikistan","tj","dushanbe","tajikistan","dushanbe airport"],"code":"DYU","country_name":"Tacikistan","timezone":"Asia\/Dushanbe","searchable":true,"country_code":"TJ","coordinates":{"lat":38.54894,"lon":68.81728},"type":"city","name":"Duşanbe"},{"weight":183,"index_strings":["krasnodar pashkovsky","krr","krasnodar","rusya","ru","russia","krasnodar international airport"],"code":"KRR","country_name":"Rusya","timezone":"Europe\/Moscow","searchable":true,"country_code":"RU","coordinates":{"lat":45.034138,"lon":39.139004},"type":"city","name":"Krasnodar"},{"weight":183,"index_strings":["bishkek manas international","fru","bişkek","kırgızistan","kg","bishkek","kyrgyzstan","manas international airport"],"code":"FRU","country_name":"Kırgızistan","timezone":"Asia\/Bishkek","searchable":true,"country_code":"KG","coordinates":{"lat":43.05358,"lon":74.46944999999999},"type":"city","name":"Bişkek"},{"weight":181,"index_strings":["heho","heh","he hoe","myanmar (burma)","mm","myanmar","heho airport"],"code":"HEH","country_name":"Myanmar (Burma)","timezone":"Asia\/Rangoon","searchable":true,"country_code":"MM","coordinates":{"lat":20.743862,"lon":96.79340999999999},"type":"city","name":"He Hoe"},{"country_name":"ABD","weight":181,"type":"airport","code":"HOU","searchable":true,"coordinates":{"lat":29.654512,"lon":-95.277016},"index_strings":["hou","houston hobby","houston","abd","us","william p. hobby airport","united states"],"city_code":"HOU","city_name":"Houston","state_code":"TX","country_code":"US","name":"Houston Hobby","timezone":"America\/Chicago"},{"weight":180,"index_strings":["bandar seri begawan brunei","bwn","bandar seri begavan","brunei","bn","bandar seri begawan","brunei international airport"],"code":"BWN","country_name":"Brunei","timezone":"Asia\/Brunei","searchable":true,"country_code":"BN","coordinates":{"lat":4.945197,"lon":114.93375},"type":"city","name":"Bandar Seri Begavan"},{"weight":178,"index_strings":["sialkot international","skt","siālkot","pakistan","pk","sialkot","sialkot airport"],"code":"SKT","country_name":"Pakistan","timezone":"Asia\/Karachi","searchable":true,"country_code":"PK","coordinates":{"lat":32.533333,"lon":74.5},