[{"type":"country","code":"TH","name":"Tayland","weight":373557,"searchable":true,"cases":null,"capital":{"code":"BKK","type":"city"},"index_strings":["th","tayland","thailand"]},{"type":"country","code":"TR","name":"Türkiye","weight":301842,"searchable":true,"cases":null,"capital":{"code":"ANK","type":"city"},"index_strings":["tr","türkiye","turkey"]},{"type":"city","code":"BKK","name":"Bangkok","en_name":"Bangkok","coordinates":{"lat":13.7234186,"lon":100.4762319},"weight":167502,"searchable":true,"timezone":"Asia/Bangkok","state_code":null,"country_name":"Tayland","country_code":"TH","main_airport_name":null,"cases":null,"index_strings":["bkk","bangkok","th","tayland","thailand"]},{"type":"airport","code":"BKK","name":"Bangkok Suvarnabhumi International","coordinates":{"lat":13.693062,"lon":100.752045},"weight":160824,"searchable":true,"timezone":"Asia/Bangkok","en_city_name":"Bangkok","city_name":"Bangkok","city_code":"BKK","state_code":null,"country_name":"Tayland","country_code":"TH","cases":null,"city_cases":null,"country_cases":null,"index_strings":["bkk","bangkok suvarnabhumi international","suvarnabhumi airport","bangkok","th","tayland","thailand"]},{"type":"city","code":"IST","name":"İstanbul","en_name":"Istanbul","coordinates":{"lat":40.976665,"lon":28.815277},"weight":137295,"searchable":true,"timezone":"Europe/Istanbul","state_code":null,"country_name":"Türkiye","country_code":"TR","main_airport_name":null,"cases":null,"index_strings":["ist","istanbul","tr","türkiye","turkey"]},{"type":"city","code":"CNX","name":"Chiang Mai","en_name":"Chiang Mai","coordinates":{"lat":18.769573,"lon":98.96841},"weight":61608,"searchable":true,"timezone":"Asia/Bangkok","state_code":null,"country_name":"Tayland","country_code":"TH","main_airport_name":"Chiang Mai International","cases":null,"index_strings":["chiang mai international","cnx","chiang mai","th","tayland","thailand"]},{"type":"airport","code":"HKT","name":"Phuket Uluslararası Havalimanı","coordinates":{"lat":8.107619,"lon":98.306435},"weight":39062,"searchable":false,"timezone":"Asia/Bangkok","en_city_name":"Phuket","city_name":"Phuket","city_code":"HKT","state_code":null,"country_name":"Tayland","country_code":"TH","cases":null,"city_cases":null,"country_cases":null,"index_strings":["hkt","phuket uluslararası havalimanı","phuket international airport","phuket","th","tayland","thailand"]},{"type":"country","code":"US","name":"ABD","weight":32037,"searchable":true,"cases":null,"capital":{"code":"WAS","type":"city"},"index_strings":["states","united","us","abd","united states"]},{"type":"city","code":"HKT","name":"Phuket","en_name":"Phuket","coordinates":{"lat":8.107619,"lon":98.306435},"weight":31732,"searchable":true,"timezone":"Asia/Bangkok","state_code":null,"country_name":"Tayland","country_code":"TH","main_airport_name":"Phuket Uluslararası Havalimanı","cases":null,"index_strings":["phuket uluslararası havalimanı","hkt","phuket","th","tayland","thailand"]},{"type":"city","code":"HDY","name":"Hat Yai","en_name":"Hat Yai","coordinates":{"lat":6.936764,"lon":100.39356},"weight":26384,"searchable":true,"timezone":"Asia/Bangkok","state_code":null,"country_name":"Tayland","country_code":"TH","main_airport_name":"Hat Yai International","cases":null,"index_strings":["hat yai international","hdy","hat yai","th","tayland","thailand"]},{"type":"airport","code":"HDY","name":"Hat Yai International","coordinates":{"lat":6.936764,"lon":100.39356},"weight":26383,"searchable":false,"timezone":"Asia/Bangkok","en_city_name":"Hat Yai","city_name":"Hat Yai","city_code":"HDY","state_code":null,"country_name":"Tayland","country_code":"TH","cases":null,"city_cases":null,"country_cases":null,"index_strings":["hdy","hat yai international","hat yai international airport","hat yai","th","tayland","thailand"]},{"type":"city","code":"DLM","name":"Dalaman","en_name":"Dalaman","coordinates":{"lat":36.716667,"lon":28.783333},"weight":24784,"searchable":true,"timezone":"Europe/Istanbul","state_code":null,"country_name":"Türkiye","country_code":"TR","main_airport_name":"Dalaman","cases":null,"index_strings":["dalaman","dlm","tr","türkiye","turkey"]},{"type":"airport","code":"DLM","name":"Dalaman","coordinates":{"lat":36.716667,"lon":28.783333},"weight":24784,"searchable":false,"timezone":"Europe/Istanbul","en_city_name":"Dalaman","city_name":"Dalaman","city_code":"DLM","state_code":null,"country_name":"Türkiye","country_code":"TR","cases":null,"city_cases":null,"country_cases":null,"index_strings":["dlm","dalaman","dalaman airport","tr","türkiye","turkey"]},{"type":"city","code":"AYT","name":"Antalya","en_name":"Antalya","coordinates":{"lat":36.89928,"lon":30.80135},"weight":17796,"searchable":true,"timezone":"Europe/Istanbul","state_code":null,"country_name":"Türkiye","country_code":"TR","main_airport_name":"Antalya","cases":null,"index_strings":["antalya","ayt","tr","türkiye","turkey"]},{"type":"airport","code":"AYT","name":"Antalya","coordinates":{"lat":36.89928,"lon":30.80135},"weight":17796,"searchable":false,"timezone":"Europe/Istanbul","en_city_name":"Antalya","city_name":"Antalya","city_code":"AYT","state_code":null,"country_name":"Türkiye","country_code":"TR","cases":null,"city_cases":null,"country_cases":null,"index_strings":["ayt","antalya","antalya airport","tr","türkiye","turkey"]},{"type":"city","code":"SIN","name":"Singapur","en_name":"Singapore","coordinates":{"lat":1.2894365,"lon":103.8499802},"weight":15840,"searchable":true,"timezone":"Asia/Singapore","state_code":null,"country_name":"Singapur","country_code":"SG","main_airport_name":"Singapore Changi","cases":null,"index_strings":["singapore changi","sin","singapur","singapore","sg"]},{"type":"airport","code":"SIN","name":"Singapore Changi","coordinates":{"lat":1.361173,"lon":103.990204},"weight":15836,"searchable":false,"timezone":"Asia/Singapore","en_city_name":"Singapore","city_name":"Singapur","city_code":"SIN","state_code":null,"country_name":"Singapur","country_code":"SG","cases":null,"city_cases":null,"country_cases":null,"index_strings":["sin","singapore changi","changi international airport","singapur","singapore","sg"]},{"type":"country","code":"SG","name":"Singapur","weight":15756,"searchable":true,"cases":null,"capital":{"code":"SIN","type":"city"},"index_strings":["sg","singapur","singapore"]},{"type":"country","code":"CN","name":"Çin","weight":15060,"searchable":true,"cases":null,"capital":{"code":"BJS","type":"city"},"index_strings":["cn","çin","china"]},{"type":"city","code":"UTH","name":"Udon Thani","en_name":"Udon Thani","coordinates":{"lat":17.38661,"lon":102.774506},"weight":14397,"searchable":true,"timezone":"Asia/Bangkok","state_code":null,"country_name":"Tayland","country_code":"TH","main_airport_name":"Udon Thani International","cases":null,"index_strings":["udon thani international","uth","udon thani","th","tayland","thailand"]},{"type":"airport","code":"UTH","name":"Udon Thani International","coordinates":{"lat":17.38661,"lon":102.774506},"weight":14397,"searchable":false,"timezone":"Asia/Bangkok","en_city_name":"Udon Thani","city_name":"Udon Thani","city_code":"UTH","state_code":null,"country_name":"Tayland","country_code":"TH","cases":null,"city_cases":null,"country_cases":null,"index_strings":["uth","udon thani international","udon thani international airport","udon thani","th","tayland","thailand"]},{"type":"city","code":"KBV","name":"Krabi","en_name":"Krabi","coordinates":{"lat":8.097281,"lon":98.98062},"weight":12926,"searchable":true,"timezone":"Asia/Bangkok","state_code":null,"country_name":"Tayland","country_code":"TH","main_airport_name":"Krabi","cases":null,"index_strings":["krabi","kbv","th","tayland","thailand"]},{"type":"airport","code":"KBV","name":"Krabi","coordinates":{"lat":8.097281,"lon":98.98062},"weight":12924,"searchable":false,"timezone":"Asia/Bangkok","en_city_name":"Krabi","city_name":"Krabi","city_code":"KBV","state_code":null,"country_name":"Tayland","country_code":"TH","cases":null,"city_cases":null,"country_cases":null,"index_strings":["kbv","krabi","krabi airport","th","tayland","thailand"]},{"type":"country","code":"IN","name":"Hindistan","weight":11160,"searchable":true,"cases":null,"capital":{"code":"DEL","type":"city"},"index_strings":["in","hindistan","india"]},{"type":"city","code":"CEI","name":"Chiang Rai","en_name":"Chiang Rai","coordinates":{"lat":19.954609,"lon":99.878815},"weight":11156,"searchable":true,"timezone":"Asia/Bangkok","state_code":null,"country_name":"Tayland","country_code":"TH","main_airport_name":"Chiang Rai Mae Fah Luang International","cases":null,"index_strings":["chiang rai mae fah luang international","cei","chiang rai","th","tayland","thailand"]},{"type":"airport","code":"CEI","name":"Chiang Rai Mae Fah Luang International","coordinates":{"lat":19.954609,"lon":99.878815},"weight":11154,"searchable":false,"timezone":"Asia/Bangkok","en_city_name":"Chiang Rai","city_name":"Chiang Rai","city_code":"CEI","state_code":null,"country_name":"Tayland","country_code":"TH","cases":null,"city_cases":null,"country_cases":null,"index_strings":["cei","chiang rai mae fah luang international","chiang rai international airport","chiang rai","th","tayland","thailand"]},{"type":"city","code":"USM","name":"Ko Samui","en_name":"Koh Samui","coordinates":{"lat":9.555315,"lon":100.0628},"weight":10492,"searchable":true,"timezone":"Asia/Bangkok","state_code":null,"country_name":"Tayland","country_code":"TH","main_airport_name":"Ko Samui","cases":null,"index_strings":["ko samui","usm","koh samui","th","tayland","thailand"]},{"type":"airport","code":"USM","name":"Ko Samui","coordinates":{"lat":9.555315,"lon":100.0628},"weight":10492,"searchable":false,"timezone":"Asia/Bangkok","en_city_name":"Koh Samui","city_name":"Ko Samui","city_code":"USM","state_code":null,"country_name":"Tayland","country_code":"TH","cases":null,"city_cases":null,"country_cases":null,"index_strings":["usm","ko samui","koh samui airport","koh samui","th","tayland","thailand"]},{"type":"airport","code":"HKG","name":"Hong Kong International","coordinates":{"lat":22.315248,"lon":113.93649},"weight":10313,"searchable":true,"timezone":"Asia/Hong_Kong","en_city_name":"Hong Kong","city_name":"Hong Kong","city_code":"HKG","state_code":null,"country_name":"Hong Kong","country_code":"HK","cases":null,"city_cases":null,"country_cases":null,"index_strings":["hkg","hong kong international","hong kong international airport","hong kong","hk"]},{"type":"country","code":"HK","name":"Hong Kong","weight":10245,"searchable":false,"cases":null,"capital":{"code":"HKG","type":"city"},"index_strings":["hong","kong","hk","hong kong"]},{"type":"city","code":"HKG","name":"Hong Kong","en_name":"Hong Kong","coordinates":{"lat":22.2478599,"lon":114.2033843},"weight":10244,"searchable":true,"timezone":"Asia/Hong_Kong","state_code":null,"country_name":"Hong Kong","country_code":"HK","main_airport_name":null,"cases":null,"index_strings":["hkg","hong kong","hk"]},{"type":"city","code":"HHQ","name":"Hua Hin","en_name":"Hua Hin","coordinates":{"lat":12.6274,"lon":99.95145},"weight":9441,"searchable":true,"timezone":"Asia/Bangkok","state_code":null,"country_name":"Tayland","country_code":"TH","main_airport_name":"Hua Hin","cases":null,"index_strings":["hua hin","hhq","th","tayland","thailand"]},{"type":"airport","code":"HHQ","name":"Hua Hin","coordinates":{"lat":12.6274,"lon":99.95145},"weight":9440,"searchable":false,"timezone":"Asia/Bangkok","en_city_name":"Hua Hin","city_name":"Hua Hin","city_code":"HHQ","state_code":null,"country_name":"Tayland","country_code":"TH","cases":null,"city_cases":null,"country_cases":null,"index_strings":["hhq","hua hin","hua hin airport","th","tayland","thailand"]},{"type":"city","code":"URT","name":"Surat Thani","en_name":"Surat Thani","coordinates":{"lat":9.133865,"lon":99.143196},"weight":9013,"searchable":true,"timezone":"Asia/Bangkok","state_code":null,"country_name":"Tayland","country_code":"TH","main_airport_name":"Surat Thani","cases":null,"index_strings":["surat thani","urt","th","tayland","thailand"]},{"type":"airport","code":"URT","name":"Surat Thani","coordinates":{"lat":9.133865,"lon":99.143196},"weight":9013,"searchable":false,"timezone":"Asia/Bangkok","en_city_name":"Surat Thani","city_name":"Surat Thani","city_code":"URT","state_code":null,"country_name":"Tayland","country_code":"TH","cases":null,"city_cases":null,"country_cases":null,"index_strings":["urt","surat thani","surat thani airport","th","tayland","thailand"]},{"type":"city","code":"KKC","name":"Khon Kaen","en_name":"Khon Kaen","coordinates":{"lat":16.46467,"lon":102.78749},"weight":8527,"searchable":true,"timezone":"Asia/Bangkok","state_code":null,"country_name":"Tayland","country_code":"TH","main_airport_name":"Khon Kaen","cases":null,"index_strings":["khon kaen","kkc","th","tayland","thailand"]},{"type":"airport","code":"KKC","name":"Khon Kaen","coordinates":{"lat":16.46467,"lon":102.78749},"weight":8527,"searchable":false,"timezone":"Asia/Bangkok","en_city_name":"Khon Kaen","city_name":"Khon Kaen","city_code":"KKC","state_code":null,"country_name":"Tayland","country_code":"TH","cases":null,"city_cases":null,"country_cases":null,"index_strings":["kkc","khon kaen","khon kaen airport","th","tayland","thailand"]},{"type":"country","code":"LA","name":"Laos","weight":8084,"searchable":true,"cases":null,"capital":{"code":"VTE","type":"city"},"index_strings":["la","laos"]},{"type":"country","code":"DE","name":"Almanya","weight":7523,"searchable":true,"cases":null,"capital":{"code":"BER","type":"city"},"index_strings":["de","almanya","germany"]},{"type":"country","code":"MY","name":"Malezya","weight":7478,"searchable":true,"cases":null,"capital":{"code":"KUL","type":"city"},"index_strings":["my","malezya","malaysia"]},{"type":"city","code":"UBP","name":"Ubon Ratchathani","en_name":"Ubon Ratchathani","coordinates":{"lat":15.246491,"lon":104.87068},"weight":7205,"searchable":true,"timezone":"Asia/Bangkok","state_code":null,"country_name":"Tayland","country_code":"TH","main_airport_name":"Ubon Ratchathani","cases":null,"index_strings":["ubon ratchathani","ubp","th","tayland","thailand"]},{"type":"airport","code":"UBP","name":"Ubon Ratchathani","coordinates":{"lat":15.246491,"lon":104.87068},"weight":7205,"searchable":false,"timezone":"Asia/Bangkok","en_city_name":"Ubon Ratchathani","city_name":"Ubon Ratchathani","city_code":"UBP","state_code":null,"country_name":"Tayland","country_code":"TH","cases":null,"city_cases":null,"country_cases":null,"index_strings":["ubp","ubon ratchathani","ubon ratchathani international airport","th","tayland","thailand"]},{"type":"country","code":"AU","name":"Avustralya","weight":7129,"searchable":true,"cases":null,"capital":{"code":"CBR","type":"city"},"index_strings":["au","avustralya","australia"]},{"type":"city","code":"ANK","name":"Ankara","en_name":"Ankara","coordinates":{"lat":39.91825,"lon":32.85333},"weight":6947,"searchable":true,"timezone":"Europe/Istanbul","state_code":null,"country_name":"Türkiye","country_code":"TR","main_airport_name":null,"cases":null,"index_strings":["ankara esenboğa havalimanı","ank","ankara","tr","türkiye","turkey"]},{"type":"airport","code":"DMK","name":"Bangkok Don Mueang International","coordinates":{"lat":13.9125,"lon":100.60667},"weight":6668,"searchable":true,"timezone":"Asia/Bangkok","en_city_name":"Bangkok","city_name":"Bangkok","city_code":"BKK","state_code":null,"country_name":"Tayland","country_code":"TH","cases":null,"city_cases":null,"country_cases":null,"index_strings":["dmk","bangkok don mueang international","don mueang international airport","bkk","bangkok","th","tayland","thailand"]},{"type":"country","code":"JP","name":"Japonya","weight":6154,"searchable":true,"cases":null,"capital":{"code":"TYO","type":"city"},"index_strings":["jp","japonya","japan"]},{"type":"city","code":"GZP","name":"Gazipaşa","en_name":"Gazipasa","coordinates":{"lat":36.2993,"lon":32.3014},"weight":6012,"searchable":true,"timezone":"Europe/Istanbul","state_code":null,"country_name":"Türkiye","country_code":"TR","main_airport_name":"Gazipasa","cases":null,"index_strings":["gazipasa","gzp","gazipaşa","tr","türkiye","turkey"]},{"type":"airport","code":"GZP","name":"Gazipasa","coordinates":{"lat":36.2993,"lon":32.3014},"weight":6012,"searchable":false,"timezone":"Europe/Istanbul","en_city_name":"Gazipasa","city_name":"Gazipaşa","city_code":"GZP","state_code":null,"country_name":"Türkiye","country_code":"TR","cases":null,"city_cases":null,"country_cases":null,"index_strings":["gzp","gazipasa","gazipasa airport","gazipaşa","tr","türkiye","turkey"]},{"type":"airport","code":"SAW","name":"Sabiha Gökçen Uluslararası Havalimanı","coordinates":{"lat":40.904675,"lon":29.309189},"weight":5673,"searchable":true,"timezone":"Europe/Istanbul","en_city_name":"Istanbul","city_name":"İstanbul","city_code":"IST","state_code":null,"country_name":"Türkiye","country_code":"TR","cases":null,"city_cases":null,"country_cases":null,"index_strings":["saw","sabiha gökçen uluslararası havalimanı","sabiha gokcen international airport","ist","istanbul","tr","türkiye","turkey"]},{"type":"country","code":"RU","name":"Rusya","weight":5156,"searchable":true,"cases":null,"capital":{"code":"MOW","type":"city"},"index_strings":["ru","rusya","russia"]},{"type":"city","code":"KUL","name":"Kuala Lumpur","en_name":"Kuala Lumpur","coordinates":{"lat":3.139003,"lon":101.686855},"weight":4807,"searchable":true,"timezone":"Asia/Kuala_Lumpur","state_code":null,"country_name":"Malezya","country_code":"MY","main_airport_name":null,"cases":null,"index_strings":["kul","kuala lumpur","my","malezya","malaysia"]},{"type":"city","code":"UTP","name":"Utapao-Rayong-Pataya International Airport","en_name":"Utapao","coordinates":{"lat":12.683333,"lon":101.01667},"weight":4680,"searchable":true,"timezone":"Asia/Bangkok","state_code":null,"country_name":"Tayland","country_code":"TH","main_airport_name":"U-Tapao Rayong-Pattaya International","cases":null,"index_strings":["u-tapao rayong-pattaya international","utp","utapao-rayong-pataya international airport","utapao","th","tayland","thailand"]},{"type":"airport","code":"UTP","name":"U-Tapao Rayong-Pattaya International","coordinates":{"lat":12.683333,"lon":101.01667},"weight":4679,"searchable":false,"timezone":"Asia/Bangkok","en_city_name":"Utapao","city_name":"Utapao-Rayong-Pataya International Airport","city_code":"UTP","state_code":null,"country_name":"Tayland","country_code":"TH","cases":null,"city_cases":null,"country_cases":null,"index_strings":["utp","u-tapao rayong-pattaya international","utapao airport","utapao-rayong-pataya international airport","utapao","th","tayland","thailand"]},{"type":"airport","code":"KUL","name":"Kuala Lumpur International","coordinates":{"lat":2.755672,"lon":101.70539},"weight":4677,"searchable":true,"timezone":"Asia/Kuala_Lumpur","en_city_name":"Kuala Lumpur","city_name":"Kuala Lumpur","city_code":"KUL","state_code":null,"country_name":"Malezya","country_code":"MY","cases":null,"city_cases":null,"country_cases":null,"index_strings":["kul","kuala lumpur international","kuala lumpur international airport","kuala lumpur","my","malezya","malaysia"]},{"type":"country","code":"VN","name":"Vietnam","weight":4335,"searchable":true,"cases":null,"capital":{"code":"HAN","type":"city"},"index_strings":["vn","vietnam"]},{"type":"country","code":"PH","name":"Filipinler","weight":4158,"searchable":true,"cases":null,"capital":{"code":"MNL","type":"city"},"index_strings":["ph","filipinler","philippines"]},{"type":"country","code":"ES","name":"İspanya","weight":4107,"searchable":true,"cases":null,"capital":{"code":"MAD","type":"city"},"index_strings":["es","ispanya","spain"]},{"type":"country","code":"MM","name":"Myanmar (Burma)","weight":3957,"searchable":true,"cases":null,"capital":{"code":"RGN","type":"city"},"index_strings":["(burma)","myanmar","mm","myanmar (burma)"]},{"type":"country","code":"GB","name":"Birleşik Krallık","weight":3837,"searchable":true,"cases":null,"capital":{"code":"LON","type":"city"},"index_strings":["birleşik","krallık","англия","gb","birleşik krallık","united kingdom"]},{"type":"city","code":"LPQ","name":"Luang Prabang","en_name":"Luang Prabang","coordinates":{"lat":19.897055,"lon":102.16371},"weight":3678,"searchable":true,"timezone":"Asia/Vientiane","state_code":null,"country_name":"Laos","country_code":"LA","main_airport_name":"Luang Prabang International","cases":null,"index_strings":["luang prabang international","lpq","luang prabang","la","laos"]},{"type":"airport","code":"LPQ","name":"Luang Prabang International","coordinates":{"lat":19.897055,"lon":102.16371},"weight":3677,"searchable":false,"timezone":"Asia/Vientiane","en_city_name":"Luang Prabang","city_name":"Luang Prabang","city_code":"LPQ","state_code":null,"country_name":"Laos","country_code":"LA","cases":null,"city_cases":null,"country_cases":null,"index_strings":["lpq","luang prabang international","luang prabang international airport","luang prabang","la","laos"]},{"type":"city","code":"PHS","name":"Phitsanulok","en_name":"Phitsanulok","coordinates":{"lat":16.771307,"lon":100.2812},"weight":3670,"searchable":true,"timezone":"Asia/Bangkok","state_code":null,"country_name":"Tayland","country_code":"TH","main_airport_name":"Phitsanulok","cases":null,"index_strings":["phitsanulok","phs","th","tayland","thailand"]},{"type":"airport","code":"PHS","name":"Phitsanulok","coordinates":{"lat":16.771307,"lon":100.2812},"weight":3670,"searchable":false,"timezone":"Asia/Bangkok","en_city_name":"Phitsanulok","city_name":"Phitsanulok","city_code":"PHS","state_code":null,"country_name":"Tayland","country_code":"TH","cases":null,"city_cases":null,"country_cases":null,"index_strings":["phs","phitsanulok","phitsanulok airport","th","tayland","thailand"]},{"type":"city","code":"NST","name":"Nakhon Si Thammarat","en_name":"Nakhon Si Thammarat","coordinates":{"lat":8.466667,"lon":99.95},"weight":3600,"searchable":true,"timezone":"Asia/Bangkok","state_code":null,"country_name":"Tayland","country_code":"TH","main_airport_name":"Nakhon Si Thammarat","cases":null,"index_strings":["nakhon si thammarat","nst","th","tayland","thailand"]},{"type":"airport","code":"NST","name":"Nakhon Si Thammarat","coordinates":{"lat":8.466667,"lon":99.95},"weight":3599,"searchable":false,"timezone":"Asia/Bangkok","en_city_name":"Nakhon Si Thammarat","city_name":"Nakhon Si Thammarat","city_code":"NST","state_code":null,"country_name":"Tayland","country_code":"TH","cases":null,"city_cases":null,"country_cases":null,"index_strings":["nst","nakhon si thammarat","nakhon si thammarat airport","th","tayland","thailand"]},{"type":"country","code":"CA","name":"Kanada","weight":3554,"searchable":true,"cases":null,"capital":{"code":"YOW","type":"city"},"index_strings":["ca","kanada","canada"]},{"type":"city","code":"VTE","name":"Vientiane","en_name":"Vientiane","coordinates":{"lat":17.975431,"lon":102.56772},"weight":3257,"searchable":true,"timezone":"Asia/Vientiane","state_code":null,"country_name":"Laos","country_code":"LA","main_airport_name":"Vientiane Wattay International","cases":null,"index_strings":["vientiane wattay international","vte","vientiane","la","laos"]},{"type":"airport","code":"VTE","name":"Vientiane Wattay International","coordinates":{"lat":17.975431,"lon":102.56772},"weight":3257,"searchable":false,"timezone":"Asia/Vientiane","en_city_name":"Vientiane","city_name":"Vientiane","city_code":"VTE","state_code":null,"country_name":"Laos","country_code":"LA","cases":null,"city_cases":null,"country_cases":null,"index_strings":["vte","vientiane wattay international","wattay international airport","vientiane","la","laos"]},{"type":"country","code":"ID","name":"Endonezya","weight":3147,"searchable":true,"cases":null,"capital":{"code":"JKT","type":"city"},"index_strings":["id","endonezya","indonesia"]},{"type":"city","code":"SYD","name":"Sidney","en_name":"Sydney","coordinates":{"lat":-33.8689009,"lon":151.2070914},"weight":3079,"searchable":true,"timezone":"Australia/Sydney","state_code":"NS","country_name":"Avustralya","country_code":"AU","main_airport_name":"Sydney Kingsford Smith","cases":null,"index_strings":["sydney kingsford smith","syd","sidney","sydney","au","avustralya","australia"]},{"type":"city","code":"HGN","name":"Mae Hong Son","en_name":"Mae Hong Son","coordinates":{"lat":19.29968,"lon":97.97523},"weight":3052,"searchable":true,"timezone":"Asia/Bangkok","state_code":null,"country_name":"Tayland","country_code":"TH","main_airport_name":"Mae Hong Son","cases":null,"index_strings":["mae hong son","hgn","th","tayland","thailand"]},{"type":"airport","code":"HGN","name":"Mae Hong Son","coordinates":{"lat":19.29968,"lon":97.97523},"weight":3052,"searchable":false,"timezone":"Asia/Bangkok","en_city_name":"Mae Hong Son","city_name":"Mae Hong Son","city_code":"HGN","state_code":null,"country_name":"Tayland","country_code":"TH","cases":null,"city_cases":null,"country_cases":null,"index_strings":["hgn","mae hong son","mae hong son airport","th","tayland","thailand"]},{"type":"country","code":"KR","name":"Güney Kore","weight":3048,"searchable":true,"cases":null,"capital":{"code":"SEL","type":"city"},"index_strings":["güney","kore","kr","güney kore","south korea"]},{"type":"country","code":"TW","name":"Tayvan","weight":3029,"searchable":true,"cases":null,"capital":{"code":"TPE","type":"city"},"index_strings":["tw","tayvan","taiwan"]},{"type":"country","code":"UA","name":"Ukraine","weight":2969,"searchable":true,"cases":null,"capital":{"code":"IEV","type":"city"},"index_strings":["ua","ukraine"]},{"type":"country","code":"IT","name":"İtalya","weight":2824,"searchable":true,"cases":null,"capital":{"code":"ROM","type":"city"},"index_strings":["it","italya","italy"]},{"type":"country","code":"AE","name":"Birleşik Arap Emirlikleri","weight":2798,"searchable":true,"cases":null,"capital":{"code":"AUH","type":"city"},"index_strings":["arap","birleşik","emirlikleri","ae","birleşik arap emirlikleri","united arab emirates"]},{"type":"city","code":"MNL","name":"Manila","en_name":"Manila","coordinates":{"lat":14.5995124,"lon":120.9842195},"weight":2796,"searchable":true,"timezone":"Asia/Manila","state_code":null,"country_name":"Filipinler","country_code":"PH","main_airport_name":"Manila Ninoy Aquino Int'l","cases":null,"index_strings":["manila ninoy aquino int'l","mnl","manila","ph","filipinler","philippines"]},{"type":"airport","code":"MNL","name":"Manila Ninoy Aquino Int'l","coordinates":{"lat":14.509602,"lon":121.01251},"weight":2795,"searchable":false,"timezone":"Asia/Manila","en_city_name":"Manila","city_name":"Manila","city_code":"MNL","state_code":null,"country_name":"Filipinler","country_code":"PH","cases":null,"city_cases":null,"country_cases":null,"index_strings":["mnl","manila ninoy aquino int'l","ninoy aquino international airport","manila","ph","filipinler","philippines"]},{"type":"airport","code":"SYD","name":"Sydney Kingsford Smith","coordinates":{"lat":-33.932922,"lon":151.1799},"weight":2764,"searchable":false,"timezone":"Australia/Sydney","en_city_name":"Sydney","city_name":"Sidney","city_code":"SYD","state_code":"NS","country_name":"Avustralya","country_code":"AU","cases":null,"city_cases":null,"country_cases":null,"index_strings":["syd","sydney kingsford smith","sydney (kingsford smith) airport","sidney","sydney","au","avustralya","australia"]},{"type":"city","code":"LAX","name":"Los Angeles","en_name":"Los Angeles","coordinates":{"lat":34.0522342,"lon":-118.2436849},"weight":2712,"searchable":true,"timezone":"America/Los_Angeles","state_code":"CA","country_name":"ABD","country_code":"US","main_airport_name":null,"cases":null,"index_strings":["lax","los angeles","us","abd","united states"]},{"type":"airport","code":"LAX","name":"Los Angeles International","coordinates":{"lat":33.943398,"lon":-118.40828},"weight":2711,"searchable":true,"timezone":"America/Los_Angeles","en_city_name":"Los Angeles","city_name":"Los Angeles","city_code":"LAX","state_code":"CA","country_name":"ABD","country_code":"US","cases":null,"city_cases":null,"country_cases":null,"index_strings":["lax","los angeles international","los angeles international airport","los angeles","us","abd","united states"]},{"type":"city","code":"LPT","name":"Lampang","en_name":"Lampang","coordinates":{"lat":18.274166,"lon":99.507225},"weight":2695,"searchable":true,"timezone":"Asia/Bangkok","state_code":null,"country_name":"Tayland","country_code":"TH","main_airport_name":"Lampang","cases":null,"index_strings":["lampang","lpt","th","tayland","thailand"]},{"type":"airport","code":"LPT","name":"Lampang","coordinates":{"lat":18.274166,"lon":99.507225},"weight":2695,"searchable":false,"timezone":"Asia/Bangkok","en_city_name":"Lampang","city_name":"Lampang","city_code":"LPT","state_code":null,"country_name":"Tayland","country_code":"TH","cases":null,"city_cases":null,"country_cases":null,"index_strings":["lpt","lampang","lampang airport","th","tayland","thailand"]},{"type":"city","code":"TPE","name":"Taipei","en_name":"Taipei","coordinates":{"lat":25.091075,"lon":121.5598345},"weight":2638,"searchable":true,"timezone":"Asia/Taipei","state_code":null,"country_name":"Tayvan","country_code":"TW","main_airport_name":null,"cases":null,"index_strings":["tpe","taipei","tw","tayvan","taiwan"]},{"type":"city","code":"DEL","name":"Yeni Delhi","en_name":"Delhi","coordinates":{"lat":28.556555,"lon":77.10079},"weight":2630,"searchable":true,"timezone":"Asia/Kolkata","state_code":null,"country_name":"Hindistan","country_code":"IN","main_airport_name":"Delhi Indira Gandhi International","cases":null,"index_strings":["delhi indira gandhi international","del","yeni delhi","delhi","in","hindistan","india"]},{"type":"city","code":"TST","name":"Trang","en_name":"Trang","coordinates":{"lat":7.5,"lon":99.61667},"weight":2590,"searchable":true,"timezone":"Asia/Bangkok","state_code":null,"country_name":"Tayland","country_code":"TH","main_airport_name":"Trang","cases":null,"index_strings":["trang","tst","th","tayland","thailand"]},{"type":"airport","code":"TST","name":"Trang","coordinates":{"lat":7.5,"lon":99.61667},"weight":2590,"searchable":false,"timezone":"Asia/Bangkok","en_city_name":"Trang","city_name":"Trang","city_code":"TST","state_code":null,"country_name":"Tayland","country_code":"TH","cases":null,"city_cases":null,"country_cases":null,"index_strings":["tst","trang","trang airport","th","tayland","thailand"]},{"type":"airport","code":"TPE","name":"Taipei Taiwan Taoyuan International","coordinates":{"lat":25.07639,"lon":121.22389},"weight":2585,"searchable":true,"timezone":"Asia/Taipei","en_city_name":"Taipei","city_name":"Taipei","city_code":"TPE","state_code":null,"country_name":"Tayvan","country_code":"TW","cases":null,"city_cases":null,"country_cases":null,"index_strings":["tpe","taipei taiwan taoyuan international","taiwan taoyuan international airport","taipei","tw","tayvan","taiwan"]},{"type":"city","code":"CAN","name":"Guangzhou","en_name":"Guangzhou","coordinates":{"lat":23.387861,"lon":113.29734},"weight":2544,"searchable":true,"timezone":"Asia/Shanghai","state_code":null,"country_name":"Çin","country_code":"CN","main_airport_name":"Guangzhou Baiyun International","cases":null,"index_strings":["guangzhou baiyun international","can","guangzhou","cn","çin","china"]},{"type":"airport","code":"CAN","name":"Guangzhou Baiyun International","coordinates":{"lat":23.387861,"lon":113.29734},"weight":2544,"searchable":false,"timezone":"Asia/Shanghai","en_city_name":"Guangzhou","city_name":"Guangzhou","city_code":"CAN","state_code":null,"country_name":"Çin","country_code":"CN","cases":null,"city_cases":null,"country_cases":null,"index_strings":["can","guangzhou baiyun international","guangzhou baiyun international airport","guangzhou","cn","çin","china"]},{"type":"country","code":"NZ","name":"Yeni Zelanda","weight":2475,"searchable":true,"cases":null,"capital":{"code":"WLG","type":"city"},"index_strings":["yeni","zelanda","nz","yeni zelanda","new zealand"]},{"type":"country","code":"FR","name":"Fransa","weight":2428,"searchable":true,"cases":null,"capital":{"code":"PAR","type":"city"},"index_strings":["fr","fransa","france"]},{"type":"city","code":"SHA","name":"Şanghay","en_name":"Shanghai","coordinates":{"lat":31.230393,"lon":121.473704},"weight":2362,"searchable":true,"timezone":"Asia/Shanghai","state_code":null,"country_name":"Çin","country_code":"CN","main_airport_name":null,"cases":null,"index_strings":["sha","şanghay","shanghai","cn","çin","china"]},{"type":"city","code":"NNT","name":"Nan","en_name":"Nan","coordinates":{"lat":18.8,"lon":100.78333},"weight":2283,"searchable":true,"timezone":"Asia/Bangkok","state_code":null,"country_name":"Tayland","country_code":"TH","main_airport_name":"Nan","cases":null,"index_strings":["nan","nnt","th","tayland","thailand"]},{"type":"airport","code":"NNT","name":"Nan","coordinates":{"lat":18.8,"lon":100.78333},"weight":2283,"searchable":false,"timezone":"Asia/Bangkok","en_city_name":"Nan","city_name":"Nan","city_code":"NNT","state_code":null,"country_name":"Tayland","country_code":"TH","cases":null,"city_cases":null,"country_cases":null,"index_strings":["nnt","nan","nan airport","th","tayland","thailand"]},{"type":"city","code":"RGN","name":"Yangon","en_name":"Yangon","coordinates":{"lat":16.900068,"lon":96.134155},"weight":2183,"searchable":true,"timezone":"Asia/Rangoon","state_code":null,"country_name":"Myanmar (Burma)","country_code":"MM","main_airport_name":"Yangon International","cases":null,"index_strings":["yangon international","rgn","yangon","mm","myanmar (burma)","myanmar"]},{"type":"airport","code":"RGN","name":"Yangon International","coordinates":{"lat":16.900068,"lon":96.134155},"weight":2183,"searchable":false,"timezone":"Asia/Rangoon","en_city_name":"Yangon","city_name":"Yangon","city_code":"RGN","state_code":null,"country_name":"Myanmar (Burma)","country_code":"MM","cases":null,"city_cases":null,"country_cases":null,"index_strings":["rgn","yangon international","yangon international airport","yangon","mm","myanmar (burma)","myanmar"]},{"type":"country","code":"NL","name":"Hollanda","weight":2171,"searchable":true,"cases":null,"capital":{"code":"AMS","type":"city"},"index_strings":["голландия","nl","hollanda","netherlands"]},{"type":"country","code":"PK","name":"Pakistan","weight":2153,"searchable":true,"cases":null,"capital":{"code":"ISB","type":"city"},"index_strings":["pk","pakistan"]},{"type":"country","code":"GR","name":"Yunanistan","weight":2126,"searchable":true,"cases":null,"capital":{"code":"ATH","type":"city"},"index_strings":["gr","yunanistan","greece"]},{"type":"city","code":"ROI","name":"Roi Et","en_name":"Roi Et","coordinates":{"lat":16.115278,"lon":103.77695},"weight":2104,"searchable":true,"timezone":"Asia/Bangkok","state_code":null,"country_name":"Tayland","country_code":"TH","main_airport_name":"Roi Et","cases":null,"index_strings":["roi et","roi","th","tayland","thailand"]},{"type":"airport","code":"ROI","name":"Roi Et","coordinates":{"lat":16.115278,"lon":103.77695},"weight":2104,"searchable":false,"timezone":"Asia/Bangkok","en_city_name":"Roi Et","city_name":"Roi Et","city_code":"ROI","state_code":null,"country_name":"Tayland","country_code":"TH","cases":null,"city_cases":null,"country_cases":null,"index_strings":["roi","roi et","roi et airport","th","tayland","thailand"]},{"type":"country","code":"CH","name":"İsviçre","weight":2070,"searchable":true,"cases":null,"capital":{"code":"BRN","type":"city"},"index_strings":["ch","isviçre","switzerland"]},{"type":"airport","code":"SHA","name":"Shanghai Hongqiao International","coordinates":{"lat":31.196815,"lon":121.34197},"weight":2025,"searchable":true,"timezone":"Asia/Shanghai","en_city_name":"Shanghai","city_name":"Şanghay","city_code":"SHA","state_code":null,"country_name":"Çin","country_code":"CN","cases":null,"city_cases":null,"country_cases":null,"index_strings":["sha","shanghai hongqiao international","shanghai hongqiao international airport","şanghay","shanghai","cn","çin","china"]},{"type":"city","code":"FRA","name":"Frankfurt am Main","en_name":"Frankfurt","coordinates":{"lat":50.050735,"lon":8.570773},"weight":1971,"searchable":true,"timezone":"Europe/Berlin","state_code":null,"country_name":"Almanya","country_code":"DE","main_airport_name":null,"cases":null,"index_strings":["fra","frankfurt am main","frankfurt","de","almanya","germany"]},{"type":"airport","code":"FRA","name":"Frankfurt International","coordinates":{"lat":50.050735,"lon":8.570773},"weight":1959,"searchable":true,"timezone":"Europe/Berlin","en_city_name":"Frankfurt","city_name":"Frankfurt am Main","city_code":"FRA","state_code":null,"country_name":"Almanya","country_code":"DE","cases":null,"city_cases":null,"country_cases":null,"index_strings":["fra","frankfurt international","frankfurt airport","frankfurt am main","frankfurt","de","almanya","germany"]},{"type":"city","code":"BJV","name":"Bodrum","en_name":"Bodrum","coordinates":{"lat":37.25,"lon":27.66},"weight":1951,"searchable":true,"timezone":"Europe/Istanbul","state_code":null,"country_name":"Türkiye","country_code":"TR","main_airport_name":"Bodrum Milas","cases":null,"index_strings":["bodrum milas","bjv","bodrum","tr","türkiye","turkey"]},{"type":"city","code":"SNO","name":"Sakhon Nakhon","en_name":"Sakon Nakhon","coordinates":{"lat":17.283333,"lon":104.1},"weight":1919,"searchable":true,"timezone":"Asia/Bangkok","state_code":null,"country_name":"Tayland","country_code":"TH","main_airport_name":"Sakon Nakhon","cases":null,"index_strings":["sakon nakhon","sno","sakhon nakhon","th","tayland","thailand"]},{"type":"airport","code":"SNO","name":"Sakon Nakhon","coordinates":{"lat":17.283333,"lon":104.1},"weight":1919,"searchable":false,"timezone":"Asia/Bangkok","en_city_name":"Sakon Nakhon","city_name":"Sakhon Nakhon","city_code":"SNO","state_code":null,"country_name":"Tayland","country_code":"TH","cases":null,"city_cases":null,"country_cases":null,"index_strings":["sno","sakon nakhon","sakon nakhon airport","sakhon nakhon","th","tayland","thailand"]},{"type":"country","code":"MX","name":"Meksika","weight":1893,"searchable":true,"cases":null,"capital":{"code":"MEX","type":"city"},"index_strings":["mx","meksika","mexico"]},{"type":"city","code":"BFV","name":"Buri Ram","en_name":"Buri Ram","coordinates":{"lat":15.226944,"lon":103.25528},"weight":1889,"searchable":true,"timezone":"Asia/Bangkok","state_code":null,"country_name":"Tayland","country_code":"TH","main_airport_name":"Buriram","cases":null,"index_strings":["buriram","bfv","buri ram","th","tayland","thailand"]},{"type":"airport","code":"BFV","name":"Buriram","coordinates":{"lat":15.226944,"lon":103.25528},"weight":1889,"searchable":false,"timezone":"Asia/Bangkok","en_city_name":"Buri Ram","city_name":"Buri Ram","city_code":"BFV","state_code":null,"country_name":"Tayland","country_code":"TH","cases":null,"city_cases":null,"country_cases":null,"index_strings":["bfv","buriram","buri ram airport","buri ram","th","tayland","thailand"]},{"type":"city","code":"FUK","name":"Fukuoka","en_name":"Fukuoka","coordinates":{"lat":33.584286,"lon":130.4439},"weight":1835,"searchable":true,"timezone":"Asia/Tokyo","state_code":null,"country_name":"Japonya","country_code":"JP","main_airport_name":"Fukuoka","cases":null,"index_strings":["fukuoka","fuk","jp","japonya","japan"]},{"type":"airport","code":"FUK","name":"Fukuoka","coordinates":{"lat":33.584286,"lon":130.4439},"weight":1835,"searchable":false,"timezone":"Asia/Tokyo","en_city_name":"Fukuoka","city_name":"Fukuoka","city_code":"FUK","state_code":null,"country_name":"Japonya","country_code":"JP","cases":null,"city_cases":null,"country_cases":null,"index_strings":["fuk","fukuoka","fukuoka airport","jp","japonya","japan"]},{"type":"city","code":"HAN","name":"Hanoi","en_name":"Hanoi","coordinates":{"lat":21.214184,"lon":105.802826},"weight":1817,"searchable":true,"timezone":"Asia/Ho_Chi_Minh","state_code":null,"country_name":"Vietnam","country_code":"VN","main_airport_name":"Hanoi Noi Bai International","cases":null,"index_strings":["hanoi noi bai international","han","hanoi","vn","vietnam"]},{"type":"airport","code":"HAN","name":"Hanoi Noi Bai International","coordinates":{"lat":21.214184,"lon":105.802826},"weight":1793,"searchable":false,"timezone":"Asia/Ho_Chi_Minh","en_city_name":"Hanoi","city_name":"Hanoi","city_code":"HAN","state_code":null,"country_name":"Vietnam","country_code":"VN","cases":null,"city_cases":null,"country_cases":null,"index_strings":["han","hanoi noi bai international","noi bai international airport","hanoi","vn","vietnam"]},{"type":"city","code":"SGN","name":"Ho Chi Minh Kenti","en_name":"Ho Chi Minh City","coordinates":{"lat":10.813045,"lon":106.662476},"weight":1697,"searchable":true,"timezone":"Asia/Ho_Chi_Minh","state_code":null,"country_name":"Vietnam","country_code":"VN","main_airport_name":"Ho Chi Minh City Tan Son Nhat International","cases":null,"index_strings":["ho chi minh city tan son nhat international","sgn","ho chi minh kenti","ho chi minh city","vn","vietnam"]},{"type":"airport","code":"SGN","name":"Ho Chi Minh City Tan Son Nhat International","coordinates":{"lat":10.813045,"lon":106.662476},"weight":1697,"searchable":false,"timezone":"Asia/Ho_Chi_Minh","en_city_name":"Ho Chi Minh City","city_name":"Ho Chi Minh Kenti","city_code":"SGN","state_code":null,"country_name":"Vietnam","country_code":"VN","cases":null,"city_cases":null,"country_cases":null,"index_strings":["sgn","ho chi minh city tan son nhat international","tan son nhat international airport","ho chi minh kenti","ho chi minh city","vn","vietnam"]},{"type":"city","code":"ADA","name":"Adana","en_name":"Adana","coordinates":{"lat":37.0,"lon":35.3213333},"weight":1692,"searchable":true,"timezone":"Europe/Istanbul","state_code":null,"country_name":"Türkiye","country_code":"TR","main_airport_name":"Adana Sakirpasa","cases":null,"index_strings":["adana sakirpasa","ada","adana","tr","türkiye","turkey"]},{"type":"airport","code":"ADA","name":"Adana Sakirpasa","coordinates":{"lat":36.98503,"lon":35.29736},"weight":1692,"searchable":false,"timezone":"Europe/Istanbul","en_city_name":"Adana","city_name":"Adana","city_code":"ADA","state_code":null,"country_name":"Türkiye","country_code":"TR","cases":null,"city_cases":null,"country_cases":null,"index_strings":["ada","adana sakirpasa","adana airport","adana","tr","türkiye","turkey"]},{"type":"city","code":"MEL","name":"Melbourne","en_name":"Melbourne","coordinates":{"lat":-37.8131869,"lon":144.9629796},"weight":1664,"searchable":true,"timezone":"Australia/Melbourne","state_code":"VI","country_name":"Avustralya","country_code":"AU","main_airport_name":null,"cases":null,"index_strings":["mel","melbourne","au","avustralya","australia"]},{"type":"city","code":"IZM","name":"İzmir","en_name":"Izmir","coordinates":{"lat":38.29,"lon":27.16},"weight":1652,"searchable":true,"timezone":"Europe/Istanbul","state_code":null,"country_name":"Türkiye","country_code":"TR","main_airport_name":null,"cases":null,"index_strings":["izmir adnan menderes","izm","izmir","tr","türkiye","turkey"]},{"type":"airport","code":"ADB","name":"Izmir Adnan Menderes","coordinates":{"lat":38.294403,"lon":27.147594},"weight":1652,"searchable":true,"timezone":"Europe/Istanbul","en_city_name":"Izmir","city_name":"İzmir","city_code":"IZM","state_code":null,"country_name":"Türkiye","country_code":"TR","cases":null,"city_cases":null,"country_cases":null,"index_strings":["adb","izmir adnan menderes","izmir adnan menderes airport","izm","izmir","tr","türkiye","turkey"]},{"type":"country","code":"SA","name":"Suudi Arabistan","weight":1596,"searchable":true,"cases":null,"capital":{"code":"RUH","type":"city"},"index_strings":["arabistan","suudi","sa","suudi arabistan","saudi arabia"]},{"type":"city","code":"MAQ","name":"Mae Sot","en_name":"Mae Sot","coordinates":{"lat":16.666668,"lon":98.583336},"weight":1592,"searchable":true,"timezone":"Asia/Bangkok","state_code":null,"country_name":"Tayland","country_code":"TH","main_airport_name":"Mae Sot","cases":null,"index_strings":["mae sot","maq","th","tayland","thailand"]},{"type":"airport","code":"MAQ","name":"Mae Sot","coordinates":{"lat":16.666668,"lon":98.583336},"weight":1592,"searchable":false,"timezone":"Asia/Bangkok","en_city_name":"Mae Sot","city_name":"Mae Sot","city_code":"MAQ","state_code":null,"country_name":"Tayland","country_code":"TH","cases":null,"city_cases":null,"country_cases":null,"index_strings":["maq","mae sot","mae sot airport","th","tayland","thailand"]},{"type":"city","code":"KOP","name":"Nakhon Phanom","en_name":"Nakhon Phanom","coordinates":{"lat":17.4,"lon":104.75},"weight":1564,"searchable":true,"timezone":"Asia/Bangkok","state_code":null,"country_name":"Tayland","country_code":"TH","main_airport_name":"Nakhon Phanom","cases":null,"index_strings":["nakhon phanom","kop","th","tayland","thailand"]},{"type":"airport","code":"KOP","name":"Nakhon Phanom","coordinates":{"lat":17.4,"lon":104.75},"weight":1564,"searchable":false,"timezone":"Asia/Bangkok","en_city_name":"Nakhon Phanom","city_name":"Nakhon Phanom","city_code":"KOP","state_code":null,"country_name":"Tayland","country_code":"TH","cases":null,"city_cases":null,"country_cases":null,"index_strings":["kop","nakhon phanom","nakhon phanom airport","th","tayland","thailand"]},{"type":"country","code":"EG","name":"Mısır","weight":1511,"searchable":true,"cases":null,"capital":{"code":"CAI","type":"city"},"index_strings":["eg","mısır","egypt"]},{"type":"city","code":"TDX","name":"Trat","en_name":"Trat","coordinates":{"lat":12.273953,"lon":102.31867},"weight":1478,"searchable":true,"timezone":"Asia/Bangkok","state_code":null,"country_name":"Tayland","country_code":"TH","main_airport_name":"Trat","cases":null,"index_strings":["trat","tdx","th","tayland","thailand"]},{"type":"airport","code":"TDX","name":"Trat","coordinates":{"lat":12.273953,"lon":102.31867},"weight":1478,"searchable":false,"timezone":"Asia/Bangkok","en_city_name":"Trat","city_name":"Trat","city_code":"TDX","state_code":null,"country_name":"Tayland","country_code":"TH","cases":null,"city_cases":null,"country_cases":null,"index_strings":["tdx","trat","trat airport","th","tayland","thailand"]},{"type":"country","code":"NP","name":"Nepal","weight":1463,"searchable":true,"cases":null,"capital":{"code":"KTM","type":"city"},"index_strings":["np","nepal"]},{"type":"airport","code":"MEL","name":"Melbourne","coordinates":{"lat":-37.669613,"lon":144.84978},"weight":1456,"searchable":true,"timezone":"Australia/Melbourne","en_city_name":"Melbourne","city_name":"Melbourne","city_code":"MEL","state_code":"VI","country_name":"Avustralya","country_code":"AU","cases":null,"city_cases":null,"country_cases":null,"index_strings":["mel","melbourne","tullamarine airport","au","avustralya","australia"]},{"type":"airport","code":"BJV","name":"Bodrum Milas","coordinates":{"lat":37.243954,"lon":27.672781},"weight":1453,"searchable":false,"timezone":"Europe/Istanbul","en_city_name":"Bodrum","city_name":"Bodrum","city_code":"BJV","state_code":null,"country_name":"Türkiye","country_code":"TR","cases":null,"city_cases":null,"country_cases":null,"index_strings":["bjv","bodrum milas","milas-bodrum airport","bodrum","tr","türkiye","turkey"]},{"type":"city","code":"AMS","name":"Amsterdam","en_name":"Amsterdam","coordinates":{"lat":52.3730556,"lon":4.8922222},"weight":1452,"searchable":true,"timezone":"Europe/Amsterdam","state_code":null,"country_name":"Hollanda","country_code":"NL","main_airport_name":"Amsterdam Schiphol","cases":null,"index_strings":["amsterdam schiphol","евровидение","eurovision","little big","littlebig","ams","amsterdam","nl","hollanda","netherlands"]},{"type":"airport","code":"AMS","name":"Amsterdam Schiphol","coordinates":{"lat":52.30907,"lon":4.763385},"weight":1449,"searchable":false,"timezone":"Europe/Amsterdam","en_city_name":"Amsterdam","city_name":"Amsterdam","city_code":"AMS","state_code":null,"country_name":"Hollanda","country_code":"NL","cases":null,"city_cases":null,"country_cases":null,"index_strings":["ams","amsterdam schiphol","amsterdam airport schiphol","amsterdam","nl","hollanda","netherlands"]},{"type":"city","code":"TYO","name":"Tokyo","en_name":"Tokyo","coordinates":{"lat":35.6894875,"lon":139.6917064},"weight":1441,"searchable":true,"timezone":"Asia/Tokyo","state_code":null,"country_name":"Japonya","country_code":"JP","main_airport_name":null,"cases":null,"index_strings":["tyo","tokyo","jp","japonya","japan"]},{"type":"city","code":"PEN","name":"Penang","en_name":"Penang","coordinates":{"lat":5.292961,"lon":100.265175},"weight":1400,"searchable":true,"timezone":"Asia/Kuala_Lumpur","state_code":null,"country_name":"Malezya","country_code":"MY","main_airport_name":"Penang International","cases":null,"index_strings":["penang international","pen","penang","my","malezya","malaysia"]},{"type":"airport","code":"PEN","name":"Penang International","coordinates":{"lat":5.292961,"lon":100.265175},"weight":1400,"searchable":false,"timezone":"Asia/Kuala_Lumpur","en_city_name":"Penang","city_name":"Penang","city_code":"PEN","state_code":null,"country_name":"Malezya","country_code":"MY","cases":null,"city_cases":null,"country_cases":null,"index_strings":["pen","penang international","penang international airport","penang","my","malezya","malaysia"]},{"type":"country","code":"AT","name":"Avusturya","weight":1386,"searchable":true,"cases":null,"capital":{"code":"VIE","type":"city"},"index_strings":["at","avusturya","austria"]},{"type":"country","code":"KH","name":"Kamboçya","weight":1357,"searchable":true,"cases":null,"capital":{"code":"PNH","type":"city"},"index_strings":["kh","kamboçya","cambodia"]},{"type":"city","code":"DXB","name":"Dubai","en_name":"Dubai","coordinates":{"lat":25.2644444,"lon":55.3116667},"weight":1347,"searchable":true,"timezone":"Asia/Dubai","state_code":null,"country_name":"Birleşik Arap Emirlikleri","country_code":"AE","main_airport_name":null,"cases":null,"index_strings":["dxb","dubai","ae","birleşik arap emirlikleri","united arab emirates"]},{"type":"country","code":"MO","name":"Makao","weight":1341,"searchable":true,"cases":null,"capital":{"code":"MFM","type":"city"},"index_strings":["mo","makao","macau"]},{"type":"city","code":"MFM","name":"Macau","en_name":"Macau","coordinates":{"lat":22.1638446,"lon":113.5549937},"weight":1340,"searchable":true,"timezone":"Asia/Macau","state_code":null,"country_name":"Makao","country_code":"MO","main_airport_name":null,"cases":null,"index_strings":["mfm","macau","mo","makao"]},{"type":"airport","code":"MFM","name":"Macau International","coordinates":{"lat":22.156588,"lon":113.57285},"weight":1339,"searchable":true,"timezone":"Asia/Macau","en_city_name":"Macau","city_name":"Macau","city_code":"MFM","state_code":null,"country_name":"Makao","country_code":"MO","cases":null,"city_cases":null,"country_cases":null,"index_strings":["mfm","macau international","macau international airport","macau","mo","makao"]},{"type":"airport","code":"DXB","name":"Dubai International","coordinates":{"lat":25.248665,"lon":55.352917},"weight":1335,"searchable":true,"timezone":"Asia/Dubai","en_city_name":"Dubai","city_name":"Dubai","city_code":"DXB","state_code":null,"country_name":"Birleşik Arap Emirlikleri","country_code":"AE","cases":null,"city_cases":null,"country_cases":null,"index_strings":["dxb","dubai international","dubai airport","dubai","ae","birleşik arap emirlikleri","united arab emirates"]},{"type":"airport","code":"ESB","name":"Ankara Esenboğa Havalimanı","coordinates":{"lat":40.11494,"lon":32.993145},"weight":1334,"searchable":true,"timezone":"Europe/Istanbul","en_city_name":"Ankara","city_name":"Ankara","city_code":"ANK","state_code":null,"country_name":"Türkiye","country_code":"TR","cases":null,"city_cases":null,"country_cases":null,"index_strings":["esb","ankara esenboğa havalimanı","esenboga international airport","ank","ankara","tr","türkiye","turkey"]},{"type":"country","code":"CZ","name":"Çek Cumhuriyeti","weight":1328,"searchable":true,"cases":null,"capital":{"code":"PRG","type":"city"},"index_strings":["cumhuriyeti","çek","cz","çek cumhuriyeti","czech republic"]},{"type":"city","code":"PRH","name":"Phrae","en_name":"Phrae","coordinates":{"lat":18.15,"lon":100.13333},"weight":1324,"searchable":true,"timezone":"Asia/Bangkok","state_code":null,"country_name":"Tayland","country_code":"TH","main_airport_name":"Phrae","cases":null,"index_strings":["phrae","prh","th","tayland","thailand"]},{"type":"city","code":"BOM","name":"Mumbai","en_name":"Mumbai","coordinates":{"lat":19.095509,"lon":72.87497},"weight":1324,"searchable":true,"timezone":"Asia/Kolkata","state_code":null,"country_name":"Hindistan","country_code":"IN","main_airport_name":"Mumbai/Bombay Chhatrapati Shivaji Int'l","cases":null,"index_strings":["mumbai/bombay chhatrapati shivaji int'l","бомбей","bombay","bom","mumbai","in","hindistan","india"]},{"type":"airport","code":"BOM","name":"Mumbai/Bombay Chhatrapati Shivaji Int'l","coordinates":{"lat":19.095509,"lon":72.87497},"weight":1324,"searchable":false,"timezone":"Asia/Kolkata","en_city_name":"Mumbai","city_name":"Mumbai","city_code":"BOM","state_code":null,"country_name":"Hindistan","country_code":"IN","cases":null,"city_cases":null,"country_cases":null,"index_strings":["bom","mumbai/bombay chhatrapati shivaji int'l","chhatrapati shivaji international airport","mumbai","in","hindistan","india"]},{"type":"airport","code":"PRH","name":"Phrae","coordinates":{"lat":18.15,"lon":100.13333},"weight":1324,"searchable":false,"timezone":"Asia/Bangkok","en_city_name":"Phrae","city_name":"Phrae","city_code":"PRH","state_code":null,"country_name":"Tayland","country_code":"TH","cases":null,"city_cases":null,"country_cases":null,"index_strings":["prh","phrae","phrae airport","th","tayland","thailand"]},{"type":"city","code":"NGO","name":"Nagoya","en_name":"Nagoya","coordinates":{"lat":34.8867002,"lon":136.8323973},"weight":1296,"searchable":true,"timezone":"Asia/Tokyo","state_code":null,"country_name":"Japonya","country_code":"JP","main_airport_name":null,"cases":null,"index_strings":["ngo","nagoya","jp","japonya","japan"]},{"type":"airport","code":"NGO","name":"Nagoya Chubu Centrair International","coordinates":{"lat":34.858334,"lon":136.80528},"weight":1294,"searchable":true,"timezone":"Asia/Tokyo","en_city_name":"Nagoya","city_name":"Nagoya","city_code":"NGO","state_code":null,"country_name":"Japonya","country_code":"JP","cases":null,"city_cases":null,"country_cases":null,"index_strings":["ngo","nagoya chubu centrair international","chubu centrair international airport","nagoya","jp","japonya","japan"]},{"type":"city","code":"MUC","name":"Münih","en_name":"Munich","coordinates":{"lat":48.1391265,"lon":11.5801863},"weight":1288,"searchable":true,"timezone":"Europe/Berlin","state_code":null,"country_name":"Almanya","country_code":"DE","main_airport_name":null,"cases":null,"index_strings":["muc","münih","munich","de","almanya","germany"]},{"type":"city","code":"KTM","name":"Katmandu","en_name":"Kathmandu","coordinates":{"lat":27.699905,"lon":85.35657},"weight":1284,"searchable":true,"timezone":"Asia/Kathmandu","state_code":null,"country_name":"Nepal","country_code":"NP","main_airport_name":"Kathmandu Tribhuvan International","cases":null,"index_strings":["kathmandu tribhuvan international","ktm","katmandu","kathmandu","np","nepal"]},{"type":"airport","code":"KTM","name":"Kathmandu Tribhuvan International","coordinates":{"lat":27.699905,"lon":85.35657},"weight":1284,"searchable":false,"timezone":"Asia/Kathmandu","en_city_name":"Kathmandu","city_name":"Katmandu","city_code":"KTM","state_code":null,"country_name":"Nepal","country_code":"NP","cases":null,"city_cases":null,"country_cases":null,"index_strings":["ktm","kathmandu tribhuvan international","tribhuvan international airport","katmandu","kathmandu","np","nepal"]},{"type":"airport","code":"MUC","name":"Munich Franz Joseph Strauss Int'l","coordinates":{"lat":48.353004,"lon":11.790143},"weight":1284,"searchable":true,"timezone":"Europe/Berlin","en_city_name":"Munich","city_name":"Münih","city_code":"MUC","state_code":null,"country_name":"Almanya","country_code":"DE","cases":null,"city_cases":null,"country_cases":null,"index_strings":["muc","munich franz joseph strauss int'l","franz josef strauss airport","münih","munich","de","almanya","germany"]},{"type":"city","code":"ZRH","name":"Zürih","en_name":"Zurich","coordinates":{"lat":47.367347,"lon":8.5500025},"weight":1275,"searchable":true,"timezone":"Europe/Zurich","state_code":null,"country_name":"İsviçre","country_code":"CH","main_airport_name":"Zürih Havalimanı","cases":null,"index_strings":["zürih havalimanı","zrh","zürih","zurich","ch","isviçre","switzerland"]},{"type":"city","code":"TZX","name":"Trabzon","en_name":"Trabzon","coordinates":{"lat":40.99419,"lon":39.78168},"weight":1274,"searchable":true,"timezone":"Europe/Istanbul","state_code":null,"country_name":"Türkiye","country_code":"TR","main_airport_name":"Trabzon","cases":null,"index_strings":["trabzon","tzx","tr","türkiye","turkey"]},{"type":"airport","code":"TZX","name":"Trabzon","coordinates":{"lat":40.99419,"lon":39.78168},"weight":1274,"searchable":false,"timezone":"Europe/Istanbul","en_city_name":"Trabzon","city_name":"Trabzon","city_code":"TZX","state_code":null,"country_name":"Türkiye","country_code":"TR","cases":null,"city_cases":null,"country_cases":null,"index_strings":["tzx","trabzon","trabzon airport","tr","türkiye","turkey"]},{"type":"country","code":"NO","name":"Norveç","weight":1260,"searchable":true,"cases":null,"capital":{"code":"OSL","type":"city"},"index_strings":["no","norveç","norway"]},{"type":"city","code":"KMG","name":"Kunming","en_name":"Kunming","coordinates":{"lat":25.101944,"lon":102.92917},"weight":1247,"searchable":true,"timezone":"Asia/Shanghai","state_code":null,"country_name":"Çin","country_code":"CN","main_airport_name":"Kunming Changshui International","cases":null,"index_strings":["kunming changshui international","kmg","kunming","cn","çin","china"]},{"type":"airport","code":"KMG","name":"Kunming Changshui International","coordinates":{"lat":25.101944,"lon":102.92917},"weight":1247,"searchable":false,"timezone":"Asia/Shanghai","en_city_name":"Kunming","city_name":"Kunming","city_code":"KMG","state_code":null,"country_name":"Çin","country_code":"CN","cases":null,"city_cases":null,"country_cases":null,"index_strings":["kmg","kunming changshui international","kunming changshui international airport","kunming","cn","çin","china"]},{"type":"country","code":"ZA","name":"Güney Afrika","weight":1232,"searchable":true,"cases":null,"capital":{"code":"PRY","type":"city"},"index_strings":["afrika","güney","za","güney afrika","south africa"]},{"type":"city","code":"CJM","name":"Chumphon","en_name":"Chumphon","coordinates":{"lat":10.709722,"lon":99.36389},"weight":1230,"searchable":true,"timezone":"Asia/Bangkok","state_code":null,"country_name":"Tayland","country_code":"TH","main_airport_name":"Chumphon","cases":null,"index_strings":["chumphon","cjm","th","tayland","thailand"]},{"type":"airport","code":"CJM","name":"Chumphon","coordinates":{"lat":10.709722,"lon":99.36389},"weight":1230,"searchable":false,"timezone":"Asia/Bangkok","en_city_name":"Chumphon","city_name":"Chumphon","city_code":"CJM","state_code":null,"country_name":"Tayland","country_code":"TH","cases":null,"city_cases":null,"country_cases":null,"index_strings":["cjm","chumphon","chumphon airport","th","tayland","thailand"]},{"type":"country","code":"IR","name":"İran","weight":1228,"searchable":true,"cases":null,"capital":{"code":"THR","type":"city"},"index_strings":["ir","iran"]},{"type":"city","code":"VIE","name":"Viyana","en_name":"Vienna","coordinates":{"lat":48.2081743,"lon":16.3738189},"weight":1197,"searchable":true,"timezone":"Europe/Vienna","state_code":null,"country_name":"Avusturya","country_code":"AT","main_airport_name":"Viyana Uluslararası Havalimanı","cases":null,"index_strings":["viyana uluslararası havalimanı","vie","viyana","vienna","at","avusturya","austria"]},{"type":"city","code":"AKL","name":"Auckland","en_name":"Auckland","coordinates":{"lat":-36.8484597,"lon":174.7633315},"weight":1159,"searchable":true,"timezone":"Pacific/Auckland","state_code":null,"country_name":"Yeni Zelanda","country_code":"NZ","main_airport_name":"Auckland International","cases":null,"index_strings":["auckland international","akl","auckland","nz","yeni zelanda","new zealand"]},{"type":"airport","code":"AKL","name":"Auckland International","coordinates":{"lat":-37.004787,"lon":174.78352},"weight":1159,"searchable":false,"timezone":"Pacific/Auckland","en_city_name":"Auckland","city_name":"Auckland","city_code":"AKL","state_code":null,"country_name":"Yeni Zelanda","country_code":"NZ","cases":null,"city_cases":null,"country_cases":null,"index_strings":["akl","auckland international","auckland airport","auckland","nz","yeni zelanda","new zealand"]},{"type":"city","code":"SZF","name":"Samsun","en_name":"Samsun","coordinates":{"lat":41.25738,"lon":36.555058},"weight":1155,"searchable":true,"timezone":"Europe/Istanbul","state_code":null,"country_name":"Türkiye","country_code":"TR","main_airport_name":"Samsun Carsamba","cases":null,"index_strings":["samsun carsamba","szf","samsun","tr","türkiye","turkey"]},{"type":"airport","code":"SZF","name":"Samsun Carsamba","coordinates":{"lat":41.25738,"lon":36.555058},"weight":1155,"searchable":false,"timezone":"Europe/Istanbul","en_city_name":"Samsun","city_name":"Samsun","city_code":"SZF","state_code":null,"country_name":"Türkiye","country_code":"TR","cases":null,"city_cases":null,"country_cases":null,"index_strings":["szf","samsun carsamba","samsun-carsamba airport","samsun","tr","türkiye","turkey"]},{"type":"city","code":"SFO","name":"San Francisco","en_name":"San Francisco","coordinates":{"lat":37.7749295,"lon":-122.4194155},"weight":1152,"searchable":true,"timezone":"America/Los_Angeles","state_code":"CA","country_name":"ABD","country_code":"US","main_airport_name":"San Francisco Uluslararası Havalimanı","cases":null,"index_strings":["san francisco uluslararası havalimanı","sfo","san francisco","us","abd","united states"]},{"type":"airport","code":"SFO","name":"San Francisco Uluslararası Havalimanı","coordinates":{"lat":37.615215,"lon":-122.38988},"weight":1152,"searchable":false,"timezone":"America/Los_Angeles","en_city_name":"San Francisco","city_name":"San Francisco","city_code":"SFO","state_code":"CA","country_name":"ABD","country_code":"US","cases":null,"city_cases":null,"country_cases":null,"index_strings":["sfo","san francisco uluslararası havalimanı","san francisco international airport","san francisco","us","abd","united states"]},{"type":"city","code":"CHI","name":"Chicago","en_name":"Chicago","coordinates":{"lat":41.8781136,"lon":-87.6297982},"weight":1143,"searchable":true,"timezone":"America/Chicago","state_code":"IL","country_name":"ABD","country_code":"US","main_airport_name":null,"cases":null,"index_strings":["chi","chicago","us","abd","united states"]},{"type":"city","code":"ASR","name":"Kayseri","en_name":"Kayseri","coordinates":{"lat":38.7742,"lon":35.490707},"weight":1135,"searchable":true,"timezone":"Europe/Istanbul","state_code":null,"country_name":"Türkiye","country_code":"TR","main_airport_name":"Kayseri Erkilet","cases":null,"index_strings":["kayseri erkilet","кэйзери","asr","kayseri","tr","türkiye","turkey"]},{"type":"airport","code":"ASR","name":"Kayseri Erkilet","coordinates":{"lat":38.7742,"lon":35.490707},"weight":1135,"searchable":false,"timezone":"Europe/Istanbul","en_city_name":"Kayseri","city_name":"Kayseri","city_code":"ASR","state_code":null,"country_name":"Türkiye","country_code":"TR","cases":null,"city_cases":null,"country_cases":null,"index_strings":["кэйзери","asr","kayseri erkilet","kayseri airport","kayseri","tr","türkiye","turkey"]},{"type":"city","code":"SEL","name":"Seul","en_name":"Seoul","coordinates":{"lat":37.566535,"lon":126.9779692},"weight":1131,"searchable":true,"timezone":"Asia/Seoul","state_code":null,"country_name":"Güney Kore","country_code":"KR","main_airport_name":null,"cases":null,"index_strings":["sel","seul","seoul","kr","güney kore","south korea"]},{"type":"country","code":"DK","name":"Danimarka","weight":1122,"searchable":true,"cases":null,"capital":{"code":"CPH","type":"city"},"index_strings":["dk","danimarka","denmark"]},{"type":"city","code":"CCU","name":"Kalküta","en_name":"Kolkata","coordinates":{"lat":22.64531,"lon":88.43931},"weight":1110,"searchable":true,"timezone":"Asia/Kolkata","state_code":null,"country_name":"Hindistan","country_code":"IN","main_airport_name":"Kolkata/Calcutta Netaji Subhas Chandra","cases":null,"index_strings":["kolkata/calcutta netaji subhas chandra","ccu","kalküta","kolkata","in","hindistan","india"]},{"type":"airport","code":"CCU","name":"Kolkata/Calcutta Netaji Subhas Chandra","coordinates":{"lat":22.64531,"lon":88.43931},"weight":1110,"searchable":false,"timezone":"Asia/Kolkata","en_city_name":"Kolkata","city_name":"Kalküta","city_code":"CCU","state_code":null,"country_name":"Hindistan","country_code":"IN","cases":null,"city_cases":null,"country_cases":null,"index_strings":["ccu","kolkata/calcutta netaji subhas chandra","netaji subhas chandra bose airport","kalküta","kolkata","in","hindistan","india"]},{"type":"city","code":"DPS","name":"Denpasar","en_name":"Denpasar","coordinates":{"lat":-8.74446,"lon":115.16331},"weight":1101,"searchable":true,"timezone":"Asia/Makassar","state_code":null,"country_name":"Endonezya","country_code":"ID","main_airport_name":"Denpasar-Bali Ngurah Rai","cases":null,"index_strings":["denpasar-bali ngurah rai","бали","bali","dps","denpasar","id","endonezya","indonesia"]},{"type":"airport","code":"DPS","name":"Denpasar-Bali Ngurah Rai","coordinates":{"lat":-8.74446,"lon":115.16331},"weight":1101,"searchable":false,"timezone":"Asia/Makassar","en_city_name":"Denpasar","city_name":"Denpasar","city_code":"DPS","state_code":null,"country_name":"Endonezya","country_code":"ID","cases":null,"city_cases":null,"country_cases":null,"index_strings":["dps","denpasar-bali ngurah rai","ngurah rai international airport","denpasar","id","endonezya","indonesia"]},{"type":"airport","code":"ZRH","name":"Zürih Havalimanı","coordinates":{"lat":47.450603,"lon":8.561746},"weight":1100,"searchable":false,"timezone":"Europe/Zurich","en_city_name":"Zurich","city_name":"Zürih","city_code":"ZRH","state_code":null,"country_name":"İsviçre","country_code":"CH","cases":null,"city_cases":null,"country_cases":null,"index_strings":["zrh","zürih havalimanı","zurich airport","zürih","zurich","ch","isviçre","switzerland"]},{"type":"city","code":"UNN","name":"Ranong","en_name":"Ranong","coordinates":{"lat":9.852778,"lon":98.629166},"weight":1096,"searchable":true,"timezone":"Asia/Bangkok","state_code":null,"country_name":"Tayland","country_code":"TH","main_airport_name":"Ranong","cases":null,"index_strings":["ranong","unn","th","tayland","thailand"]},{"type":"airport","code":"UNN","name":"Ranong","coordinates":{"lat":9.852778,"lon":98.629166},"weight":1096,"searchable":false,"timezone":"Asia/Bangkok","en_city_name":"Ranong","city_name":"Ranong","city_code":"UNN","state_code":null,"country_name":"Tayland","country_code":"TH","cases":null,"city_cases":null,"country_cases":null,"index_strings":["unn","ranong","ranong airport","th","tayland","thailand"]},{"type":"airport","code":"NRT","name":"Tokyo Narita International","coordinates":{"lat":35.773212,"lon":140.38744},"weight":1087,"searchable":true,"timezone":"Asia/Tokyo","en_city_name":"Tokyo","city_name":"Tokyo","city_code":"TYO","state_code":null,"country_name":"Japonya","country_code":"JP","cases":null,"city_cases":null,"country_cases":null,"index_strings":["nrt","tokyo narita international","narita international airport","tyo","tokyo","jp","japonya","japan"]},{"type":"country","code":"GE","name":"Gürcistan","weight":1081,"searchable":true,"cases":null,"capital":{"code":"TBS","type":"city"},"index_strings":["ge","gürcistan","georgia"]},{"type":"airport","code":"ICN","name":"Seoul Incheon International","coordinates":{"lat":37.448524,"lon":126.45123},"weight":1078,"searchable":true,"timezone":"Asia/Seoul","en_city_name":"Seoul","city_name":"Seul","city_code":"SEL","state_code":null,"country_name":"Güney Kore","country_code":"KR","cases":null,"city_cases":null,"country_cases":null,"index_strings":["icn","seoul incheon international","incheon international airport","sel","seul","seoul","kr","güney kore","south korea"]},{"type":"city","code":"SZX","name":"Shenzhen","en_name":"Shenzhen","coordinates":{"lat":22.543099,"lon":114.057868},"weight":1050,"searchable":true,"timezone":"Asia/Shanghai","state_code":null,"country_name":"Çin","country_code":"CN","main_airport_name":null,"cases":null,"index_strings":["szx","shenzhen","cn","çin","china"]},{"type":"airport","code":"SZX","name":"Shenzhen Bao'an International","coordinates":{"lat":22.639444,"lon":113.81084},"weight":1049,"searchable":true,"timezone":"Asia/Shanghai","en_city_name":"Shenzhen","city_name":"Shenzhen","city_code":"SZX","state_code":null,"country_name":"Çin","country_code":"CN","cases":null,"city_cases":null,"country_cases":null,"index_strings":["szx","shenzhen bao'an international","shenzhen bao'an international airport","shenzhen","cn","çin","china"]},{"type":"city","code":"MIA","name":"Miami","en_name":"Miami","coordinates":{"lat":25.7889689,"lon":-80.2264393},"weight":1031,"searchable":true,"timezone":"America/New_York","state_code":"FL","country_name":"ABD","country_code":"US","main_airport_name":null,"cases":null,"index_strings":["mia","miami","us","abd","united states"]},{"type":"city","code":"MAD","name":"Madrit","en_name":"Madrid","coordinates":{"lat":40.4166909,"lon":-3.7003454},"weight":1027,"searchable":true,"timezone":"Europe/Madrid","state_code":null,"country_name":"İspanya","country_code":"ES","main_airport_name":null,"cases":null,"index_strings":["mad","madrit","madrid","es","ispanya","spain"]},{"type":"country","code":"BR","name":"Brezilya","weight":1022,"searchable":true,"cases":null,"capital":{"code":"BSB","type":"city"},"index_strings":["br","brezilya","brazil"]},{"type":"city","code":"PYY","name":"Pai District","en_name":"Pai","coordinates":{"lat":19.371666,"lon":98.43667},"weight":1008,"searchable":true,"timezone":"Asia/Bangkok","state_code":null,"country_name":"Tayland","country_code":"TH","main_airport_name":"Pai","cases":null,"index_strings":["pai","pyy","pai district","th","tayland","thailand"]},{"type":"city","code":"PUS","name":"Busan","en_name":"Busan","coordinates":{"lat":35.179317,"lon":128.94873},"weight":1008,"searchable":true,"timezone":"Asia/Seoul","state_code":null,"country_name":"Güney Kore","country_code":"KR","main_airport_name":"Busan Gimhae International","cases":null,"index_strings":["busan gimhae international","pus","busan","kr","güney kore","south korea"]},{"type":"airport","code":"PYY","name":"Pai","coordinates":{"lat":19.371666,"lon":98.43667},"weight":1008,"searchable":false,"timezone":"Asia/Bangkok","en_city_name":"Pai","city_name":"Pai District","city_code":"PYY","state_code":null,"country_name":"Tayland","country_code":"TH","cases":null,"city_cases":null,"country_cases":null,"index_strings":["pyy","pai","pai airport","pai district","th","tayland","thailand"]},{"type":"airport","code":"PUS","name":"Busan Gimhae International","coordinates":{"lat":35.179317,"lon":128.94873},"weight":1008,"searchable":false,"timezone":"Asia/Seoul","en_city_name":"Busan","city_name":"Busan","city_code":"PUS","state_code":null,"country_name":"Güney Kore","country_code":"KR","cases":null,"city_cases":null,"country_cases":null,"index_strings":["pus","busan gimhae international","gimhae international airport","busan","kr","güney kore","south korea"]},{"type":"city","code":"LOE","name":"Loei","en_name":"Loei","coordinates":{"lat":17.45,"lon":101.73333},"weight":1005,"searchable":true,"timezone":"Asia/Bangkok","state_code":null,"country_name":"Tayland","country_code":"TH","main_airport_name":"Loei","cases":null,"index_strings":["loei","loe","th","tayland","thailand"]},{"type":"airport","code":"LOE","name":"Loei","coordinates":{"lat":17.45,"lon":101.73333},"weight":1004,"searchable":false,"timezone":"Asia/Bangkok","en_city_name":"Loei","city_name":"Loei","city_code":"LOE","state_code":null,"country_name":"Tayland","country_code":"TH","cases":null,"city_cases":null,"country_cases":null,"index_strings":["loe","loei","loei airport","th","tayland","thailand"]},{"type":"country","code":"BE","name":"Belçika","weight":992,"searchable":true,"cases":null,"capital":{"code":"BRU","type":"city"},"index_strings":["be","belçika","belgium"]},{"type":"country","code":"PL","name":"Polonya","weight":988,"searchable":true,"cases":null,"capital":{"code":"WAW","type":"city"},"index_strings":["pl","polonya","poland"]},{"type":"country","code":"IE","name":"İrlanda","weight":967,"searchable":true,"cases":null,"capital":{"code":"DUB","type":"city"},"index_strings":["ie","irlanda","ireland"]},{"type":"city","code":"BER","name":"Berlin","en_name":"Berlin","coordinates":{"lat":52.5234051,"lon":13.4113999},"weight":938,"searchable":true,"timezone":"Europe/Berlin","state_code":null,"country_name":"Almanya","country_code":"DE","main_airport_name":null,"cases":null,"index_strings":["ber","berlin","de","almanya","germany"]},{"type":"city","code":"NAW","name":"Narathiwat","en_name":"Narathiwat","coordinates":{"lat":6.516667,"lon":101.75},"weight":921,"searchable":true,"timezone":"Asia/Bangkok","state_code":null,"country_name":"Tayland","country_code":"TH","main_airport_name":"Narathiwat","cases":null,"index_strings":["narathiwat","naw","th","tayland","thailand"]},{"type":"airport","code":"NAW","name":"Narathiwat","coordinates":{"lat":6.516667,"lon":101.75},"weight":921,"searchable":false,"timezone":"Asia/Bangkok","en_city_name":"Narathiwat","city_name":"Narathiwat","city_code":"NAW","state_code":null,"country_name":"Tayland","country_code":"TH","cases":null,"city_cases":null,"country_cases":null,"index_strings":["naw","narathiwat","narathiwat airport","th","tayland","thailand"]},{"type":"city","code":"PRG","name":"Prag","en_name":"Prague","coordinates":{"lat":50.0878114,"lon":14.4204598},"weight":920,"searchable":true,"timezone":"Europe/Prague","state_code":null,"country_name":"Çek Cumhuriyeti","country_code":"CZ","main_airport_name":"Prague Ruzyne","cases":null,"index_strings":["prague ruzyne","prg","prag","prague","cz","çek cumhuriyeti","czech republic"]},{"type":"airport","code":"PRG","name":"Prague Ruzyne","coordinates":{"lat":50.10619,"lon":14.266638},"weight":917,"searchable":false,"timezone":"Europe/Prague","en_city_name":"Prague","city_name":"Prag","city_code":"PRG","state_code":null,"country_name":"Çek Cumhuriyeti","country_code":"CZ","cases":null,"city_cases":null,"country_cases":null,"index_strings":["prg","prague ruzyne","vaclav havel airport prague","prag","prague","cz","çek cumhuriyeti","czech republic"]},{"type":"city","code":"MDL","name":"Mandalay","en_name":"Mandalay","coordinates":{"lat":21.940052,"lon":96.0875},"weight":914,"searchable":true,"timezone":"Asia/Rangoon","state_code":null,"country_name":"Myanmar (Burma)","country_code":"MM","main_airport_name":"Mandalay International","cases":null,"index_strings":["mandalay international","mdl","mandalay","mm","myanmar (burma)","myanmar"]},{"type":"airport","code":"MDL","name":"Mandalay International","coordinates":{"lat":21.940052,"lon":96.0875},"weight":914,"searchable":false,"timezone":"Asia/Rangoon","en_city_name":"Mandalay","city_name":"Mandalay","city_code":"MDL","state_code":null,"country_name":"Myanmar (Burma)","country_code":"MM","cases":null,"city_cases":null,"country_cases":null,"index_strings":["mdl","mandalay international","mandalay international airport","mandalay","mm","myanmar (burma)","myanmar"]},{"type":"airport","code":"VIE","name":"Viyana Uluslararası Havalimanı","coordinates":{"lat":48.11972,"lon":16.563583},"weight":910,"searchable":false,"timezone":"Europe/Vienna","en_city_name":"Vienna","city_name":"Viyana","city_code":"VIE","state_code":null,"country_name":"Avusturya","country_code":"AT","cases":null,"city_cases":null,"country_cases":null,"index_strings":["vie","viyana uluslararası havalimanı","vienna international airport","viyana","vienna","at","avusturya","austria"]},{"type":"country","code":"MV","name":"Maldivler","weight":900,"searchable":true,"cases":null,"capital":{"code":"MLE","type":"city"},"index_strings":["mv","maldivler","maldives"]},{"type":"country","code":"FI","name":"Finlandiya","weight":883,"searchable":true,"cases":null,"capital":{"code":"HEL","type":"city"},"index_strings":["fi","finlandiya","finland"]},{"type":"city","code":"TBS","name":"Tiflis","en_name":"Tbilisi","coordinates":{"lat":41.674065,"lon":44.958958},"weight":881,"searchable":true,"timezone":"Asia/Tbilisi","state_code":null,"country_name":"Gürcistan","country_code":"GE","main_airport_name":"Tiflis Uluslararası Havalimanı","cases":null,"index_strings":["tiflis uluslararası havalimanı","tbs","tiflis","tbilisi","ge","gürcistan","georgia"]},{"type":"airport","code":"TBS","name":"Tiflis Uluslararası Havalimanı","coordinates":{"lat":41.674065,"lon":44.958958},"weight":881,"searchable":false,"timezone":"Asia/Tbilisi","en_city_name":"Tbilisi","city_name":"Tiflis","city_code":"TBS","state_code":null,"country_name":"Gürcistan","country_code":"GE","cases":null,"city_cases":null,"country_cases":null,"index_strings":["tbs","tiflis uluslararası havalimanı","tbilisi international airport","tiflis","tbilisi","ge","gürcistan","georgia"]},{"type":"city","code":"YVR","name":"Vancouver","en_name":"Vancouver","coordinates":{"lat":49.261226,"lon":-123.1139268},"weight":870,"searchable":true,"timezone":"America/Vancouver","state_code":"BC","country_name":"Kanada","country_code":"CA","main_airport_name":null,"cases":null,"index_strings":["yvr","vancouver","ca","kanada","canada"]},{"type":"city","code":"NYC","name":"Newark","en_name":"New York","coordinates":{"lat":40.7143528,"lon":-74.0059731},"weight":868,"searchable":true,"timezone":"America/New_York","state_code":"NY","country_name":"ABD","country_code":"US","main_airport_name":null,"cases":null,"index_strings":["nyc","newark","new york","us","abd","united states"]},{"type":"airport","code":"YVR","name":"Vancouver International","coordinates":{"lat":49.1947,"lon":-123.17919},"weight":868,"searchable":true,"timezone":"America/Vancouver","en_city_name":"Vancouver","city_name":"Vancouver","city_code":"YVR","state_code":"BC","country_name":"Kanada","country_code":"CA","cases":null,"city_cases":null,"country_cases":null,"index_strings":["yvr","vancouver international","vancouver international airport","vancouver","ca","kanada","canada"]},{"type":"country","code":"PT","name":"Portekiz","weight":863,"searchable":true,"cases":null,"capital":{"code":"LIS","type":"city"},"index_strings":["pt","portekiz","portugal"]},{"type":"country","code":"IL","name":"İsrail","weight":858,"searchable":true,"cases":null,"capital":{"code":"JRS","type":"city"},"index_strings":["il","israil","israel"]},{"type":"city","code":"GZT","name":"Gaziantep","en_name":"Gaziantep","coordinates":{"lat":36.944935,"lon":37.473747},"weight":836,"searchable":true,"timezone":"Europe/Istanbul","state_code":null,"country_name":"Türkiye","country_code":"TR","main_airport_name":"Gaziantep Oguzeli","cases":null,"index_strings":["gaziantep oguzeli","gzt","gaziantep","tr","türkiye","turkey"]},{"type":"airport","code":"GZT","name":"Gaziantep Oguzeli","coordinates":{"lat":36.944935,"lon":37.473747},"weight":836,"searchable":false,"timezone":"Europe/Istanbul","en_city_name":"Gaziantep","city_name":"Gaziantep","city_code":"GZT","state_code":null,"country_name":"Türkiye","country_code":"TR","cases":null,"city_cases":null,"country_cases":null,"index_strings":["gzt","gaziantep oguzeli","gaziantep airport","gaziantep","tr","türkiye","turkey"]},{"type":"city","code":"BCN","name":"Barselona","en_name":"Barcelona","coordinates":{"lat":41.387917,"lon":2.1699187},"weight":819,"searchable":true,"timezone":"Europe/Madrid","state_code":null,"country_name":"İspanya","country_code":"ES","main_airport_name":"Barcelona Uluslararası Havalimanı","cases":null,"index_strings":["barcelona uluslararası havalimanı","bcn","barselona","barcelona","es","ispanya","spain"]},{"type":"airport","code":"BCN","name":"Barcelona Uluslararası Havalimanı","coordinates":{"lat":41.30303,"lon":2.07593},"weight":818,"searchable":false,"timezone":"Europe/Madrid","en_city_name":"Barcelona","city_name":"Barselona","city_code":"BCN","state_code":null,"country_name":"İspanya","country_code":"ES","cases":null,"city_cases":null,"country_cases":null,"index_strings":["bcn","barcelona uluslararası havalimanı","barcelona-el prat airport","barselona","barcelona","es","ispanya","spain"]},{"type":"city","code":"THS","name":"Sukhothai","en_name":"Sukhothai","coordinates":{"lat":17.223057,"lon":99.82222},"weight":799,"searchable":true,"timezone":"Asia/Bangkok","state_code":null,"country_name":"Tayland","country_code":"TH","main_airport_name":"Sukhothai","cases":null,"index_strings":["sukhothai","sawankolok","саванколок","ths","th","tayland","thailand"]},{"type":"airport","code":"THS","name":"Sukhothai","coordinates":{"lat":17.223057,"lon":99.82222},"weight":799,"searchable":false,"timezone":"Asia/Bangkok","en_city_name":"Sukhothai","city_name":"Sukhothai","city_code":"THS","state_code":null,"country_name":"Tayland","country_code":"TH","cases":null,"city_cases":null,"country_cases":null,"index_strings":["ths","sukhothai","sukhothai airport","th","tayland","thailand"]},{"type":"city","code":"LAS","name":"Las Vegas","en_name":"Las Vegas","coordinates":{"lat":36.114646,"lon":-115.172816},"weight":789,"searchable":true,"timezone":"America/Los_Angeles","state_code":"NV","country_name":"ABD","country_code":"US","main_airport_name":null,"cases":null,"index_strings":["las","las vegas","us","abd","united states"]},{"type":"airport","code":"LAS","name":"Las Vegas McCarran International","coordinates":{"lat":36.086945,"lon":-115.1486},"weight":788,"searchable":true,"timezone":"America/Los_Angeles","en_city_name":"Las Vegas","city_name":"Las Vegas","city_code":"LAS","state_code":"NV","country_name":"ABD","country_code":"US","cases":null,"city_cases":null,"country_cases":null,"index_strings":["las","las vegas mccarran international","mccarran international airport","las vegas","us","abd","united states"]},{"type":"city","code":"PNH","name":"Phnom Penh","en_name":"Phnom Penh","coordinates":{"lat":11.546111,"lon":104.84778},"weight":783,"searchable":true,"timezone":"Asia/Phnom_Penh","state_code":null,"country_name":"Kamboçya","country_code":"KH","main_airport_name":"Phnom Penh International","cases":null,"index_strings":["phnom penh international","pnh","phnom penh","kh","kamboçya","cambodia"]},{"type":"airport","code":"PNH","name":"Phnom Penh International","coordinates":{"lat":11.546111,"lon":104.84778},"weight":783,"searchable":false,"timezone":"Asia/Phnom_Penh","en_city_name":"Phnom Penh","city_name":"Phnom Penh","city_code":"PNH","state_code":null,"country_name":"Kamboçya","country_code":"KH","cases":null,"city_cases":null,"country_cases":null,"index_strings":["pnh","phnom penh international","phnom penh international airport","phnom penh","kh","kamboçya","cambodia"]},{"type":"city","code":"MLE","name":"Malé","en_name":"Male","coordinates":{"lat":4.201389,"lon":73.524445},"weight":781,"searchable":true,"timezone":"Indian/Maldives","state_code":null,"country_name":"Maldivler","country_code":"MV","main_airport_name":"Male Ibrahim Nasir International","cases":null,"index_strings":["male ibrahim nasir international","mle","malé","male","mv","maldivler","maldives"]},{"type":"airport","code":"MLE","name":"Male Ibrahim Nasir International","coordinates":{"lat":4.201389,"lon":73.524445},"weight":781,"searchable":false,"timezone":"Indian/Maldives","en_city_name":"Male","city_name":"Malé","city_code":"MLE","state_code":null,"country_name":"Maldivler","country_code":"MV","cases":null,"city_cases":null,"country_cases":null,"index_strings":["mle","male ibrahim nasir international","male international airport","malé","male","mv","maldivler","maldives"]},{"type":"city","code":"RIC","name":"Richmond","en_name":"Richmond","coordinates":{"lat":37.542979,"lon":-77.469092},"weight":775,"searchable":true,"timezone":"America/New_York","state_code":"VA","country_name":"ABD","country_code":"US","main_airport_name":"Richmond International (Byrd Field)","cases":null,"index_strings":["richmond international (byrd field)","ric","richmond","us","abd","united states"]},{"type":"airport","code":"RIC","name":"Richmond International (Byrd Field)","coordinates":{"lat":37.50611,"lon":-77.3225},"weight":775,"searchable":false,"timezone":"America/New_York","en_city_name":"Richmond","city_name":"Richmond","city_code":"RIC","state_code":"VA","country_name":"ABD","country_code":"US","cases":null,"city_cases":null,"country_cases":null,"index_strings":["ric","richmond international (byrd field)","richmond international airport (byrd field)","richmond","us","abd","united states"]},{"type":"country","code":"CU","name":"Küba","weight":756,"searchable":true,"cases":null,"capital":{"code":"HAV","type":"city"},"index_strings":["cu","küba","cuba"]},{"type":"city","code":"IEV","name":"Kiev","en_name":"Kyiv","coordinates":{"lat":50.45,"lon":30.5},"weight":754,"searchable":true,"timezone":"Europe/Kiev","state_code":null,"country_name":"Ukraine","country_code":"UA","main_airport_name":null,"cases":null,"index_strings":["iev","kiev","kyiv","ua","ukraine"]},{"type":"city","code":"TLV","name":"Tel Aviv","en_name":"Tel Aviv-Yafo","coordinates":{"lat":32.000454,"lon":34.870743},"weight":748,"searchable":true,"timezone":"Asia/Jerusalem","state_code":null,"country_name":"İsrail","country_code":"IL","main_airport_name":null,"cases":null,"index_strings":["tlv","tel aviv","tel aviv-yafo","il","israil","israel"]},{"type":"city","code":"NNG","name":"Nanning","en_name":"Nanning","coordinates":{"lat":22.61321,"lon":108.1675},"weight":743,"searchable":true,"timezone":"Asia/Shanghai","state_code":null,"country_name":"Çin","country_code":"CN","main_airport_name":"Nanning Wuxu International","cases":null,"index_strings":["nanning wuxu international","nng","nanning","cn","çin","china"]},{"type":"city","code":"CPH","name":"Kopenhag","en_name":"Copenhagen","coordinates":{"lat":55.693403,"lon":12.583046},"weight":743,"searchable":true,"timezone":"Europe/Copenhagen","state_code":null,"country_name":"Danimarka","country_code":"DK","main_airport_name":"Copenhagen Kastrup","cases":null,"index_strings":["copenhagen kastrup","cph","kopenhag","copenhagen","dk","danimarka","denmark"]},{"type":"airport","code":"NNG","name":"Nanning Wuxu International","coordinates":{"lat":22.61321,"lon":108.1675},"weight":743,"searchable":false,"timezone":"Asia/Shanghai","en_city_name":"Nanning","city_name":"Nanning","city_code":"NNG","state_code":null,"country_name":"Çin","country_code":"CN","cases":null,"city_cases":null,"country_cases":null,"index_strings":["nng","nanning wuxu international","nanning airport","nanning","cn","çin","china"]},{"type":"airport","code":"CPH","name":"Copenhagen Kastrup","coordinates":{"lat":55.62905,"lon":12.647601},"weight":741,"searchable":false,"timezone":"Europe/Copenhagen","en_city_name":"Copenhagen","city_name":"Kopenhag","city_code":"CPH","state_code":null,"country_name":"Danimarka","country_code":"DK","cases":null,"city_cases":null,"country_cases":null,"index_strings":["cph","copenhagen kastrup","copenhagen airport","kopenhag","copenhagen","dk","danimarka","denmark"]},{"type":"airport","code":"TLV","name":"Tel Aviv-Yafo Ben Gurion International","coordinates":{"lat":32.000454,"lon":34.870743},"weight":740,"searchable":true,"timezone":"Asia/Jerusalem","en_city_name":"Tel Aviv-Yafo","city_name":"Tel Aviv","city_code":"TLV","state_code":null,"country_name":"İsrail","country_code":"IL","cases":null,"city_cases":null,"country_cases":null,"index_strings":["tlv","tel aviv-yafo ben gurion international","ben gurion international airport","tel aviv","tel aviv-yafo","il","israil","israel"]},{"type":"city","code":"BOS","name":"Boston","en_name":"Boston","coordinates":{"lat":42.3584308,"lon":-71.0597732},"weight":727,"searchable":true,"timezone":"America/New_York","state_code":"MA","country_name":"ABD","country_code":"US","main_airport_name":null,"cases":null,"index_strings":["bos","boston","us","abd","united states"]},{"type":"airport","code":"BOS","name":"Boston Logan International","coordinates":{"lat":42.36646,"lon":-71.02018},"weight":726,"searchable":true,"timezone":"America/New_York","en_city_name":"Boston","city_name":"Boston","city_code":"BOS","state_code":"MA","country_name":"ABD","country_code":"US","cases":null,"city_cases":null,"country_cases":null,"index_strings":["bos","boston logan international","logan international airport","boston","us","abd","united states"]},{"type":"country","code":"SE","name":"İsveç","weight":725,"searchable":true,"cases":null,"capital":{"code":"STO","type":"city"},"index_strings":["se","isveç","sweden"]},{"type":"country","code":"MA","name":"Fas","weight":722,"searchable":true,"cases":null,"capital":{"code":"RBA","type":"city"},"index_strings":["ma","fas","morocco"]},{"type":"city","code":"LON","name":"Londra","en_name":"London","coordinates":{"lat":51.51,"lon":0.06},"weight":716,"searchable":true,"timezone":"Europe/London","state_code":null,"country_name":"Birleşik Krallık","country_code":"GB","main_airport_name":null,"cases":null,"index_strings":["lon","londra","london","gb","birleşik krallık","united kingdom"]},{"type":"city","code":"MAA","name":"Chennai","en_name":"Chennai","coordinates":{"lat":12.982267,"lon":80.16378},"weight":701,"searchable":true,"timezone":"Asia/Kolkata","state_code":null,"country_name":"Hindistan","country_code":"IN","main_airport_name":"Chennai International","cases":null,"index_strings":["chennai international","maa","chennai","in","hindistan","india"]},{"type":"airport","code":"MAA","name":"Chennai International","coordinates":{"lat":12.982267,"lon":80.16378},"weight":701,"searchable":false,"timezone":"Asia/Kolkata","en_city_name":"Chennai","city_name":"Chennai","city_code":"MAA","state_code":null,"country_name":"Hindistan","country_code":"IN","cases":null,"city_cases":null,"country_cases":null,"index_strings":["maa","chennai international","chennai airport","chennai","in","hindistan","india"]},{"type":"city","code":"BLR","name":"Bangalore","en_name":"Bengaluru","coordinates":{"lat":13.198889,"lon":77.70556},"weight":678,"searchable":true,"timezone":"Asia/Kolkata","state_code":null,"country_name":"Hindistan","country_code":"IN","main_airport_name":"Bengaluru Kempegowda International","cases":null,"index_strings":["bengaluru kempegowda international","blr","bangalore","bengaluru","in","hindistan","india"]},{"type":"airport","code":"BLR","name":"Bengaluru Kempegowda International","coordinates":{"lat":13.198889,"lon":77.70556},"weight":678,"searchable":false,"timezone":"Asia/Kolkata","en_city_name":"Bengaluru","city_name":"Bangalore","city_code":"BLR","state_code":null,"country_name":"Hindistan","country_code":"IN","cases":null,"city_cases":null,"country_cases":null,"index_strings":["blr","bengaluru kempegowda international","kempegowda international airport","bangalore","bengaluru","in","hindistan","india"]},{"type":"country","code":"KE","name":"Kenya","weight":664,"searchable":true,"cases":null,"capital":{"code":"NBO","type":"city"},"index_strings":["ke","kenya"]},{"type":"city","code":"CJU","name":"Jeju-si","en_name":"Jeju","coordinates":{"lat":33.4996213,"lon":126.5311884},"weight":651,"searchable":true,"timezone":"Asia/Seoul","state_code":null,"country_name":"Güney Kore","country_code":"KR","main_airport_name":"Jeju International","cases":null,"index_strings":["jeju international","cju","jeju-si","jeju","kr","güney kore","south korea"]},{"type":"airport","code":"CJU","name":"Jeju International","coordinates":{"lat":33.5067,"lon":126.49312},"weight":651,"searchable":false,"timezone":"Asia/Seoul","en_city_name":"Jeju","city_name":"Jeju-si","city_code":"CJU","state_code":null,"country_name":"Güney Kore","country_code":"KR","cases":null,"city_cases":null,"country_cases":null,"index_strings":["cju","jeju international","jeju international airport","jeju-si","jeju","kr","güney kore","south korea"]},{"type":"airport","code":"MAD","name":"Madrid Adolfo Suarez-Barajas","coordinates":{"lat":40.46515,"lon":-3.570209},"weight":651,"searchable":true,"timezone":"Europe/Madrid","en_city_name":"Madrid","city_name":"Madrit","city_code":"MAD","state_code":null,"country_name":"İspanya","country_code":"ES","cases":null,"city_cases":null,"country_cases":null,"index_strings":["mad","madrid adolfo suarez-barajas","adolfo suarez madrid-barajas airport","madrit","madrid","es","ispanya","spain"]},{"type":"city","code":"BRU","name":"Brüksel","en_name":"Brussels","coordinates":{"lat":50.8503396,"lon":4.3517103},"weight":650,"searchable":true,"timezone":"Europe/Brussels","state_code":null,"country_name":"Belçika","country_code":"BE","main_airport_name":null,"cases":null,"index_strings":["bru","brüksel","brussels","be","belçika","belgium"]},{"type":"city","code":"MAN","name":"Manchester","en_name":"Manchester","coordinates":{"lat":53.4807125,"lon":-2.2343765},"weight":643,"searchable":true,"timezone":"Europe/London","state_code":null,"country_name":"Birleşik Krallık","country_code":"GB","main_airport_name":"Manchester","cases":null,"index_strings":["manchester","man","gb","birleşik krallık","united kingdom"]},{"type":"airport","code":"MAN","name":"Manchester","coordinates":{"lat":53.362907,"lon":-2.273354},"weight":643,"searchable":false,"timezone":"Europe/London","en_city_name":"Manchester","city_name":"Manchester","city_code":"MAN","state_code":null,"country_name":"Birleşik Krallık","country_code":"GB","cases":null,"city_cases":null,"country_cases":null,"index_strings":["man","manchester","manchester airport","gb","birleşik krallık","united kingdom"]},{"type":"city","code":"VCE","name":"Venedik","en_name":"Venice","coordinates":{"lat":45.4343363,"lon":12.3387844},"weight":640,"searchable":true,"timezone":"Europe/Rome","state_code":null,"country_name":"İtalya","country_code":"IT","main_airport_name":null,"cases":null,"index_strings":["vce","venedik","venice","it","italya","italy"]},{"type":"city","code":"CMB","name":"Kolombo","en_name":"Colombo","coordinates":{"lat":6.927468,"lon":79.848358},"weight":634,"searchable":true,"timezone":"Asia/Colombo","state_code":null,"country_name":"Sri Lanka","country_code":"LK","main_airport_name":"Colombo Bandaranaike International","cases":null,"index_strings":["colombo bandaranaike international","cmb","kolombo","colombo","lk","sri lanka"]},{"type":"airport","code":"BRU","name":"Brussels","coordinates":{"lat":50.89717,"lon":4.483602},"weight":634,"searchable":true,"timezone":"Europe/Brussels","en_city_name":"Brussels","city_name":"Brüksel","city_code":"BRU","state_code":null,"country_name":"Belçika","country_code":"BE","cases":null,"city_cases":null,"country_cases":null,"index_strings":["bru","brussels","brussels airport","brüksel","be","belçika","belgium"]},{"type":"city","code":"CAI","name":"Kahire","en_name":"Cairo","coordinates":{"lat":30.120106,"lon":31.40647},"weight":633,"searchable":true,"timezone":"Africa/Cairo","state_code":null,"country_name":"Mısır","country_code":"EG","main_airport_name":"Cairo International","cases":null,"index_strings":["cairo international","cai","kahire","cairo","eg","mısır","egypt"]},{"type":"airport","code":"CMB","name":"Colombo Bandaranaike International","coordinates":{"lat":7.174112,"lon":79.8865},"weight":633,"searchable":false,"timezone":"Asia/Colombo","en_city_name":"Colombo","city_name":"Kolombo","city_code":"CMB","state_code":null,"country_name":"Sri Lanka","country_code":"LK","cases":null,"city_cases":null,"country_cases":null,"index_strings":["cmb","colombo bandaranaike international","bandaranaike international airport","kolombo","colombo","lk","sri lanka"]},{"type":"airport","code":"CAI","name":"Cairo International","coordinates":{"lat":30.120106,"lon":31.40647},"weight":633,"searchable":false,"timezone":"Africa/Cairo","en_city_name":"Cairo","city_name":"Kahire","city_code":"CAI","state_code":null,"country_name":"Mısır","country_code":"EG","cases":null,"city_cases":null,"country_cases":null,"index_strings":["cai","cairo international","cairo international airport","kahire","cairo","eg","mısır","egypt"]},{"type":"city","code":"KYA","name":"Konya","en_name":"Konya","coordinates":{"lat":37.979168,"lon":32.56222},"weight":617,"searchable":true,"timezone":"Europe/Istanbul","state_code":null,"country_name":"Türkiye","country_code":"TR","main_airport_name":"Konya","cases":null,"index_strings":["konya","kya","tr","türkiye","turkey"]},{"type":"airport","code":"KYA","name":"Konya","coordinates":{"lat":37.979168,"lon":32.56222},"weight":617,"searchable":false,"timezone":"Europe/Istanbul","en_city_name":"Konya","city_name":"Konya","city_code":"KYA","state_code":null,"country_name":"Türkiye","country_code":"TR","cases":null,"city_cases":null,"country_cases":null,"index_strings":["kya","konya","konya airport","tr","türkiye","turkey"]},{"type":"city","code":"OSL","name":"Oslo","en_name":"Oslo","coordinates":{"lat":59.9138688,"lon":10.7522454},"weight":609,"searchable":true,"timezone":"Europe/Oslo","state_code":null,"country_name":"Norveç","country_code":"NO","main_airport_name":null,"cases":null,"index_strings":["osl","oslo","no","norveç","norway"]},{"type":"airport","code":"MIA","name":"Miami International","coordinates":{"lat":25.796,"lon":-80.27824},"weight":609,"searchable":true,"timezone":"America/New_York","en_city_name":"Miami","city_name":"Miami","city_code":"MIA","state_code":"FL","country_name":"ABD","country_code":"US","cases":null,"city_cases":null,"country_cases":null,"index_strings":["mia","miami international","miami international airport","miami","us","abd","united states"]},{"type":"country","code":"BY","name":"Beyaz Rusya","weight":608,"searchable":true,"cases":null,"capital":{"code":"MSQ","type":"city"},"index_strings":["beyaz","rusya","by","beyaz rusya","belarus"]},{"type":"city","code":"NAV","name":"Nevşehir","en_name":"Nevsehir","coordinates":{"lat":38.63333,"lon":34.716667},"weight":597,"searchable":true,"timezone":"Europe/Istanbul","state_code":null,"country_name":"Türkiye","country_code":"TR","main_airport_name":"Nevsehir Kapodokya","cases":null,"index_strings":["nevsehir kapodokya","nav","nevşehir","nevsehir","tr","türkiye","turkey"]},{"type":"city","code":"DNZ","name":"Denizli","en_name":"Denizli","coordinates":{"lat":37.787224,"lon":29.703333},"weight":597,"searchable":true,"timezone":"Europe/Istanbul","state_code":null,"country_name":"Türkiye","country_code":"TR","main_airport_name":"Denizli Cardak","cases":null,"index_strings":["denizli cardak","dnz","denizli","tr","türkiye","turkey"]},{"type":"airport","code":"NAV","name":"Nevsehir Kapodokya","coordinates":{"lat":38.63333,"lon":34.716667},"weight":597,"searchable":false,"timezone":"Europe/Istanbul","en_city_name":"Nevsehir","city_name":"Nevşehir","city_code":"NAV","state_code":null,"country_name":"Türkiye","country_code":"TR","cases":null,"city_cases":null,"country_cases":null,"index_strings":["nav","nevsehir kapodokya","nevsehir","nevşehir","tr","türkiye","turkey"]},{"type":"airport","code":"DNZ","name":"Denizli Cardak","coordinates":{"lat":37.787224,"lon":29.703333},"weight":597,"searchable":false,"timezone":"Europe/Istanbul","en_city_name":"Denizli","city_name":"Denizli","city_code":"DNZ","state_code":null,"country_name":"Türkiye","country_code":"TR","cases":null,"city_cases":null,"country_cases":null,"index_strings":["dnz","denizli cardak","cardak airport","denizli","tr","türkiye","turkey"]},