[{"name":"College Station","country_name":"United States","country_code":"US","code":"CLL","index_strings":["easterwood airport","cll","college station","united states","us"],"timezone":"America\/Chicago","weight":0,"coordinates":{"lat":30.593842,"lon":-96.36682},"type":"city","searchable":true},{"name":"Holguin","country_name":"Cuba","country_code":"CU","code":"HOG","index_strings":["frank pais airport","hog","holguin","cuba","cu"],"timezone":"America\/Havana","weight":0,"coordinates":{"lat":20.785278,"lon":-76.315},"type":"city","searchable":true},{"name":"Nossi-be","country_name":"Madagascar","country_code":"MG","code":"NOS","index_strings":["fascene airport","nos","nossi-be","madagascar","mg"],"timezone":"Indian\/Antananarivo","weight":0,"coordinates":{"lat":-13.311111,"lon":48.31389},"type":"city","searchable":true},{"name":"Qeqertaq","country_name":"Greenland","country_code":"GL","code":"PQT","index_strings":["heliport","pqt","qeqertaq","greenland","gl"],"timezone":"America\/Godthab","weight":0,"type":"city","searchable":true},{"name":"Resolute","country_name":"Canada","country_code":"CA","code":"YRB","index_strings":["resolute bay airport","yrb","resolute","canada","ca"],"timezone":"America\/Resolute","weight":0,"coordinates":{"lat":74.71666999999999,"lon":-94.96666999999999},"type":"city","searchable":true},{"name":"Newport","country_name":"United Kingdom","country_code":"GB","code":"XNE","index_strings":["xne","newport","united kingdom","gb"],"timezone":"Europe\/London","weight":0,"coordinates":{"lat":0,"lon":0},"type":"city","searchable":false},{"name":"Watertown","country_name":"United States","country_code":"US","code":"ART","index_strings":["watertown airport","art","watertown","united states","us"],"timezone":"America\/New_York","weight":0,"coordinates":{"lat":43.990833,"lon":-76.021385},"type":"city","searchable":true},{"name":"Wichita Falls","country_name":"United States","country_code":"US","code":"SPS","index_strings":["sheppard afb","sps","wichita falls","united states","us"],"timezone":"America\/Chicago","weight":0,"coordinates":{"lat":33.988335,"lon":-98.49194},"type":"city","searchable":true},{"name":"Yantai","country_name":"China","country_code":"CN","code":"YNT","index_strings":["yantai laishan international airport","ynt","yantai","china","cn"],"timezone":"Asia\/Shanghai","weight":0,"coordinates":{"lat":37.407326,"lon":121.3711},"type":"city","searchable":true},{"name":"Flin Flon","country_name":"Canada","country_code":"CA","code":"YFO","index_strings":["flin flon airport","yfo","flin flon","canada","ca"],"timezone":"America\/Winnipeg","weight":0,"coordinates":{"lat":54.683334,"lon":-101.683334},"type":"city","searchable":true},{"name":"Kota Bharu","country_name":"Malaysia","country_code":"MY","code":"KBR","index_strings":["sultan ismail petra airport","kbr","kota bharu","malaysia","my"],"timezone":"Asia\/Kuala_Lumpur","weight":0,"coordinates":{"lat":6.17057,"lon":102.29092},"type":"city","searchable":true},{"name":"Jackson","country_name":"United States","country_code":"US","code":"JAN","index_strings":["jackson-evers international airport","jan","jackson","united states","us"],"timezone":"America\/Chicago","weight":0,"coordinates":{"lat":32.2987573,"lon":-90.1848103},"type":"city","searchable":true},{"name":"Aracaju","country_name":"Brazil","country_code":"BR","code":"AJU","index_strings":["aracaju airport","aju","aracaju","brazil","br"],"timezone":"America\/Maceio","weight":0,"coordinates":{"lat":-10.987206,"lon":-37.072792},"type":"city","searchable":true},{"name":"Salerno","country_name":"Italy","country_code":"IT","code":"QSR","index_strings":["qsr","salerno","italy","it"],"timezone":"Europe\/Rome","weight":0,"coordinates":{"lat":40.620148,"lon":14.92084},"type":"city","searchable":false},{"name":"Bajawa","country_name":"Indonesia","country_code":"ID","code":"BJW","index_strings":["bajawa soa airport","bjw","bajawa","indonesia","id"],"timezone":"Asia\/Makassar","weight":0,"coordinates":{"lat":-8.766667,"lon":120.98333},"type":"city","searchable":true},{"name":"Horn Island","country_name":"Australia","country_code":"AU","code":"HID","index_strings":["horn island airport","hid","horn island","australia","au"],"timezone":"Australia\/Brisbane","weight":0,"coordinates":{"lat":-10.583333,"lon":142.28334},"type":"city","searchable":true},{"name":"Hanzhong","country_name":"China","country_code":"CN","code":"HZG","index_strings":["hanzhong airport","hzg","hanzhong","china","cn"],"timezone":"Asia\/Shanghai","weight":0,"coordinates":{"lat":32.983334,"lon":107.183334},"type":"city","searchable":true},{"name":"Kaukura Atoll","country_name":"French Polynesia","country_code":"PF","code":"KKR","index_strings":["kaukura atoll airport","kkr","kaukura atoll","french polynesia","pf"],"timezone":"Pacific\/Tahiti","weight":0,"coordinates":{"lat":-15.783333,"lon":-146.66667},"type":"city","searchable":true},{"name":"Kipnuk","country_name":"United States","country_code":"US","code":"KPN","index_strings":["kipnuk spb","kpn","kipnuk","united states","us"],"timezone":"America\/Nome","weight":0,"coordinates":{"lat":59.933334,"lon":-164.05},"type":"city","searchable":true},{"name":"Lourdes","country_name":"France","country_code":"FR","code":"LDE","index_strings":["tarbes","тарб","tarbes ossun lourdes airport","lde","lourdes","france","fr"],"timezone":"Europe\/Paris","weight":0,"coordinates":{"lat":43.18651,"lon":0.003368},"type":"city","searchable":true},{"name":"Arcata","country_name":"United States","country_code":"US","code":"ACV","index_strings":["arcata-eureka airport","acv","arcata","united states","us"],"timezone":"America\/Los_Angeles","weight":0,"coordinates":{"lat":40.970913,"lon":-124.106926},"type":"city","searchable":true},{"name":"Calbayog","country_name":"Philippines","country_code":"PH","code":"CYP","index_strings":["calbayog airport","cyp","calbayog","philippines","ph"],"timezone":"Asia\/Manila","weight":0,"coordinates":{"lat":12.075833,"lon":124.54305},"type":"city","searchable":true},{"name":"Bhopal","country_name":"India","country_code":"IN","code":"BHO","index_strings":["raja bhoj airport","bho","bhopal","india","in"],"timezone":"Asia\/Kolkata","weight":0,"coordinates":{"lat":23.284761,"lon":77.34177},"type":"city","searchable":true},{"name":"Birmingham","country_name":"United Kingdom","country_code":"GB","code":"BHX","index_strings":["bhx","birmingham","united kingdom","gb"],"timezone":"Europe\/London","weight":0,"coordinates":{"lat":52.4829614,"lon":-1.893592},"type":"city","searchable":true},{"name":"Mumbai","country_name":"India","country_code":"IN","code":"BOM","index_strings":["бомбей","bombay","chhatrapati shivaji international airport","bom","mumbai","india","in"],"timezone":"Asia\/Kolkata","weight":0,"coordinates":{"lat":19.095509,"lon":72.87497},"type":"city","searchable":true},{"name":"Pretoria","country_name":"South Africa","country_code":"ZA","code":"PRY","index_strings":["wonderboom airport","pry","pretoria","south africa","za"],"timezone":"Africa\/Johannesburg","weight":0,"coordinates":{"lat":-25.73134,"lon":28.21837},"type":"city","searchable":true},{"name":"Toledo","country_name":"Spain","country_code":"ES","code":"XTJ","index_strings":["xtj","toledo","spain","es"],"timezone":"Europe\/Madrid","weight":0,"coordinates":{"lat":0,"lon":0},"type":"city","searchable":false},{"name":"Ostrava","country_name":"Czech Republic","country_code":"CZ","code":"OSR","index_strings":["mosnov airport","osr","ostrava","czech republic","cz"],"timezone":"Europe\/Prague","weight":0,"coordinates":{"lat":49.8412715,"lon":18.2902483},"type":"city","searchable":true},{"name":"Santa Fe","country_name":"United States","country_code":"US","code":"ZSH","index_strings":["santa fe","zsh","united states","us"],"timezone":"America\/Denver","weight":0,"coordinates":{"lat":30.236935,"lon":120.43236},"type":"city","searchable":true},{"name":"Pituffik","country_name":"Greenland","country_code":"GL","code":"THU","index_strings":["pituffik airport","thu","pituffik","greenland","gl"],"timezone":"America\/Thule","weight":0,"coordinates":{"lat":76.53333000000001,"lon":-68.7},"type":"city","searchable":true},{"name":"Ile Des Pins","country_name":"New Caledonia","country_code":"NC","code":"ILP","index_strings":["ile des pins airport","ilp","ile des pins","new caledonia","nc"],"timezone":"Pacific\/Noumea","weight":0,"coordinates":{"lat":-22.589722,"lon":167.4475},"type":"city","searchable":true},{"name":"Nantong","country_name":"China","country_code":"CN","code":"NTG","index_strings":["nantong xingdong airport","ntg","nantong","china","cn"],"timezone":"Asia\/Shanghai","weight":0,"coordinates":{"lat":32.07292,"lon":120.9756},"type":"city","searchable":true},{"name":"Chumphon","country_name":"Thailand","country_code":"TH","code":"CJM","index_strings":["chumphon airport","cjm","chumphon","thailand","th"],"timezone":"Asia\/Bangkok","weight":0,"coordinates":{"lat":10.709722,"lon":99.36389},"type":"city","searchable":true},{"name":"Virac","country_name":"Philippines","country_code":"PH","code":"VRC","index_strings":["virac airport","vrc","virac","philippines","ph"],"timezone":"Asia\/Manila","weight":0,"coordinates":{"lat":13.583333,"lon":124.2},"type":"city","searchable":true},{"name":"Springfield","country_name":"United States","country_code":"US","code":"SPI","index_strings":["capital airport","spi","springfield","united states","us"],"timezone":"America\/Chicago","weight":0,"coordinates":{"lat":39.844166,"lon":-89.67889},"type":"city","searchable":true},{"name":"Butuan","country_name":"Philippines","country_code":"PH","code":"BXU","index_strings":["butuan airport","bxu","butuan","philippines","ph"],"timezone":"Asia\/Manila","weight":0,"coordinates":{"lat":8.947998999999999,"lon":125.48123},"type":"city","searchable":true},{"name":"Pemba","country_name":"Mozambique","country_code":"MZ","code":"POL","index_strings":["pemba airport","pol","pemba","mozambique","mz"],"timezone":"Africa\/Maputo","weight":0,"coordinates":{"lat":-12.988333,"lon":40.5225},"type":"city","searchable":true},{"name":"Orsta-Volda","country_name":"Norway","country_code":"NO","code":"HOV","index_strings":["hovden airport","hov","orsta-volda","norway","no"],"timezone":"Europe\/Oslo","weight":0,"coordinates":{"lat":62.179787,"lon":6.078802},"type":"city","searchable":true},{"name":"Juiz de Fora","country_name":"Brazil","country_code":"BR","code":"JDF","index_strings":["zona da mata regional airport","jdf","juiz de fora","brazil","br"],"timezone":"America\/Sao_Paulo","weight":0,"coordinates":{"lat":-21.7650083,"lon":-43.3488245},"type":"city","searchable":true},{"name":"Semipalatinsk","country_name":"Kazakhstan","country_code":"KZ","code":"PLX","index_strings":["semipalatinsk airport","plx","semipalatinsk","kazakhstan","kz"],"timezone":"Asia\/Almaty","weight":0,"coordinates":{"lat":50.333332,"lon":80.25},"type":"city","searchable":true},{"name":"Montego Bay","country_name":"Jamaica","country_code":"JM","code":"MBJ","index_strings":["sangster international airport","mbj","montego bay","jamaica","jm"],"timezone":"America\/Jamaica","weight":0,"coordinates":{"lat":18.498465,"lon":-77.91663},"type":"city","searchable":true},{"name":"Voronezh","country_name":"Russia","country_code":"RU","code":"VOZ","index_strings":["voronezh airport","voz","voronezh","russia","ru"],"timezone":"Europe\/Moscow","weight":0,"coordinates":{"lat":51.812355,"lon":39.226997},"type":"city","searchable":true},{"name":"Ballina","country_name":"Australia","country_code":"AU","code":"BNK","index_strings":["ballina byron airport","bnk","ballina","australia","au"],"timezone":"Australia\/Sydney","weight":0,"coordinates":{"lat":-28.837606,"lon":153.5564},"type":"city","searchable":true},{"name":"Bastia","country_name":"France","country_code":"FR","code":"BIA","index_strings":["bastia poretta airport","bia","bastia","france","fr"],"timezone":"Europe\/Paris","weight":0,"coordinates":{"lat":42.547615,"lon":9.480124},"type":"city","searchable":true},{"name":"Kramfors","country_name":"Sweden","country_code":"SE","code":"KRF","index_strings":["kramfors airport","krf","kramfors","sweden","se"],"timezone":"Europe\/Stockholm","weight":0,"coordinates":{"lat":63.049442,"lon":17.772778},"type":"city","searchable":true},{"name":"Las Vegas","country_name":"United States","country_code":"US","code":"LAS","index_strings":["las","las vegas","united states","us"],"timezone":"America\/Los_Angeles","weight":0,"coordinates":{"lat":36.114646,"lon":-115.172816},"type":"city","searchable":true},{"name":"Manchester","country_name":"United Kingdom","country_code":"GB","code":"MAN","index_strings":["man","manchester","united kingdom","gb"],"timezone":"Europe\/London","weight":0,"coordinates":{"lat":53.4807125,"lon":-2.2343765},"type":"city","searchable":true},{"name":"Tarakan","country_name":"Indonesia","country_code":"ID","code":"TRK","index_strings":["juwata international airport","trk","tarakan","indonesia","id"],"timezone":"Asia\/Makassar","weight":0,"coordinates":{"lat":3.327222,"lon":117.56528},"type":"city","searchable":true},{"name":"Zhengzhou","country_name":"China","country_code":"CN","code":"CGO","index_strings":["zhengzhou xinzheng airport","cgo","zhengzhou","china","cn"],"timezone":"Asia\/Shanghai","weight":0,"coordinates":{"lat":34.52752,"lon":113.84024},"type":"city","searchable":true},{"name":"Sorong","country_name":"Indonesia","country_code":"ID","code":"SOQ","index_strings":["sorong airport","soq","sorong","indonesia","id"],"timezone":"Asia\/Jayapura","weight":0,"coordinates":{"lat":-0.8902139999999999,"lon":131.29059},"type":"city","searchable":true},{"name":"Sunshine Coast","country_name":"Australia","country_code":"AU","code":"MCY","index_strings":["sunshine coast airport","mcy","sunshine coast","australia","au"],"timezone":"Australia\/Brisbane","weight":0,"coordinates":{"lat":-26.60538,"lon":153.08821},"type":"city","searchable":true},{"name":"Luanda","country_name":"Angola","country_code":"AO","code":"LAD","index_strings":["quatro de fevereiro airport","lad","luanda","angola","ao"],"timezone":"Africa\/Luanda","weight":0,"coordinates":{"lat":-8.847951,"lon":13.234862},"type":"city","searchable":true},{"name":"Wonju","country_name":"South Korea","country_code":"KR","code":"WJU","index_strings":["wonju airport","wju","wonju","south korea","kr"],"timezone":"Asia\/Seoul","weight":0,"coordinates":{"lat":37.434166,"lon":127.95167},"type":"city","searchable":true},{"name":"Kumasi","country_name":"Ghana","country_code":"GH","code":"KMS","index_strings":["kumasi airport","kms","kumasi","ghana","gh"],"timezone":"Africa\/Accra","weight":0,"coordinates":{"lat":6.7125,"lon":-1.591111},"type":"city","searchable":true},{"name":"Luang Prabang","country_name":"Laos","country_code":"LA","code":"LPQ","index_strings":["luang prabang international airport","lpq","luang prabang","laos","la"],"timezone":"Asia\/Vientiane","weight":0,"coordinates":{"lat":19.897055,"lon":102.16371},"type":"city","searchable":true},{"name":"Orenburg","country_name":"Russia","country_code":"RU","code":"REN","index_strings":["orenburg airport","ren","orenburg","russia","ru"],"timezone":"Asia\/Yekaterinburg","weight":0,"coordinates":{"lat":51.79105,"lon":55.4567},"type":"city","searchable":true},{"name":"Cuiaba","country_name":"Brazil","country_code":"BR","code":"CGB","index_strings":["marechal rondon international airport","cgb","cuiaba","brazil","br"],"timezone":"America\/Cuiaba","weight":0,"coordinates":{"lat":-15.651725,"lon":-56.120266},"type":"city","searchable":true},{"name":"Arusha","country_name":"Tanzania","country_code":"TZ","code":"ARK","index_strings":["arusha airport","ark","arusha","tanzania","tz"],"timezone":"Africa\/Dar_es_Salaam","weight":0,"coordinates":{"lat":-3.366667,"lon":36.683334},"type":"city","searchable":true},{"name":"Wenshan","country_name":"China","country_code":"CN","code":"WNH","index_strings":["wenshan puzhehei airport","wnh","wenshan","china","cn"],"timezone":"Asia\/Shanghai","weight":0,"coordinates":{"lat":23.374907,"lon":104.24256},"type":"city","searchable":true},{"name":"Dortmund","country_name":"Germany","country_code":"DE","code":"DTM","index_strings":["dortmund airport","dtm","dortmund","germany","de"],"timezone":"Europe\/Berlin","weight":0,"coordinates":{"lat":51.514828,"lon":7.613139},"type":"city","searchable":true},{"name":"Biratnagar","country_name":"Nepal","country_code":"NP","code":"BIR","index_strings":["biratnagar airport","bir","biratnagar","nepal","np"],"timezone":"Asia\/Kathmandu","weight":0,"coordinates":{"lat":26.434723,"lon":87.28333000000001},"type":"city","searchable":true},{"name":"Blenheim","country_name":"New Zealand","country_code":"NZ","code":"BHE","index_strings":["woodbourne airport","bhe","blenheim","new zealand","nz"],"timezone":"Pacific\/Auckland","weight":0,"coordinates":{"lat":-41.513588,"lon":173.86765},"type":"city","searchable":true},{"name":"Aviano","country_name":"Italy","country_code":"IT","code":"AVB","index_strings":["aviano","avb","italy","it"],"timezone":"Europe\/Rome","weight":0,"coordinates":{"lat":46.033333,"lon":12.6},"type":"city","searchable":true},{"name":"Al Hoceima","country_name":"Morocco","country_code":"MA","code":"AHU","index_strings":["charif al idrissi airport","ahu","al hoceima","morocco","ma"],"timezone":"Africa\/Casablanca","weight":0,"coordinates":{"lat":35.17972,"lon":-3.836944},"type":"city","searchable":true},{"name":"Cannes","country_name":"France","country_code":"FR","code":"CEQ","index_strings":["croisette heliport","ceq","cannes","france","fr"],"timezone":"Europe\/Paris","weight":0,"coordinates":{"lat":43.552847,"lon":7.017369},"type":"city","searchable":true},{"name":"Moab","country_name":"United States","country_code":"US","code":"CNY","index_strings":["canyonlands field","cny","moab","united states","us"],"timezone":"America\/Denver","weight":0,"coordinates":{"lat":38.759445,"lon":-109.74611},"type":"city","searchable":true},{"name":"Dili","country_name":"East Timor","country_code":"TL","code":"DIL","index_strings":["comoro airport","dil","dili","east timor","tl"],"timezone":"Asia\/Dili","weight":0,"coordinates":{"lat":-8.549616,"lon":125.525},"type":"city","searchable":true},{"name":"Formosa","country_name":"Argentina","country_code":"AR","code":"FMA","index_strings":["el pucu airport","fma","formosa","argentina","ar"],"timezone":"America\/Argentina\/Cordoba","weight":0,"coordinates":{"lat":-26.212778,"lon":-58.235},"type":"city","searchable":true},{"name":"Isparta","country_name":"Turkey","country_code":"TR","code":"ISE","index_strings":["isparta suleyman demirel airport","ise","isparta","turkey","tr"],"timezone":"Europe\/Istanbul","weight":0,"coordinates":{"lat":37.86611,"lon":30.382221},"type":"city","searchable":true},{"name":"Izmit","country_name":"Turkey","country_code":"TR","code":"KCO","index_strings":["cengiz topel airport","kco","izmit","turkey","tr"],"timezone":"Europe\/Istanbul","weight":0,"coordinates":{"lat":40.75,"lon":29.833332},"type":"city","searchable":true},{"name":"Kimberley","country_name":"South Africa","country_code":"ZA","code":"KIM","index_strings":["kimberley airport","kim","kimberley","south africa","za"],"timezone":"Africa\/Johannesburg","weight":0,"coordinates":{"lat":-28.805834,"lon":24.76639},"type":"city","searchable":true},{"name":"Edmonton","country_name":"Canada","country_code":"CA","code":"YEA","index_strings":["edmonton international airport","yea","edmonton","canada","ca"],"timezone":"America\/Edmonton","weight":0,"coordinates":{"lat":53.548,"lon":-113.49},"type":"city","searchable":true},{"name":"Clovis","country_name":"United States","country_code":"US","code":"CVN","index_strings":["clovis municipal airport","cvn","clovis","united states","us"],"timezone":"America\/Denver","weight":0,"coordinates":{"lat":34.4047987,"lon":-103.2052272},"type":"city","searchable":true},{"name":"Song Pan","country_name":"China","country_code":"CN","code":"JZH","index_strings":["jiuzhai huanglong airport","jzh","song pan","china","cn"],"timezone":"Asia\/Shanghai","weight":0,"coordinates":{"lat":32.856667,"lon":103.68306},"type":"city","searchable":true},{"name":"Horta (Azores)","country_name":"Portugal","country_code":"PT","code":"HOR","index_strings":["horta airport","hor","horta (azores)","portugal","pt"],"timezone":"Atlantic\/Azores","weight":0,"coordinates":{"lat":38.52,"lon":-28.717222},"type":"city","searchable":true},{"name":"Coventry","country_name":"United Kingdom","country_code":"GB","code":"CVT","index_strings":["coventry airport","cvt","coventry","united kingdom","gb"],"timezone":"Europe\/London","weight":0,"coordinates":{"lat":52.369167,"lon":-1.478611},"type":"city","searchable":true},{"name":"Niigata","country_name":"Japan","country_code":"JP","code":"KIJ","index_strings":["niigata airport","kij","niigata","japan","jp"],"timezone":"Asia\/Tokyo","weight":0,"coordinates":{"lat":37.951992,"lon":139.11325},"type":"city","searchable":true},{"name":"Kilwa Masoko","country_name":"Tanzania","country_code":"TZ","code":"KIY","index_strings":["kilwa masoko airport","kiy","kilwa masoko","tanzania","tz"],"timezone":"Africa\/Dar_es_Salaam","weight":0,"coordinates":{"lat":-8.911944,"lon":39.511665},"type":"city","searchable":true},{"name":"Londolozi","country_name":"South Africa","country_code":"ZA","code":"LDZ","index_strings":["londolozi airport","ldz","londolozi","south africa","za"],"timezone":"Africa\/Johannesburg","weight":0,"coordinates":{"lat":-24.8,"lon":31.5},"type":"city","searchable":true},{"name":"Linz","country_name":"Austria","country_code":"AT","code":"LNZ","index_strings":["linz airport","lnz","linz","austria","at"],"timezone":"Europe\/Vienna","weight":0,"coordinates":{"lat":48.23987,"lon":14.193345},"type":"city","searchable":true},{"name":"Luderitz","country_name":"Namibia","country_code":"NA","code":"LUD","index_strings":["luderitz airport","lud","luderitz","namibia","na"],"timezone":"Africa\/Windhoek","weight":0,"coordinates":{"lat":-26.68639,"lon":15.243889},"type":"city","searchable":true},{"name":"Mendi","country_name":"Papua New Guinea","country_code":"PG","code":"MDU","index_strings":["mendi airport","mdu","mendi","papua new guinea","pg"],"timezone":"Pacific\/Port_Moresby","weight":0,"coordinates":{"lat":-6.158611,"lon":143.65},"type":"city","searchable":true},{"name":"Rotorua","country_name":"New Zealand","country_code":"NZ","code":"ROT","index_strings":["rotorua international airport","rot","rotorua","new zealand","nz"],"timezone":"Pacific\/Auckland","weight":0,"coordinates":{"lat":-38.10982,"lon":176.31746},"type":"city","searchable":true},{"name":"Sandnessjoen","country_name":"Norway","country_code":"NO","code":"SSJ","index_strings":["stokka airport","ssj","sandnessjoen","norway","no"],"timezone":"Europe\/Oslo","weight":0,"coordinates":{"lat":65.959946,"lon":12.476518},"type":"city","searchable":true},{"name":"Shiraz","country_name":"Iran","country_code":"IR","code":"SYZ","index_strings":["shiraz international airport","syz","shiraz","iran","ir"],"timezone":"Asia\/Tehran","weight":0,"coordinates":{"lat":29.54613,"lon":52.58997},"type":"city","searchable":true},{"name":"Uruapan","country_name":"Mexico","country_code":"MX","code":"UPN","index_strings":["licenciado y general ignacio lopez rayon airport","upn","uruapan","mexico","mx"],"timezone":"America\/Mexico_City","weight":0,"coordinates":{"lat":19.411112,"lon":-102.04722},"type":"city","searchable":true},{"name":"Tanjung Pinang","country_name":"Indonesia","country_code":"ID","code":"TNJ","index_strings":["kidjang airport","tnj","tanjung pinang","indonesia","id"],"timezone":"Asia\/Jakarta","weight":0,"coordinates":{"lat":0.919167,"lon":104.53611},"type":"city","searchable":true},{"name":"Guwahati","country_name":"India","country_code":"IN","code":"GAU","index_strings":["lokpriya gopinath bordoloi international airport","gau","guwahati","india","in"],"timezone":"Asia\/Kolkata","weight":0,"coordinates":{"lat":26.105982,"lon":91.58881},"type":"city","searchable":true},{"name":"Gove","country_name":"Australia","country_code":"AU","code":"GOV","index_strings":["nhulunbuy airport","gov","gove","australia","au"],"timezone":"Australia\/Darwin","weight":0,"coordinates":{"lat":-12.269595,"lon":136.82265},"type":"city","searchable":true},{"name":"Santiago De Compostela","country_name":"Spain","country_code":"ES","code":"SCQ","index_strings":["santiago de compostela airport","scq","santiago de compostela","spain","es"],"timezone":"Europe\/Madrid","weight":0,"coordinates":{"lat":42.897316,"lon":-8.420327},"type":"city","searchable":true},{"name":"Sault Ste. Marie","country_name":"United States","country_code":"US","code":"SSM","index_strings":["chippewa county airport","ssm","sault ste. marie","united states","us"],"timezone":"America\/Detroit","weight":0,"coordinates":{"lat":46.5,"lon":-84.34999999999999},"type":"city","searchable":true},{"name":"Birjand","country_name":"Iran","country_code":"IR","code":"XBJ","index_strings":["birjand airport","xbj","birjand","iran","ir"],"timezone":"Asia\/Tehran","weight":0,"coordinates":{"lat":32.89905,"lon":59.25499},"type":"city","searchable":true},{"name":"Penticton","country_name":"Canada","country_code":"CA","code":"YYF","index_strings":["penticton airport","yyf","penticton","canada","ca"],"timezone":"America\/Vancouver","weight":0,"coordinates":{"lat":49.46472,"lon":-119.6},"type":"city","searchable":true},{"name":"Shalu","country_name":"Taiwan","country_code":"TW","code":"RMQ","index_strings":["taichung international airport","rmq","shalu","taiwan","tw"],"timezone":"Asia\/Taipei","weight":0,"coordinates":{"lat":24.249294,"lon":120.60131},"type":"city","searchable":true},{"name":"Guilin","country_name":"China","country_code":"CN","code":"KWL","index_strings":["guilin liangjiang international airport","kwl","guilin","china","cn"],"timezone":"Asia\/Shanghai","weight":0,"coordinates":{"lat":25.133333,"lon":110.316666},"type":"city","searchable":true},{"name":"Abbotsford","country_name":"Canada","country_code":"CA","code":"YXX","index_strings":["abbotsford airport","yxx","abbotsford","canada","ca"],"timezone":"America\/Vancouver","weight":0,"coordinates":{"lat":49.025555,"lon":-122.361946},"type":"city","searchable":true},{"name":"Alliance","country_name":"United States","country_code":"US","code":"AIA","index_strings":["alliance airport","aia","alliance","united states","us"],"timezone":"America\/Denver","weight":0,"coordinates":{"lat":42.051666,"lon":-102.80666},"type":"city","searchable":true},{"name":"Cayo Largo Del Sur","country_name":"Cuba","country_code":"CU","code":"CYO","index_strings":["cayo largo del sur airport","cyo","cayo largo del sur","cuba","cu"],"timezone":"America\/Havana","weight":0,"coordinates":{"lat":21.616667,"lon":-81.51667},"type":"city","searchable":true},{"name":"Escanaba","country_name":"United States","country_code":"US","code":"ESC","index_strings":["delta county airport","esc","escanaba","united states","us"],"timezone":"America\/Detroit","weight":0,"coordinates":{"lat":45.720554,"lon":-87.08667},"type":"city","searchable":true},{"name":"Fort Chipewyan","country_name":"Canada","country_code":"CA","code":"YPY","index_strings":["fort chipewyan airport","ypy","fort chipewyan","canada","ca"],"timezone":"America\/Edmonton","weight":0,"coordinates":{"lat":58.7625,"lon":-111.120834},"type":"city","searchable":true},{"name":"Garden City","country_name":"United States","country_code":"US","code":"GCK","index_strings":["garden city municipal airport","gck","garden city","united states","us"],"timezone":"America\/Chicago","weight":0,"coordinates":{"lat":37.92861,"lon":-100.72972},"type":"city","searchable":true},{"name":"Joinville","country_name":"Brazil","country_code":"BR","code":"JOI","index_strings":["joinville-lauro carneiro de loyola airport","joi","joinville","brazil","br"],"timezone":"America\/Sao_Paulo","weight":0,"coordinates":{"lat":-26.233334,"lon":-48.783333},"type":"city","searchable":true},{"name":"Kasos Island","country_name":"Greece","country_code":"GR","code":"KSJ","index_strings":["kasos island airport","ksj","kasos island","greece","gr"],"timezone":"Europe\/Athens","weight":0,"coordinates":{"lat":35.42139,"lon":26.916668},"type":"city","searchable":true},{"name":"Lensk","country_name":"Russia","country_code":"RU","code":"ULK","index_strings":["lensk airport","ulk","lensk","russia","ru"],"timezone":"Asia\/Yakutsk","weight":0,"coordinates":{"lat":60.72248,"lon":114.83152},"type":"city","searchable":true},{"name":"Luoyang","country_name":"China","country_code":"CN","code":"LYA","index_strings":["luoyang beijiao airport","lya","luoyang","china","cn"],"timezone":"Asia\/Shanghai","weight":0,"coordinates":{"lat":34.736362,"lon":112.38541},"type":"city","searchable":true},{"name":"Mahe Island","country_name":"Seychelles","country_code":"SC","code":"SEZ","index_strings":["seychelles international airport","sez","mahe island","seychelles","sc"],"timezone":"Indian\/Mahe","weight":0,"coordinates":{"lat":-4.671275,"lon":55.51128},"type":"city","searchable":true},{"name":"Nyaung-u","country_name":"Myanmar","country_code":"MM","code":"NYU","index_strings":["nyaung u airport","nyu","nyaung-u","myanmar","mm"],"timezone":"Asia\/Rangoon","weight":0,"coordinates":{"lat":21.175343,"lon":94.92832},"type":"city","searchable":true},{"name":"Ontario","country_name":"United States","country_code":"US","code":"ONT","index_strings":["los angeles","лос-анджелес","洛杉矶","ontario international airport","ont","ontario","united states","us"],"timezone":"America\/Los_Angeles","weight":0,"coordinates":{"lat":34.05,"lon":-117.64},"type":"city","searchable":true},{"name":"Passo Fundo","country_name":"Brazil","country_code":"BR","code":"PFB","index_strings":["passo fundo airport","pfb","passo fundo","brazil","br"],"timezone":"America\/Sao_Paulo","weight":0,"coordinates":{"lat":-28.25,"lon":-52.333332},"type":"city","searchable":true},{"name":"Portland","country_name":"United States","country_code":"US","code":"PWM","index_strings":["portland international jetport","pwm","portland","united states","us"],"timezone":"America\/New_York","weight":0,"coordinates":{"lat":43.64749,"lon":-70.31031},"type":"city","searchable":true},{"name":"Punta Arenas","country_name":"Chile","country_code":"CL","code":"PUQ","index_strings":["pres ibanez airport","puq","punta arenas","chile","cl"],"timezone":"America\/Santiago","weight":0,"coordinates":{"lat":-53.005356,"lon":-70.84307},"type":"city","searchable":true},{"name":"Rock Sound","country_name":"Bahamas","country_code":"BS","code":"RSD","index_strings":["south eleuthera airport","rsd","rock sound","bahamas","bs"],"timezone":"America\/Nassau","weight":0,"coordinates":{"lat":24.891666,"lon":-76.178055},"type":"city","searchable":true},{"name":"Saint Croix","country_name":"U.S. Virgin Islands","country_code":"VI","code":"STX","index_strings":["henry e. rohlsen airport","stx","saint croix","u.s. virgin islands","vi"],"timezone":"America\/St_Thomas","weight":0,"coordinates":{"lat":17.7466397,"lon":-64.7031977},"type":"city","searchable":true},{"name":"Terceira","country_name":"Portugal","country_code":"PT","code":"TER","index_strings":["lajes field","ter","terceira","portugal","pt"],"timezone":"Atlantic\/Azores","weight":0,"coordinates":{"lat":38.754074,"lon":-27.08757},"type":"city","searchable":true},{"name":"Velikij Ustyug","country_name":"Russia","country_code":"RU","code":"VUS","index_strings":["velikij ustyug airport","vus","velikij ustyug","russia","ru"],"timezone":"Europe\/Moscow","weight":0,"coordinates":{"lat":60.766666,"lon":46.316666},"type":"city","searchable":true},{"name":"Waskaganish","country_name":"Canada","country_code":"CA","code":"YKQ","index_strings":["waskaganish airport","ykq","waskaganish","canada","ca"],"timezone":"America\/Montreal","weight":0,"coordinates":{"lat":51.4875,"lon":-78.75},"type":"city","searchable":true},{"name":"Yeosu","country_name":"South Korea","country_code":"KR","code":"RSU","index_strings":["yeosu airport","rsu","yeosu","south korea","kr"],"timezone":"Asia\/Seoul","weight":0,"coordinates":{"lat":34.8419,"lon":127.61267},"type":"city","searchable":true},{"name":"Augusta","country_name":"United States","country_code":"US","code":"AUG","index_strings":["augusta airport","aug","augusta","united states","us"],"timezone":"America\/New_York","weight":0,"coordinates":{"lat":44.318054,"lon":-69.79667000000001},"type":"city","searchable":true},{"name":"Chittagong","country_name":"Bangladesh","country_code":"BD","code":"CGP","index_strings":["shah amanat international airport","cgp","chittagong","bangladesh","bd"],"timezone":"Asia\/Dhaka","weight":0,"coordinates":{"lat":22.245201,"lon":91.81516000000001},"type":"city","searchable":true},{"name":"Elko","country_name":"United States","country_code":"US","code":"EKO","index_strings":["elko airport","eko","elko","united states","us"],"timezone":"America\/Los_Angeles","weight":0,"coordinates":{"lat":40.82389,"lon":-115.78972},"type":"city","searchable":true},{"name":"Killeen","country_name":"United States","country_code":"US","code":"ILE","index_strings":["robert gray army airfield","ile","killeen","united states","us"],"timezone":"America\/Chicago","weight":0,"coordinates":{"lat":31.1171194,"lon":-97.7277959},"type":"city","searchable":true},{"name":"Port Lions","country_name":"United States","country_code":"US","code":"ORI","index_strings":["port lions spb","ori","port lions","united states","us"],"timezone":"America\/Anchorage","weight":0,"coordinates":{"lat":57.886112,"lon":-152.84389},"type":"city","searchable":true},{"name":"Marsa Alam","country_name":"Egypt","country_code":"EG","code":"RMF","index_strings":["marsa alam international airport","rmf","marsa alam","egypt","eg"],"timezone":"Africa\/Cairo","weight":0,"coordinates":{"lat":25.555786,"lon":34.592777},"type":"city","searchable":true},{"name":"Narsarsuaq","country_name":"Greenland","country_code":"GL","code":"UAK","index_strings":["narsarsuaq airport","uak","narsarsuaq","greenland","gl"],"timezone":"America\/Godthab","weight":0,"coordinates":{"lat":61.166668,"lon":-45.316666},"type":"city","searchable":true},{"name":"Basra","country_name":"Iraq","country_code":"IQ","code":"BSR","index_strings":["basra international airport","bsr","basra","iraq","iq"],"timezone":"Asia\/Baghdad","weight":0,"coordinates":{"lat":30.555555,"lon":47.79139},"type":"city","searchable":true},{"name":"Barnaul","country_name":"Russia","country_code":"RU","code":"BAX","index_strings":["barnaul airport","bax","barnaul","russia","ru"],"timezone":"Asia\/Novokuznetsk","weight":0,"coordinates":{"lat":53.361088,"lon":83.547646},"type":"city","searchable":true},{"name":"Stavanger","country_name":"Norway","country_code":"NO","code":"SVG","index_strings":["stavanger airport sola","svg","stavanger","norway","no"],"timezone":"Europe\/Oslo","weight":0,"coordinates":{"lat":58.9699756,"lon":5.7331073},"type":"city","searchable":true},{"name":"Okinawa","country_name":"Japan","country_code":"JP","code":"OKA","index_strings":["okinawa","окинава","naha airport","oka","japan","jp"],"timezone":"Asia\/Tokyo","weight":0,"coordinates":{"lat":26.2285302,"lon":127.6891103},"type":"city","searchable":true},{"name":"Kassel","country_name":"Germany","country_code":"DE","code":"KSF","index_strings":["kassel-calden airport","ksf","kassel","germany","de"],"timezone":"Europe\/Berlin","weight":0,"coordinates":{"lat":51.415855,"lon":9.380858},"type":"city","searchable":true},{"name":"Mayaguez","country_name":"Puerto Rico","country_code":"PR","code":"MAZ","index_strings":["eugenio m. de hostos airport","maz","mayaguez","puerto rico","pr"],"timezone":"America\/Puerto_Rico","weight":0,"coordinates":{"lat":18.257778,"lon":-67.14888999999999},"type":"city","searchable":true},{"name":"Banda Aceh","country_name":"Indonesia","country_code":"ID","code":"BTJ","index_strings":["sultan iskandar muda international airport","btj","banda aceh","indonesia","id"],"timezone":"Asia\/Jakarta","weight":0,"coordinates":{"lat":5.518021,"lon":95.41833},"type":"city","searchable":true},{"name":"Nizhnevartovsk","country_name":"Russia","country_code":"RU","code":"NJC","index_strings":["nizhnevartovsk airport","njc","nizhnevartovsk","russia","ru"],"timezone":"Asia\/Yekaterinburg","weight":0,"coordinates":{"lat":60.9476,"lon":76.49145},"type":"city","searchable":true},{"name":"Al-Najaf","country_name":"Iraq","country_code":"IQ","code":"NJF","index_strings":["al-najaf international airport","njf","al-najaf","iraq","iq"],"timezone":"Asia\/Baghdad","weight":0,"coordinates":{"lat":31.993563,"lon":44.389187},"type":"city","searchable":true},{"name":"Cap Haitien","country_name":"Haiti","country_code":"HT","code":"CAP","index_strings":["cap haitien airport","cap","cap haitien","haiti","ht"],"timezone":"America\/Port-au-Prince","weight":0,"coordinates":{"lat":19.732779,"lon":-72.19499999999999},"type":"city","searchable":true},{"name":"Nouakchott","country_name":"Mauritania","country_code":"MR","code":"NKC","index_strings":["nouakchott international airport","nkc","nouakchott","mauritania","mr"],"timezone":"Africa\/Nouakchott","weight":0,"coordinates":{"lat":18.098148,"lon":-15.952041},"type":"city","searchable":true},{"name":"Aktau","country_name":"Kazakhstan","country_code":"KZ","code":"SCO","index_strings":["aktau international airport","sco","aktau","kazakhstan","kz"],"timezone":"Asia\/Aqtau","weight":0,"coordinates":{"lat":43.86667,"lon":51.1},"type":"city","searchable":true},{"name":"Sigonella","country_name":"Italy","country_code":"IT","code":"NSY","index_strings":["nas sigonella","nsy","sigonella","italy","it"],"timezone":"Europe\/Rome","weight":0,"coordinates":{"lat":37.4,"lon":14.933333},"type":"city","searchable":true},{"name":"Astypalaia Island","country_name":"Greece","country_code":"GR","code":"JTY","index_strings":["astypalaia airport","jty","astypalaia island","greece","gr"],"timezone":"Europe\/Athens","weight":0,"coordinates":{"lat":36.566666,"lon":26.366667},"type":"city","searchable":true},{"name":"Churchill","country_name":"Canada","country_code":"CA","code":"YYQ","index_strings":["churchill airport","yyq","churchill","canada","ca"],"timezone":"America\/Winnipeg","weight":0,"coordinates":{"lat":58.755456,"lon":-94.112469},"type":"city","searchable":true},{"name":"Dezful","country_name":"Iran","country_code":"IR","code":"DEF","index_strings":["dezful airport","def","dezful","iran","ir"],"timezone":"Asia\/Tehran","weight":0,"coordinates":{"lat":32.438828,"lon":48.38468},"type":"city","searchable":true},{"name":"Fukue","country_name":"Japan","country_code":"JP","code":"FUJ","index_strings":["fukue airport","fuj","fukue","japan","jp"],"timezone":"Asia\/Tokyo","weight":0,"coordinates":{"lat":32.667828,"lon":128.83762},"type":"city","searchable":true},{"name":"Apartado","country_name":"Colombia","country_code":"CO","code":"APO","index_strings":["apartado airport","apo","apartado","colombia","co"],"timezone":"America\/Bogota","weight":0,"coordinates":{"lat":7.817678,"lon":-76.71766},"type":"city","searchable":true},{"name":"Kameshli","country_name":"Syria","country_code":"SY","code":"KAC","index_strings":["kameshly airport","kac","kameshli","syria","sy"],"timezone":"Asia\/Damascus","weight":0,"coordinates":{"lat":37.031025,"lon":41.20556},"type":"city","searchable":true},{"name":"Matamoros","country_name":"Mexico","country_code":"MX","code":"MAM","index_strings":["matamoros airport","mam","matamoros","mexico","mx"],"timezone":"America\/Matamoros","weight":0,"coordinates":{"lat":25.770279,"lon":-97.52361000000001},"type":"city","searchable":true},{"name":"Lichinga","country_name":"Mozambique","country_code":"MZ","code":"VXC","index_strings":["lichinga airport","vxc","lichinga","mozambique","mz"],"timezone":"Africa\/Maputo","weight":0,"coordinates":{"lat":-13.283333,"lon":35.25},"type":"city","searchable":true},{"name":"Yangyang","country_name":"South Korea","country_code":"KR","code":"YNY","index_strings":["yangyang airport","yny","yangyang","south korea","kr"],"timezone":"Asia\/Seoul","weight":0,"coordinates":{"lat":38.066666,"lon":128.6},"type":"city","searchable":true},{"name":"Al-Baha","country_name":"Saudi Arabia","country_code":"SA","code":"ABT","index_strings":["al-aqiq airport","abt","al-baha","saudi arabia","sa"],"timezone":"Asia\/Riyadh","weight":0,"coordinates":{"lat":20.29401,"lon":41.64002},"type":"city","searchable":true},{"name":"Bima","country_name":"Indonesia","country_code":"ID","code":"BMU","index_strings":["sultan muhammad salahuddin airport","bmu","bima","indonesia","id"],"timezone":"Asia\/Makassar","weight":0,"coordinates":{"lat":-8.5,"lon":118.916664},"type":"city","searchable":true},{"name":"Metz\/Nancy","country_name":"France","country_code":"FR","code":"ETZ","index_strings":["nancy","нанси","metz-nancy-lorraine airport","etz","metz\/nancy","france","fr"],"timezone":"Europe\/Paris","weight":0,"coordinates":{"lat":49.119666,"lon":6.176905},"type":"city","searchable":true},{"name":"Gambela","country_name":"Ethiopia","country_code":"ET","code":"GMB","index_strings":["gambela airport","gmb","gambela","ethiopia","et"],"timezone":"Africa\/Addis_Ababa","weight":0,"coordinates":{"lat":8.283333000000001,"lon":34.583332},"type":"city","searchable":true},{"name":"Nanchang","country_name":"China","country_code":"CN","code":"KHN","index_strings":["nanchang changbei international airport","khn","nanchang","china","cn"],"timezone":"Asia\/Shanghai","weight":0,"coordinates":{"lat":28.859901,"lon":115.907845},"type":"city","searchable":true},{"name":"Salonibari","country_name":"India","country_code":"IN","code":"TEZ","index_strings":["tezpur airport","tez","salonibari","india","in"],"timezone":"Asia\/Kolkata","weight":0,"coordinates":{"lat":26.710833,"lon":92.79611},"type":"city","searchable":true},{"name":"Cajamarca","country_name":"Peru","country_code":"PE","code":"CJA","index_strings":["cajamarca airport","cja","cajamarca","peru","pe"],"timezone":"America\/Lima","weight":0,"coordinates":{"lat":-7.133333,"lon":-78.5},"type":"city","searchable":true},{"name":"Eugene","country_name":"United States","country_code":"US","code":"EUG","index_strings":["eugene airport","eug","eugene","united states","us"],"timezone":"America\/Los_Angeles","weight":0,"coordinates":{"lat":44.119198,"lon":-123.21197},"type":"city","searchable":true},{"name":"Jazan","country_name":"Saudi Arabia","country_code":"SA","code":"GIZ","index_strings":["jazan regional airport","giz","jazan","saudi arabia","sa"],"timezone":"Asia\/Riyadh","weight":0,"coordinates":{"lat":16.898949,"lon":42.582344},"type":"city","searchable":true},{"name":"Tambolaka","country_name":"Indonesia","country_code":"ID","code":"TMC","index_strings":["tambolaka airport","tmc","tambolaka","indonesia","id"],"timezone":"Asia\/Makassar","weight":0,"coordinates":{"lat":-9.340278,"lon":119.18306},"type":"city","searchable":true},{"name":"Aalesund","country_name":"Norway","country_code":"NO","code":"AES","index_strings":["vigra alesund airport","aes","aalesund","norway","no"],"timezone":"Europe\/Oslo","weight":0,"coordinates":{"lat":62.559643,"lon":6.116605},"type":"city","searchable":true},{"name":"Cairo","country_name":"Egypt","country_code":"EG","code":"CAI","index_strings":["cairo international airport","cai","cairo","egypt","eg"],"timezone":"Africa\/Cairo","weight":0,"coordinates":{"lat":30.120106,"lon":31.40647},"type":"city","searchable":true},{"name":"Jaipur","country_name":"India","country_code":"IN","code":"JAI","index_strings":["jaipur airport","jai","jaipur","india","in"],"timezone":"Asia\/Kolkata","weight":0,"coordinates":{"lat":26.820772,"lon":75.80150999999999},"type":"city","searchable":true},{"name":"Kuching","country_name":"Malaysia","country_code":"MY","code":"KCH","index_strings":["kuching international airport","kch","kuching","malaysia","my"],"timezone":"Asia\/Kuching","weight":0,"coordinates":{"lat":1.484167,"lon":110.340836},"type":"city","searchable":true},{"name":"Mtwara","country_name":"Tanzania","country_code":"TZ","code":"MYW","index_strings":["mtwara airport","myw","mtwara","tanzania","tz"],"timezone":"Africa\/Dar_es_Salaam","weight":0,"coordinates":{"lat":-10.338889,"lon":40.19361},"type":"city","searchable":true},{"name":"Pereira","country_name":"Colombia","country_code":"CO","code":"PEI","index_strings":["matecana international airport","pei","pereira","colombia","co"],"timezone":"America\/Bogota","weight":0,"coordinates":{"lat":4.815945,"lon":-75.73653400000001},"type":"city","searchable":true},{"name":"Sevilla","country_name":"Spain","country_code":"ES","code":"SVQ","index_strings":["seville airport","svq","sevilla","spain","es"],"timezone":"Europe\/Madrid","weight":0,"coordinates":{"lat":37.38264,"lon":-5.9962951},"type":"city","searchable":true},{"name":"Tampico","country_name":"Mexico","country_code":"MX","code":"TAM","index_strings":["tampico international airport","tam","tampico","mexico","mx"],"timezone":"America\/Monterrey","weight":0,"coordinates":{"lat":22.289082,"lon":-97.87016},"type":"city","searchable":true},{"name":"Rzeszow","country_name":"Poland","country_code":"PL","code":"RZE","index_strings":["rzeszow international airport","rze","rzeszow","poland","pl"],"timezone":"Europe\/Warsaw","weight":0,"coordinates":{"lat":50.11525,"lon":22.03133},"type":"city","searchable":true},{"name":"Gondar","country_name":"Ethiopia","country_code":"ET","code":"GDQ","index_strings":["gondar airport","gdq","gondar","ethiopia","et"],"timezone":"Africa\/Addis_Ababa","weight":0,"coordinates":{"lat":12.514444,"lon":37.445557},"type":"city","searchable":true},{"name":"Naberezhnye Chelny","country_name":"Russia","country_code":"RU","code":"NBC","index_strings":["begishevo airport","nbc","naberezhnye chelny","russia","ru"],"timezone":"Europe\/Moscow","weight":0,"coordinates":{"lat":55.564125,"lon":52.10341},"type":"city","searchable":true},{"name":"Tyumen","country_name":"Russia","country_code":"RU","code":"TJM","index_strings":["roshchino international airport","tjm","tyumen","russia","ru"],"timezone":"Asia\/Yekaterinburg","weight":0,"coordinates":{"lat":57.181828,"lon":65.35024},"type":"city","searchable":true},{"name":"Xining","country_name":"China","country_code":"CN","code":"XNN","index_strings":["xining airport","xnn","xining","china","cn"],"timezone":"Asia\/Shanghai","weight":0,"coordinates":{"lat":36.525322,"lon":102.03754},"type":"city","searchable":true},{"name":"Samara","country_name":"Russia","country_code":"RU","code":"KUF","index_strings":["kurumoch international airport","kuf","samara","russia","ru"],"timezone":"Europe\/Samara","weight":0,"coordinates":{"lat":53.50782,"lon":50.14742},"type":"city","searchable":true},{"name":"Kotlas","country_name":"Russia","country_code":"RU","code":"KSZ","index_strings":["kotlas airport","ksz","kotlas","russia","ru"],"timezone":"Europe\/Moscow","weight":0,"coordinates":{"lat":61.233334,"lon":46.7},"type":"city","searchable":true},{"name":"Cauayan","country_name":"Philippines","country_code":"PH","code":"CYZ","index_strings":["cauayan airport","cyz","cauayan","philippines","ph"],"timezone":"Asia\/Manila","weight":0,"coordinates":{"lat":16.93,"lon":121.75584},"type":"city","searchable":true},{"name":"Datong","country_name":"China","country_code":"CN","code":"DAT","index_strings":["datong airport","dat","datong","china","cn"],"timezone":"Asia\/Shanghai","weight":0,"coordinates":{"lat":40.05554,"lon":113.48136},"type":"city","searchable":true},{"name":"Saranac Lake","country_name":"United States","country_code":"US","code":"SLK","index_strings":["adirondack airport","slk","saranac lake","united states","us"],"timezone":"America\/New_York","weight":0,"coordinates":{"lat":44.38278,"lon":-74.206665},"type":"city","searchable":true},{"name":"Keperveyem","country_name":"Russia","country_code":"RU","code":"KPW","index_strings":["keperveyem airport","kpw","keperveyem","russia","ru"],"timezone":"Asia\/Kamchatka","weight":0,"coordinates":{"lat":67.84056,"lon":166.13917},"type":"city","searchable":true},{"name":"Chefornak","country_name":"United States","country_code":"US","code":"CYF","index_strings":["chefornak sea plane base","cyf","chefornak","united states","us"],"timezone":"America\/Nome","weight":0,"coordinates":{"lat":60.216667,"lon":-164.2},"type":"city","searchable":true},{"name":"Adana","country_name":"Turkey","country_code":"TR","code":"ADA","index_strings":["adana airport","ada","adana","turkey","tr"],"timezone":"Europe\/Istanbul","weight":0,"coordinates":{"lat":37,"lon":35.3213333},"type":"city","searchable":true},{"name":"Guayaramerin","country_name":"Bolivia","country_code":"BO","code":"GYA","index_strings":["guayaramerin airport","gya","guayaramerin","bolivia","bo"],"timezone":"America\/La_Paz","weight":0,"coordinates":{"lat":-10.83,"lon":-65.361664},"type":"city","searchable":true},{"name":"Kemi\/Tornio","country_name":"Finland","country_code":"FI","code":"KEM","index_strings":["tornio","торнио","kemi\/tornio airport","kem","kemi\/tornio","finland","fi"],"timezone":"Europe\/Helsinki","weight":0,"coordinates":{"lat":65.78006000000001,"lon":24.57677},"type":"city","searchable":true},{"name":"Sun Valley","country_name":"United States","country_code":"US","code":"SUN","index_strings":["sun","sun valley","united states","us"],"timezone":"America\/Boise","weight":0,"coordinates":{"lat":43.6971294,"lon":-114.3517172},"type":"city","searchable":true},{"name":"Elista","country_name":"Russia","country_code":"RU","code":"ESL","index_strings":["elista airport","esl","elista","russia","ru"],"timezone":"Europe\/Moscow","weight":0,"coordinates":{"lat":46.36667,"lon":44.333332},"type":"city","searchable":true},{"name":"Uberaba","country_name":"Brazil","country_code":"BR","code":"UBA","index_strings":["uberaba airport","uba","uberaba","brazil","br"],"timezone":"America\/Sao_Paulo","weight":0,"coordinates":{"lat":-19.776388,"lon":-47.958332},"type":"city","searchable":true},{"name":"Puebla","country_name":"Mexico","country_code":"MX","code":"PBC","index_strings":["huejotsingo airport","pbc","puebla","mexico","mx"],"timezone":"America\/Mexico_City","weight":0,"coordinates":{"lat":19.135,"lon":-98.36750000000001},"type":"city","searchable":true},{"name":"Iwakuni","country_name":"Japan","country_code":"JP","code":"IWK","index_strings":["iwakuni kintaikyo airport","iwk","iwakuni","japan","jp"],"timezone":"Asia\/Tokyo","weight":0,"coordinates":{"lat":34.135277,"lon":132.23555},"type":"city","searchable":true},{"name":"Belaya Gora","country_name":"Russia","country_code":"RU","code":"BGN","index_strings":["belaya gora airport","bgn","belaya gora","russia","ru"],"timezone":"Asia\/Srednekolymsk","weight":0,"coordinates":{"lat":68.53749999999999,"lon":146.1875},"type":"city","searchable":true},{"name":"Florence","country_name":"United States","country_code":"US","code":"FLO","index_strings":["florence airport","flo","florence","united states","us"],"timezone":"America\/New_York","weight":0,"coordinates":{"lat":34.18889,"lon":-79.72444},"type":"city","searchable":true},{"name":"Inverness","country_name":"United Kingdom","country_code":"GB","code":"INV","index_strings":["inverness airport","inv","inverness","united kingdom","gb"],"timezone":"Europe\/London","weight":0,"coordinates":{"lat":57.4766949,"lon":-4.2314535},"type":"city","searchable":true},{"name":"Kauai Island","country_name":"United States","country_code":"US","code":"LIH","index_strings":["lihue airport","lih","kauai island","united states","us"],"timezone":"Pacific\/Honolulu","weight":0,"coordinates":{"lat":21.9811111,"lon":-159.3711111},"type":"city","searchable":true},{"name":"Roi Et","country_name":"Thailand","country_code":"TH","code":"ROI","index_strings":["roi et airport","roi","roi et","thailand","th"],"timezone":"Asia\/Bangkok","weight":0,"coordinates":{"lat":16.115278,"lon":103.77695},"type":"city","searchable":true},{"name":"Sao Tome Island","country_name":"São Tomé and Príncipe","country_code":"ST","code":"TMS","index_strings":["sao tome island airport","tms","sao tome island","são tomé and príncipe","st"],"timezone":"Africa\/Sao_Tome","weight":0,"coordinates":{"lat":0.378333,"lon":6.725},"type":"city","searchable":true},{"name":"Grafton","country_name":"Australia","country_code":"AU","code":"GFN","index_strings":["grafton airport","gfn","grafton","australia","au"],"timezone":"Australia\/Sydney","weight":0,"coordinates":{"lat":-29.759521,"lon":153.02834},"type":"city","searchable":true},{"name":"Kuujjuaq","country_name":"Canada","country_code":"CA","code":"YVP","index_strings":["kuujjuaq airport","yvp","kuujjuaq","canada","ca"],"timezone":"America\/Montreal","weight":0,"coordinates":{"lat":58.10024,"lon":-68.41798},"type":"city","searchable":true},{"name":"Vilhelmina","country_name":"Sweden","country_code":"SE","code":"VHM","index_strings":["vilhelmina airport","vhm","vilhelmina","sweden","se"],"timezone":"Europe\/Stockholm","weight":0,"coordinates":{"lat":64.61667,"lon":16.65},"type":"city","searchable":true},{"name":"Ordzhonikidzevskaya","country_name":"Russia","country_code":"RU","code":"IGT","index_strings":["magas airport","igt","ordzhonikidzevskaya","russia","ru"],"timezone":"Europe\/Moscow","weight":0,"coordinates":{"lat":43.31778,"lon":45.001667},"type":"city","searchable":true},{"name":"Atyrau","country_name":"Kazakhstan","country_code":"KZ","code":"GUW","index_strings":["atyrau airport","guw","atyrau","kazakhstan","kz"],"timezone":"Asia\/Aqtau","weight":0,"coordinates":{"lat":47.122814,"lon":51.829556},"type":"city","searchable":true},{"name":"Pasto","country_name":"Colombia","country_code":"CO","code":"PSO","index_strings":["cano airport","pso","pasto","colombia","co"],"timezone":"America\/Bogota","weight":0,"coordinates":{"lat":1.466667,"lon":-77.25},"type":"city","searchable":true},{"name":"Pagadian","country_name":"Philippines","country_code":"PH","code":"PAG","index_strings":["pagadian airport","pag","pagadian","philippines","ph"],"timezone":"Asia\/Manila","weight":0,"coordinates":{"lat":7.826667,"lon":123.4575},"type":"city","searchable":true},{"name":"Anchorage","country_name":"United States","country_code":"US","code":"ANC","index_strings":["ted stevens anchorage international airport","anc","anchorage","united states","us"],"timezone":"America\/Anchorage","weight":0,"coordinates":{"lat":61.2180556,"lon":-149.9002778},"type":"city","searchable":true},{"name":"Belgrade","country_name":"Serbia","country_code":"RS","code":"BEG","index_strings":["belgrad nikola tesla airport","beg","belgrade","serbia","rs"],"timezone":"Europe\/Belgrade","weight":0,"coordinates":{"lat":44.802416,"lon":20.465601},"type":"city","searchable":true},{"name":"Usinsk","country_name":"Russia","country_code":"RU","code":"USK","index_strings":["usinsk airport","usk","usinsk","russia","ru"],"timezone":"Europe\/Moscow","weight":0,"coordinates":{"lat":65.95,"lon":57.4},"type":"city","searchable":true},{"name":"Alotau","country_name":"Papua New Guinea","country_code":"PG","code":"GUR","index_strings":["gurney airport","gur","alotau","papua new guinea","pg"],"timezone":"Pacific\/Port_Moresby","weight":0,"coordinates":{"lat":-10.310833,"lon":150.33861},"type":"city","searchable":true},{"name":"Lubbock","country_name":"United States","country_code":"US","code":"LBB","index_strings":["lubbock preston smith international airport","lbb","lubbock","united states","us"],"timezone":"America\/Chicago","weight":0,"coordinates":{"lat":33.5778631,"lon":-101.8551665},"type":"city","searchable":true},{"name":"Freetown","country_name":"Sierra Leone","country_code":"SL","code":"FNA","index_strings":["lungi international airport","fna","freetown","sierra leone","sl"],"timezone":"Africa\/Freetown","weight":0,"coordinates":{"lat":8.484146000000001,"lon":-13.22867},"type":"city","searchable":true},{"name":"Ras al-Khaimah","country_name":"United Arab Emirates","country_code":"AE","code":"RKT","index_strings":["ras al khaimah international airport","rkt","ras al-khaimah","united arab emirates","ae"],"timezone":"Asia\/Dubai","weight":0,"coordinates":{"lat":25.616198,"lon":55.943695},"type":"city","searchable":true},{"name":"La Rioja","country_name":"Argentina","country_code":"AR","code":"IRJ","index_strings":["la rioja airport","irj","la rioja","argentina","ar"],"timezone":"America\/Argentina\/La_Rioja","weight":0,"coordinates":{"lat":-29.383333,"lon":-66.78333000000001},"type":"city","searchable":true},{"name":"Beckley","country_name":"United States","country_code":"US","code":"BKW","index_strings":["beckley airport","bkw","beckley","united states","us"],"timezone":"America\/New_York","weight":0,"coordinates":{"lat":37.781944,"lon":-81.12417000000001},"type":"city","searchable":true},{"name":"Isfahan","country_name":"Iran","country_code":"IR","code":"IFN","index_strings":["isfahan international airport","ifn","isfahan","iran","ir"],"timezone":"Asia\/Tehran","weight":0,"coordinates":{"lat":32.745686,"lon":51.87638},"type":"city","searchable":true},{"name":"San Andres Island","country_name":"Colombia","country_code":"CO","code":"ADZ","index_strings":["gustavo rojas pinilla airport","adz","san andres island","colombia","co"],"timezone":"America\/Bogota","weight":0,"coordinates":{"lat":12.586047,"lon":-81.70220999999999},"type":"city","searchable":true},{"name":"Iloilo","country_name":"Philippines","country_code":"PH","code":"ILO","index_strings":["mandurriao airport","ilo","iloilo","philippines","ph"],"timezone":"Asia\/Manila","weight":0,"coordinates":{"lat":10.714312,"lon":122.543884},"type":"city","searchable":true},{"name":"Manzini","country_name":"Swaziland","country_code":"SZ","code":"MTS","index_strings":["king mswati iii international airport","mts","manzini","swaziland","sz"],"timezone":"Africa\/Mbabane","weight":0,"coordinates":{"lat":-26.52033,"lon":31.314133},"type":"city","searchable":true},{"name":"Saint Martin","country_name":"Saint Martin","country_code":"MF","code":"SFG","index_strings":["esperance airport","sfg","saint martin","mf"],"timezone":"America\/Marigot","weight":0,"coordinates":{"lat":-26.234987,"lon":28.200738},"type":"city","searchable":true},{"name":"Harstad-Narvik","country_name":"Norway","country_code":"NO","code":"EVE","index_strings":["harstad\/narvik airport, evenes","eve","harstad-narvik","norway","no"],"timezone":"Europe\/Oslo","weight":0,"coordinates":{"lat":68.496666,"lon":16.679722},"type":"city","searchable":true},{"name":"Cluj","country_name":"Romania","country_code":"RO","code":"CLJ","index_strings":["avram iancu cluj international airport","clj","cluj","romania","ro"],"timezone":"Europe\/Bucharest","weight":0,"coordinates":{"lat":46.782063,"lon":23.687014},"type":"city","searchable":true},{"name":"Pori","country_name":"Finland","country_code":"FI","code":"POR","index_strings":["pori airport","por","pori","finland","fi"],"timezone":"Europe\/Helsinki","weight":0,"coordinates":{"lat":61.46866,"lon":21.791382},"type":"city","searchable":true},{"name":"Arvidsjaur","country_name":"Sweden","country_code":"SE","code":"AJR","index_strings":["arvidsjaur airport","ajr","arvidsjaur","sweden","se"],"timezone":"Europe\/Stockholm","weight":0,"coordinates":{"lat":65.59139,"lon":19.285557},"type":"city","searchable":true},{"name":"Calgary","country_name":"Canada","country_code":"CA","code":"YYC","index_strings":["calgary international airport","yyc","calgary","canada","ca"],"timezone":"America\/Edmonton","weight":0,"coordinates":{"lat":51.131393,"lon":-114.01055},"type":"city","searchable":true},{"name":"Saint Barthelemy","country_name":"Guadeloupe","country_code":"GP","code":"SBH","index_strings":["st. barthelemy airport","sbh","saint barthelemy","guadeloupe","gp"],"timezone":"America\/St_Barthelemy","weight":0,"coordinates":{"lat":17.9,"lon":-62.85},"type":"city","searchable":true},{"name":"Virgin Gorda","country_name":"British Virgin Islands","country_code":"VG","code":"VIJ","index_strings":["virgin gorda airport","vij","virgin gorda","british virgin islands","vg"],"timezone":"America\/Tortola","weight":0,"coordinates":{"lat":18.45027,"lon":-64.427734},"type":"city","searchable":true},{"name":"Reno","country_name":"United States","country_code":"US","code":"RNO","index_strings":["reno\/tahoe international airport","rno","reno","united states","us"],"timezone":"America\/Los_Angeles","weight":0,"coordinates":{"lat":39.505783,"lon":-119.775696},"type":"city","searchable":true},{"name":"Stockholm","country_name":"Sweden","country_code":"SE","code":"STO","index_strings":["sto","stockholm","sweden","se"],"timezone":"Europe\/Stockholm","weight":0,"coordinates":{"lat":59.3327881,"lon":18.0644881},"type":"city","searchable":true},{"name":"Papeete","country_name":"French Polynesia","country_code":"PF","code":"PPT","index_strings":["tahiti faa'a airport","ppt","papeete","french polynesia","pf"],"timezone":"Pacific\/Tahiti","weight":0,"coordinates":{"lat":-17.55963,"lon":-149.60938},"type":"city","searchable":true},{"name":"Saint Lucia","country_name":"Saint Lucia","country_code":"LC","code":"SLU","index_strings":["slu","saint lucia","lc"],"timezone":"America\/St_Lucia","weight":0,"coordinates":{"lat":13.994143,"lon":-61.006863},"type":"city","searchable":true},{"name":"Ternate","country_name":"Indonesia","country_code":"ID","code":"TTE","index_strings":["babullah airport","tte","ternate","indonesia","id"],"timezone":"Asia\/Jayapura","weight":0,"coordinates":{"lat":0.8,"lon":127.4},"type":"city","searchable":true},{"name":"Hibbing","country_name":"United States","country_code":"US","code":"HIB","index_strings":["chisholm airport","hib","hibbing","united states","us"],"timezone":"America\/Chicago","weight":0,"coordinates":{"lat":47.38861,"lon":-92.83861},"type":"city","searchable":true},{"name":"Dien Bien Phu","country_name":"Vietnam","country_code":"VN","code":"DIN","index_strings":["dien bien airport","din","dien bien phu","vietnam","vn"],"timezone":"Asia\/Ho_Chi_Minh","weight":0,"coordinates":{"lat":21.383333,"lon":103},"type":"city","searchable":true},{"name":"Camaguey","country_name":"Cuba","country_code":"CU","code":"CMW","index_strings":["ign agramonte international airport","cmw","camaguey","cuba","cu"],"timezone":"America\/Havana","weight":0,"coordinates":{"lat":21.418612,"lon":-77.84972399999999},"type":"city","searchable":true},{"name":"Milton Keynes","country_name":"United Kingdom","country_code":"GB","code":"KYN","index_strings":["kyn","milton keynes","united kingdom","gb"],"timezone":"Europe\/London","weight":0,"coordinates":{"lat":52.03428,"lon":-0.774107},"type":"city","searchable":false},{"name":"Saba","country_name":"Caribbean Netherlands","country_code":"BQ","code":"SAB","index_strings":["j. yrausquin airport","sab","saba","caribbean netherlands","bq"],"timezone":"America\/Kralendijk","weight":0,"coordinates":{"lat":17.65,"lon":-63.216667},"type":"city","searchable":true},{"name":"Bujumbura","country_name":"Burundi","country_code":"BI","code":"BJM","index_strings":["bujumbura international airport","bjm","bujumbura","burundi","bi"],"timezone":"Africa\/Bujumbura","weight":0,"coordinates":{"lat":-3.383333,"lon":29.366667},"type":"city","searchable":true},{"name":"Chicago","country_name":"United States","country_code":"US","code":"CHI","index_strings":["chi","chicago","united states","us"],"timezone":"America\/Chicago","weight":0,"coordinates":{"lat":41.8781136,"lon":-87.6297982},"type":"city","searchable":true},{"name":"Katowice","country_name":"Poland","country_code":"PL","code":"KTW","index_strings":["ktw","katowice","poland","pl"],"timezone":"Europe\/Warsaw","weight":0,"coordinates":{"lat":50.2648919,"lon":19.0237815},"type":"city","searchable":true},{"name":"Tenerife","country_name":"Spain","country_code":"ES","code":"TCI","index_strings":["tci","tenerife","spain","es"],"timezone":"Atlantic\/Canary","weight":0,"coordinates":{"lat":28.2915637,"lon":-16.6291304},"type":"city","searchable":true},{"name":"Kansas City","country_name":"United States","country_code":"US","code":"MKC","index_strings":["mkc","kansas city","united states","us"],"timezone":"America\/Chicago","weight":0,"coordinates":{"lat":39.05,"lon":-94.583333},"type":"city","searchable":true},{"name":"Cincinnati","country_name":"United States","country_code":"US","code":"CVG","index_strings":["cvg","cincinnati","united states","us"],"timezone":"America\/New_York","weight":0,"coordinates":{"lat":39.0836712,"lon":-84.5085536},"type":"city","searchable":true},{"name":"Boston","country_name":"United States","country_code":"US","code":"BOS","index_strings":["bos","boston","united states","us"],"timezone":"America\/New_York","weight":0,"coordinates":{"lat":42.3584308,"lon":-71.0597732},"type":"city","searchable":true},{"name":"Dammam","country_name":"Saudi Arabia","country_code":"SA","code":"DMM","index_strings":["dmm","dammam","saudi arabia","sa"],"timezone":"Asia\/Riyadh","weight":0,"coordinates":{"lat":26.471111,"lon":49.79778},"type":"city","searchable":true},{"name":"Detroit","country_name":"United States","country_code":"US","code":"DTT","index_strings":["dtt","detroit","united states","us"],"timezone":"America\/Detroit","weight":0,"coordinates":{"lat":42.331427,"lon":-83.0457538},"type":"city","searchable":true},{"name":"Dubai","country_name":"United Arab Emirates","country_code":"AE","code":"DXB","index_strings":["dxb","dubai","united arab emirates","ae"],"timezone":"Asia\/Dubai","weight":0,"coordinates":{"lat":25.2644444,"lon":55.3116667},"type":"city","searchable":true},{"name":"Norfolk","country_name":"United States","country_code":"US","code":"ORF","index_strings":["orf","norfolk","united states","us"],"timezone":"America\/New_York","weight":0,"coordinates":{"lat":36.8507689,"lon":-76.2858726},"type":"city","searchable":true},{"name":"Orlando","country_name":"United States","country_code":"US","code":"ORL","index_strings":["orl","orlando","united states","us"],"timezone":"America\/New_York","weight":0,"coordinates":{"lat":28.533611,"lon":-81.386667},"type":"city","searchable":true},{"name":"Minneapolis","country_name":"United States","country_code":"US","code":"MSP","index_strings":["msp","minneapolis","united states","us"],"timezone":"America\/Chicago","weight":0,"coordinates":{"lat":44.9799654,"lon":-93.26383610000001},"type":"city","searchable":true},{"name":"Brno","country_name":"Czech Republic","country_code":"CZ","code":"BRQ","index_strings":["brq","brno","czech republic","cz"],"timezone":"Europe\/Prague","weight":0,"coordinates":{"lat":49.1909804,"lon":16.6115347},"type":"city","searchable":true},{"name":"Elat","country_name":"Israel","country_code":"IL","code":"ETH","index_strings":["eilat airport","eth","elat","israel","il"],"timezone":"Asia\/Jerusalem","weight":0,"coordinates":{"lat":29.555616,"lon":34.95357},"type":"city","searchable":true},{"name":"Macau","country_name":"Macau","country_code":"MO","code":"MFM","index_strings":["mfm","macau","mo"],"timezone":"Asia\/Macau","weight":0,"coordinates":{"lat":22.1638446,"lon":113.5549937},"type":"city","searchable":true},{"name":"Ivanovo","country_name":"Russia","country_code":"RU","code":"IWA","index_strings":["ivanovo yuzhny airport","iwa","ivanovo","russia","ru"],"timezone":"Europe\/Moscow","weight":0,"coordinates":{"lat":56.942955,"lon":40.944546},"type":"city","searchable":true},{"name":"Fuoshan","country_name":"China","country_code":"CN","code":"FUO","index_strings":["fuo","fuoshan","china","cn"],"timezone":"Asia\/Shanghai","weight":0,"coordinates":{"lat":23.021548,"lon":113.121416},"type":"city","searchable":true},{"name":"Haugesund","country_name":"Norway","country_code":"NO","code":"HAU","index_strings":["haugesund airport","hau","haugesund","norway","no"],"timezone":"Europe\/Oslo","weight":0,"coordinates":{"lat":59.344765,"lon":5.215903},"type":"city","searchable":true},{"name":"Athens","country_name":"Greece","country_code":"GR","code":"ATH","index_strings":["eleftherios venizelos international airport","ath","athens","greece","gr"],"timezone":"Europe\/Athens","weight":0,"coordinates":{"lat":37.93635,"lon":23.946486},"type":"city","searchable":true},{"name":"Bata","country_name":"Equatorial Guinea","country_code":"GQ","code":"BSG","index_strings":["bata airport","bsg","bata","equatorial guinea","gq"],"timezone":"Africa\/Malabo","weight":0,"coordinates":{"lat":1.906667,"lon":9.802222},"type":"city","searchable":true},{"name":"Helena","country_name":"United States","country_code":"US","code":"HLN","index_strings":["helena regional airport","hln","helena","united states","us"],"timezone":"America\/Denver","weight":0,"coordinates":{"lat":46.61052,"lon":-111.99018},"type":"city","searchable":true}]