[{"type":"country","code":"DE","name":"Deutschland","weight":70171,"searchable":true,"cases":null,"capital":{"code":"BER","type":"city"},"index_strings":["de","deutschland","germany"]},{"type":"country","code":"TR","name":"Türkei","weight":63328,"searchable":true,"cases":null,"capital":{"code":"ANK","type":"city"},"index_strings":["tr","türkei","turkey"]},{"type":"country","code":"US","name":"Vereinigte Staaten","weight":42101,"searchable":true,"cases":null,"capital":{"code":"WAS","type":"city"},"index_strings":["staaten","vereinigte","us","vereinigte staaten","united states"]},{"type":"country","code":"ES","name":"Spanien","weight":33546,"searchable":true,"cases":null,"capital":{"code":"MAD","type":"city"},"index_strings":["es","spanien","spain"]},{"type":"city","code":"IST","name":"Istanbul","en_name":"Istanbul","coordinates":{"lat":40.976665,"lon":28.815277},"weight":25646,"searchable":true,"timezone":"Europe/Istanbul","state_code":null,"country_name":"Türkei","country_code":"TR","main_airport_name":null,"cases":null,"index_strings":["ist","istanbul","tr","türkei","turkey"]},{"type":"country","code":"TH","name":"Thailand","weight":19560,"searchable":true,"cases":null,"capital":{"code":"BKK","type":"city"},"index_strings":["th","thailand"]},{"type":"country","code":"RU","name":"Russische Föderation","weight":16024,"searchable":true,"cases":null,"capital":{"code":"MOW","type":"city"},"index_strings":["föderation","russische","ru","russische föderation","russia"]},{"type":"city","code":"FRA","name":"Frankfurt am Main","en_name":"Frankfurt","coordinates":{"lat":50.050735,"lon":8.570773},"weight":14270,"searchable":true,"timezone":"Europe/Berlin","state_code":null,"country_name":"Deutschland","country_code":"DE","main_airport_name":null,"cases":null,"index_strings":["fra","frankfurt am main","frankfurt","de","deutschland","germany"]},{"type":"airport","code":"FRA","name":"Frankfurt Main","coordinates":{"lat":50.050735,"lon":8.570773},"weight":14160,"searchable":true,"timezone":"Europe/Berlin","en_city_name":"Frankfurt","city_name":"Frankfurt am Main","city_code":"FRA","state_code":null,"country_name":"Deutschland","country_code":"DE","cases":null,"city_cases":null,"country_cases":null,"index_strings":["fra","frankfurt main","frankfurt airport","frankfurt am main","frankfurt","de","deutschland","germany"]},{"type":"country","code":"GR","name":"Griechenland","weight":13233,"searchable":true,"cases":null,"capital":{"code":"ATH","type":"city"},"index_strings":["gr","griechenland","greece"]},{"type":"city","code":"AYT","name":"Antalya","en_name":"Antalya","coordinates":{"lat":36.89928,"lon":30.80135},"weight":13083,"searchable":true,"timezone":"Europe/Istanbul","state_code":null,"country_name":"Türkei","country_code":"TR","main_airport_name":"Antalya","cases":null,"index_strings":["antalya","ayt","tr","türkei","turkey"]},{"type":"airport","code":"AYT","name":"Antalya","coordinates":{"lat":36.89928,"lon":30.80135},"weight":13083,"searchable":false,"timezone":"Europe/Istanbul","en_city_name":"Antalya","city_name":"Antalya","city_code":"AYT","state_code":null,"country_name":"Türkei","country_code":"TR","cases":null,"city_cases":null,"country_cases":null,"index_strings":["ayt","antalya","antalya airport","tr","türkei","turkey"]},{"type":"country","code":"IT","name":"Italien","weight":12406,"searchable":true,"cases":null,"capital":{"code":"ROM","type":"city"},"index_strings":["it","italien","italy"]},{"type":"city","code":"BKK","name":"Bangkok","en_name":"Bangkok","coordinates":{"lat":13.7234186,"lon":100.4762319},"weight":12163,"searchable":true,"timezone":"Asia/Bangkok","state_code":null,"country_name":"Thailand","country_code":"TH","main_airport_name":null,"cases":null,"index_strings":["bkk","bangkok","th","thailand"]},{"type":"airport","code":"BKK","name":"Suvarnabhumi International","coordinates":{"lat":13.693062,"lon":100.752045},"weight":11957,"searchable":true,"timezone":"Asia/Bangkok","en_city_name":"Bangkok","city_name":"Bangkok","city_code":"BKK","state_code":null,"country_name":"Thailand","country_code":"TH","cases":null,"city_cases":null,"country_cases":null,"index_strings":["bkk","suvarnabhumi international","suvarnabhumi airport","bangkok","th","thailand"]},{"type":"city","code":"DUS","name":"Düsseldorf","en_name":"Dusseldorf","coordinates":{"lat":51.2249429,"lon":6.7756524},"weight":10127,"searchable":true,"timezone":"Europe/Berlin","state_code":null,"country_name":"Deutschland","country_code":"DE","main_airport_name":null,"cases":null,"index_strings":["dus","düsseldorf","dusseldorf","de","deutschland","germany"]},{"type":"airport","code":"DUS","name":"Düsseldorf International","coordinates":{"lat":51.278328,"lon":6.76558},"weight":9994,"searchable":true,"timezone":"Europe/Berlin","en_city_name":"Dusseldorf","city_name":"Düsseldorf","city_code":"DUS","state_code":null,"country_name":"Deutschland","country_code":"DE","cases":null,"city_cases":null,"country_cases":null,"index_strings":["dus","düsseldorf international","dusseldorf international airport","düsseldorf","dusseldorf","de","deutschland","germany"]},{"type":"city","code":"PMI","name":"Palma de Mallorca","en_name":"Palma Mallorca","coordinates":{"lat":39.547653,"lon":2.730388},"weight":9966,"searchable":true,"timezone":"Europe/Madrid","state_code":null,"country_name":"Spanien","country_code":"ES","main_airport_name":"Palma de Mallorca","cases":null,"index_strings":["palma de mallorca","pmi","palma mallorca","es","spanien","spain"]},{"type":"airport","code":"PMI","name":"Palma de Mallorca","coordinates":{"lat":39.547653,"lon":2.730388},"weight":9966,"searchable":false,"timezone":"Europe/Madrid","en_city_name":"Palma Mallorca","city_name":"Palma de Mallorca","city_code":"PMI","state_code":null,"country_name":"Spanien","country_code":"ES","cases":null,"city_cases":null,"country_cases":null,"index_strings":["pmi","palma de mallorca","palma de mallorca airport","palma mallorca","es","spanien","spain"]},{"type":"city","code":"BER","name":"Berlin","en_name":"Berlin","coordinates":{"lat":52.5234051,"lon":13.4113999},"weight":9260,"searchable":true,"timezone":"Europe/Berlin","state_code":null,"country_name":"Deutschland","country_code":"DE","main_airport_name":null,"cases":null,"index_strings":["ber","berlin","de","deutschland","germany"]},{"type":"city","code":"MUC","name":"München","en_name":"Munich","coordinates":{"lat":48.1391265,"lon":11.5801863},"weight":9250,"searchable":true,"timezone":"Europe/Berlin","state_code":null,"country_name":"Deutschland","country_code":"DE","main_airport_name":null,"cases":null,"index_strings":["muc","münchen","munich","de","deutschland","germany"]},{"type":"airport","code":"MUC","name":"Franz Josef Strauß","coordinates":{"lat":48.353004,"lon":11.790143},"weight":9208,"searchable":true,"timezone":"Europe/Berlin","en_city_name":"Munich","city_name":"München","city_code":"MUC","state_code":null,"country_name":"Deutschland","country_code":"DE","cases":null,"city_cases":null,"country_cases":null,"index_strings":["muc","franz josef strauß","franz josef strauss airport","münchen","munich","de","deutschland","germany"]},{"type":"country","code":"CN","name":"China","weight":8303,"searchable":true,"cases":null,"capital":{"code":"BJS","type":"city"},"index_strings":["cn","china"]},{"type":"country","code":"AT","name":"Österreich","weight":7461,"searchable":true,"cases":null,"capital":{"code":"VIE","type":"city"},"index_strings":["at","österreich","austria"]},{"type":"country","code":"IN","name":"Indien","weight":7250,"searchable":true,"cases":null,"capital":{"code":"DEL","type":"city"},"index_strings":["in","indien","india"]},{"type":"country","code":"EG","name":"Ägypten","weight":7157,"searchable":true,"cases":null,"capital":{"code":"CAI","type":"city"},"index_strings":["eg","ägypten","egypt"]},{"type":"country","code":"CH","name":"Schweiz","weight":6548,"searchable":true,"cases":null,"capital":{"code":"BRN","type":"city"},"index_strings":["ch","schweiz","switzerland"]},{"type":"city","code":"ANK","name":"Ankara","en_name":"Ankara","coordinates":{"lat":39.91825,"lon":32.85333},"weight":6494,"searchable":true,"timezone":"Europe/Istanbul","state_code":null,"country_name":"Türkei","country_code":"TR","main_airport_name":null,"cases":null,"index_strings":["ankara","ank","tr","türkei","turkey"]},{"type":"country","code":"GB","name":"Vereinigte Königreich","weight":6237,"searchable":true,"cases":null,"capital":{"code":"LON","type":"city"},"index_strings":["königreich","vereinigte","англия","gb","vereinigte königreich","united kingdom"]},{"type":"country","code":"AU","name":"Australien","weight":6149,"searchable":true,"cases":null,"capital":{"code":"CBR","type":"city"},"index_strings":["au","australien","australia"]},{"type":"city","code":"HAM","name":"Hamburg","en_name":"Hamburg","coordinates":{"lat":53.553813,"lon":9.991586},"weight":6075,"searchable":true,"timezone":"Europe/Berlin","state_code":null,"country_name":"Deutschland","country_code":"DE","main_airport_name":null,"cases":null,"index_strings":["ham","hamburg","de","deutschland","germany"]},{"type":"country","code":"FR","name":"Frankreich","weight":6067,"searchable":true,"cases":null,"capital":{"code":"PAR","type":"city"},"index_strings":["fr","frankreich","france"]},{"type":"airport","code":"HAM","name":"Hamburg-Fuhlsbüttel","coordinates":{"lat":53.63128,"lon":10.006414},"weight":6029,"searchable":true,"timezone":"Europe/Berlin","en_city_name":"Hamburg","city_name":"Hamburg","city_code":"HAM","state_code":null,"country_name":"Deutschland","country_code":"DE","cases":null,"city_cases":null,"country_cases":null,"index_strings":["ham","hamburg-fuhlsbüttel","hamburg airport","hamburg","de","deutschland","germany"]},{"type":"country","code":"PT","name":"Portugal","weight":5962,"searchable":true,"cases":null,"capital":{"code":"LIS","type":"city"},"index_strings":["pt","portugal"]},{"type":"country","code":"UA","name":"Ukraine","weight":5547,"searchable":true,"cases":null,"capital":{"code":"IEV","type":"city"},"index_strings":["ua","ukraine"]},{"type":"city","code":"VIE","name":"Wien","en_name":"Vienna","coordinates":{"lat":48.2081743,"lon":16.3738189},"weight":5459,"searchable":true,"timezone":"Europe/Vienna","state_code":null,"country_name":"Österreich","country_code":"AT","main_airport_name":"Wien-Schwechat","cases":null,"index_strings":["wien-schwechat","vie","wien","vienna","at","österreich","austria"]},{"type":"airport","code":"VIE","name":"Wien-Schwechat","coordinates":{"lat":48.11972,"lon":16.563583},"weight":5459,"searchable":false,"timezone":"Europe/Vienna","en_city_name":"Vienna","city_name":"Wien","city_code":"VIE","state_code":null,"country_name":"Österreich","country_code":"AT","cases":null,"city_cases":null,"country_cases":null,"index_strings":["vie","wien-schwechat","vienna international airport","wien","vienna","at","österreich","austria"]},{"type":"city","code":"CGN","name":"Köln","en_name":"Cologne","coordinates":{"lat":50.9406645,"lon":6.9599115},"weight":5307,"searchable":true,"timezone":"Europe/Berlin","state_code":null,"country_name":"Deutschland","country_code":"DE","main_airport_name":"Köln Bonn","cases":null,"index_strings":["köln bonn","cgn","köln","cologne","de","deutschland","germany"]},{"type":"city","code":"BCN","name":"Barcelona","en_name":"Barcelona","coordinates":{"lat":41.387917,"lon":2.1699187},"weight":5288,"searchable":true,"timezone":"Europe/Madrid","state_code":null,"country_name":"Spanien","country_code":"ES","main_airport_name":"Barcelona El Prat","cases":null,"index_strings":["barcelona el prat","bcn","barcelona","es","spanien","spain"]},{"type":"airport","code":"BCN","name":"Barcelona El Prat","coordinates":{"lat":41.30303,"lon":2.07593},"weight":5288,"searchable":false,"timezone":"Europe/Madrid","en_city_name":"Barcelona","city_name":"Barcelona","city_code":"BCN","state_code":null,"country_name":"Spanien","country_code":"ES","cases":null,"city_cases":null,"country_cases":null,"index_strings":["bcn","barcelona el prat","barcelona-el prat airport","barcelona","es","spanien","spain"]},{"type":"airport","code":"CGN","name":"Köln Bonn","coordinates":{"lat":50.878365,"lon":7.122224},"weight":5266,"searchable":false,"timezone":"Europe/Berlin","en_city_name":"Cologne","city_name":"Köln","city_code":"CGN","state_code":null,"country_name":"Deutschland","country_code":"DE","cases":null,"city_cases":null,"country_cases":null,"index_strings":["cgn","köln bonn","cologne bonn airport","köln","cologne","de","deutschland","germany"]},{"type":"city","code":"STR","name":"Stuttgart","en_name":"Stuttgart","coordinates":{"lat":48.7771056,"lon":9.1807688},"weight":5227,"searchable":true,"timezone":"Europe/Berlin","state_code":null,"country_name":"Deutschland","country_code":"DE","main_airport_name":"Stuttgart","cases":null,"index_strings":["stuttgart","str","de","deutschland","germany"]},{"type":"country","code":"CA","name":"Kanada","weight":5210,"searchable":true,"cases":null,"capital":{"code":"YOW","type":"city"},"index_strings":["ca","kanada","canada"]},{"type":"airport","code":"STR","name":"Stuttgart","coordinates":{"lat":48.69073,"lon":9.193624},"weight":5200,"searchable":false,"timezone":"Europe/Berlin","en_city_name":"Stuttgart","city_name":"Stuttgart","city_code":"STR","state_code":null,"country_name":"Deutschland","country_code":"DE","cases":null,"city_cases":null,"country_cases":null,"index_strings":["str","stuttgart","stuttgart airport","de","deutschland","germany"]},{"type":"city","code":"ZRH","name":"Zürich","en_name":"Zurich","coordinates":{"lat":47.367347,"lon":8.5500025},"weight":5136,"searchable":true,"timezone":"Europe/Zurich","state_code":null,"country_name":"Schweiz","country_code":"CH","main_airport_name":"Zürich-Kloten","cases":null,"index_strings":["zürich-kloten","zrh","zürich","zurich","ch","schweiz","switzerland"]},{"type":"airport","code":"ZRH","name":"Zürich-Kloten","coordinates":{"lat":47.450603,"lon":8.561746},"weight":5136,"searchable":false,"timezone":"Europe/Zurich","en_city_name":"Zurich","city_name":"Zürich","city_code":"ZRH","state_code":null,"country_name":"Schweiz","country_code":"CH","cases":null,"city_cases":null,"country_cases":null,"index_strings":["zrh","zürich-kloten","zurich airport","zürich","zurich","ch","schweiz","switzerland"]},{"type":"country","code":"AE","name":"Vereinigte Arabische Emirate","weight":4844,"searchable":true,"cases":null,"capital":{"code":"AUH","type":"city"},"index_strings":["arabische","emirate","vereinigte","ae","vereinigte arabische emirate","united arab emirates"]},{"type":"country","code":"MA","name":"Marokko","weight":4648,"searchable":true,"cases":null,"capital":{"code":"RBA","type":"city"},"index_strings":["ma","marokko","morocco"]},{"type":"country","code":"NL","name":"Niederlande","weight":4341,"searchable":true,"cases":null,"capital":{"code":"AMS","type":"city"},"index_strings":["голландия","nl","niederlande","netherlands"]},{"type":"country","code":"ID","name":"Indonesien","weight":4176,"searchable":true,"cases":null,"capital":{"code":"JKT","type":"city"},"index_strings":["id","indonesien","indonesia"]},{"type":"country","code":"PH","name":"Philippinen","weight":4077,"searchable":true,"cases":null,"capital":{"code":"MNL","type":"city"},"index_strings":["ph","philippinen","philippines"]},{"type":"city","code":"LAX","name":"Los Angeles","en_name":"Los Angeles","coordinates":{"lat":34.0522342,"lon":-118.2436849},"weight":3951,"searchable":true,"timezone":"America/Los_Angeles","state_code":"CA","country_name":"Vereinigte Staaten","country_code":"US","main_airport_name":null,"cases":null,"index_strings":["lax","los angeles","us","vereinigte staaten","united states"]},{"type":"city","code":"MIA","name":"Miami","en_name":"Miami","coordinates":{"lat":25.7889689,"lon":-80.2264393},"weight":3944,"searchable":true,"timezone":"America/New_York","state_code":"FL","country_name":"Vereinigte Staaten","country_code":"US","main_airport_name":null,"cases":null,"index_strings":["mia","miami","us","vereinigte staaten","united states"]},{"type":"airport","code":"LAX","name":"Los Angeles International","coordinates":{"lat":33.943398,"lon":-118.40828},"weight":3939,"searchable":true,"timezone":"America/Los_Angeles","en_city_name":"Los Angeles","city_name":"Los Angeles","city_code":"LAX","state_code":"CA","country_name":"Vereinigte Staaten","country_code":"US","cases":null,"city_cases":null,"country_cases":null,"index_strings":["lax","los angeles international","los angeles international airport","los angeles","us","vereinigte staaten","united states"]},{"type":"airport","code":"MIA","name":"Miami International Airport","coordinates":{"lat":25.796,"lon":-80.27824},"weight":3935,"searchable":true,"timezone":"America/New_York","en_city_name":"Miami","city_name":"Miami","city_code":"MIA","state_code":"FL","country_name":"Vereinigte Staaten","country_code":"US","cases":null,"city_cases":null,"country_cases":null,"index_strings":["mia","miami international airport","miami","us","vereinigte staaten","united states"]},{"type":"city","code":"AMS","name":"Amsterdam","en_name":"Amsterdam","coordinates":{"lat":52.3730556,"lon":4.8922222},"weight":3721,"searchable":true,"timezone":"Europe/Amsterdam","state_code":null,"country_name":"Niederlande","country_code":"NL","main_airport_name":"Schiphol","cases":null,"index_strings":["schiphol","евровидение","eurovision","little big","littlebig","ams","amsterdam","nl","niederlande","netherlands"]},{"type":"airport","code":"AMS","name":"Schiphol","coordinates":{"lat":52.30907,"lon":4.763385},"weight":3710,"searchable":false,"timezone":"Europe/Amsterdam","en_city_name":"Amsterdam","city_name":"Amsterdam","city_code":"AMS","state_code":null,"country_name":"Niederlande","country_code":"NL","cases":null,"city_cases":null,"country_cases":null,"index_strings":["ams","schiphol","amsterdam airport schiphol","amsterdam","nl","niederlande","netherlands"]},{"type":"country","code":"MX","name":"Mexiko","weight":3609,"searchable":true,"cases":null,"capital":{"code":"MEX","type":"city"},"index_strings":["mx","mexiko","mexico"]},{"type":"country","code":"BR","name":"Brasilien","weight":3572,"searchable":true,"cases":null,"capital":{"code":"BSB","type":"city"},"index_strings":["br","brasilien","brazil"]},{"type":"city","code":"DXB","name":"Dubai","en_name":"Dubai","coordinates":{"lat":25.2644444,"lon":55.3116667},"weight":3405,"searchable":true,"timezone":"Asia/Dubai","state_code":null,"country_name":"Vereinigte Arabische Emirate","country_code":"AE","main_airport_name":null,"cases":null,"index_strings":["dxb","dubai","ae","vereinigte arabische emirate","united arab emirates"]},{"type":"country","code":"MY","name":"Malaysia","weight":3398,"searchable":true,"cases":null,"capital":{"code":"KUL","type":"city"},"index_strings":["my","malaysia"]},{"type":"airport","code":"DXB","name":"Dubai International","coordinates":{"lat":25.248665,"lon":55.352917},"weight":3309,"searchable":true,"timezone":"Asia/Dubai","en_city_name":"Dubai","city_name":"Dubai","city_code":"DXB","state_code":null,"country_name":"Vereinigte Arabische Emirate","country_code":"AE","cases":null,"city_cases":null,"country_cases":null,"index_strings":["dxb","dubai international","dubai airport","dubai","ae","vereinigte arabische emirate","united arab emirates"]},{"type":"country","code":"IR","name":"Iran","weight":3271,"searchable":true,"cases":null,"capital":{"code":"THR","type":"city"},"index_strings":["ir","iran"]},{"type":"country","code":"PL","name":"Polen","weight":3254,"searchable":true,"cases":null,"capital":{"code":"WAW","type":"city"},"index_strings":["pl","polen","poland"]},{"type":"city","code":"SKG","name":"Thessaloniki","en_name":"Thessaloniki","coordinates":{"lat":40.520832,"lon":22.972221},"weight":3223,"searchable":true,"timezone":"Europe/Athens","state_code":null,"country_name":"Griechenland","country_code":"GR","main_airport_name":"Thessaloniki","cases":null,"index_strings":["thessaloniki","skg","gr","griechenland","greece"]},{"type":"airport","code":"SKG","name":"Thessaloniki","coordinates":{"lat":40.520832,"lon":22.972221},"weight":3223,"searchable":false,"timezone":"Europe/Athens","en_city_name":"Thessaloniki","city_name":"Thessaloniki","city_code":"SKG","state_code":null,"country_name":"Griechenland","country_code":"GR","cases":null,"city_cases":null,"country_cases":null,"index_strings":["skg","thessaloniki","thessaloniki international airport","gr","griechenland","greece"]},{"type":"country","code":"HR","name":"Kroatien","weight":3215,"searchable":true,"cases":null,"capital":{"code":"ZAG","type":"city"},"index_strings":["hr","kroatien","croatia"]},{"type":"country","code":"CU","name":"Kuba","weight":3201,"searchable":true,"cases":null,"capital":{"code":"HAV","type":"city"},"index_strings":["cu","kuba","cuba"]},{"type":"city","code":"MAD","name":"Madrid","en_name":"Madrid","coordinates":{"lat":40.4166909,"lon":-3.7003454},"weight":3193,"searchable":true,"timezone":"Europe/Madrid","state_code":null,"country_name":"Spanien","country_code":"ES","main_airport_name":null,"cases":null,"index_strings":["mad","madrid","es","spanien","spain"]},{"type":"airport","code":"MAD","name":"Madrid","coordinates":{"lat":40.46515,"lon":-3.570209},"weight":3193,"searchable":true,"timezone":"Europe/Madrid","en_city_name":"Madrid","city_name":"Madrid","city_code":"MAD","state_code":null,"country_name":"Spanien","country_code":"ES","cases":null,"city_cases":null,"country_cases":null,"index_strings":["mad","madrid","adolfo suarez madrid-barajas airport","es","spanien","spain"]},{"type":"country","code":"DO","name":"Dominikanische Republik","weight":3160,"searchable":true,"cases":null,"capital":{"code":"PUJ","type":"city"},"index_strings":["dominikanische","republik","do","dominikanische republik","dominican republic"]},{"type":"country","code":"VN","name":"Vietnam","weight":3139,"searchable":true,"cases":null,"capital":{"code":"HAN","type":"city"},"index_strings":["vn","vietnam"]},{"type":"country","code":"NO","name":"Norwegen","weight":3069,"searchable":true,"cases":null,"capital":{"code":"OSL","type":"city"},"index_strings":["no","norwegen","norway"]},{"type":"country","code":"NZ","name":"Neuseeland","weight":3058,"searchable":true,"cases":null,"capital":{"code":"WLG","type":"city"},"index_strings":["new","zealand","nz","neuseeland","new zealand"]},{"type":"country","code":"ZA","name":"Südafrika","weight":3026,"searchable":true,"cases":null,"capital":{"code":"PRY","type":"city"},"index_strings":["africa","south","za","südafrika","south africa"]},{"type":"country","code":"RS","name":"Serbien","weight":2967,"searchable":true,"cases":null,"capital":{"code":"BEG","type":"city"},"index_strings":["rs","serbien","serbia"]},{"type":"city","code":"HKT","name":"Phuket","en_name":"Phuket","coordinates":{"lat":8.107619,"lon":98.306435},"weight":2945,"searchable":true,"timezone":"Asia/Bangkok","state_code":null,"country_name":"Thailand","country_code":"TH","main_airport_name":"Phuket","cases":null,"index_strings":["phuket","hkt","th","thailand"]},{"type":"airport","code":"HKT","name":"Phuket","coordinates":{"lat":8.107619,"lon":98.306435},"weight":2945,"searchable":false,"timezone":"Asia/Bangkok","en_city_name":"Phuket","city_name":"Phuket","city_code":"HKT","state_code":null,"country_name":"Thailand","country_code":"TH","cases":null,"city_cases":null,"country_cases":null,"index_strings":["hkt","phuket","phuket international airport","th","thailand"]},{"type":"country","code":"TN","name":"Tunesien","weight":2939,"searchable":true,"cases":null,"capital":{"code":"TUN","type":"city"},"index_strings":["tn","tunesien","tunisia"]},{"type":"city","code":"ATH","name":"Athen","en_name":"Athens","coordinates":{"lat":37.93635,"lon":23.946486},"weight":2743,"searchable":true,"timezone":"Europe/Athens","state_code":null,"country_name":"Griechenland","country_code":"GR","main_airport_name":"Athen-Eleftherios Venizelos","cases":null,"index_strings":["athen-eleftherios venizelos","ath","athen","athens","gr","griechenland","greece"]},{"type":"airport","code":"ATH","name":"Athen-Eleftherios Venizelos","coordinates":{"lat":37.93635,"lon":23.946486},"weight":2743,"searchable":false,"timezone":"Europe/Athens","en_city_name":"Athens","city_name":"Athen","city_code":"ATH","state_code":null,"country_name":"Griechenland","country_code":"GR","cases":null,"city_cases":null,"country_cases":null,"index_strings":["ath","athen-eleftherios venizelos","eleftherios venizelos international airport","athen","athens","gr","griechenland","greece"]},{"type":"city","code":"ASR","name":"Kayseri","en_name":"Kayseri","coordinates":{"lat":38.7742,"lon":35.490707},"weight":2718,"searchable":true,"timezone":"Europe/Istanbul","state_code":null,"country_name":"Türkei","country_code":"TR","main_airport_name":"Kayseri","cases":null,"index_strings":["kayseri","кэйзери","asr","tr","türkei","turkey"]},{"type":"airport","code":"ASR","name":"Kayseri","coordinates":{"lat":38.7742,"lon":35.490707},"weight":2718,"searchable":false,"timezone":"Europe/Istanbul","en_city_name":"Kayseri","city_name":"Kayseri","city_code":"ASR","state_code":null,"country_name":"Türkei","country_code":"TR","cases":null,"city_cases":null,"country_cases":null,"index_strings":["кэйзери","asr","kayseri","kayseri airport","tr","türkei","turkey"]},{"type":"city","code":"HRG","name":"Hurghada","en_name":"Hurghada","coordinates":{"lat":27.189156,"lon":33.8055},"weight":2682,"searchable":true,"timezone":"Africa/Cairo","state_code":null,"country_name":"Ägypten","country_code":"EG","main_airport_name":"Hurghada","cases":null,"index_strings":["hurghada","hrg","eg","ägypten","egypt"]},{"type":"airport","code":"HRG","name":"Hurghada","coordinates":{"lat":27.189156,"lon":33.8055},"weight":2682,"searchable":false,"timezone":"Africa/Cairo","en_city_name":"Hurghada","city_name":"Hurghada","city_code":"HRG","state_code":null,"country_name":"Ägypten","country_code":"EG","cases":null,"city_cases":null,"country_cases":null,"index_strings":["hrg","hurghada","hurghada international airport","eg","ägypten","egypt"]},{"type":"city","code":"LPA","name":"Palmas de Gran Canaria","en_name":"Las Palmas","coordinates":{"lat":27.938944,"lon":-15.389351},"weight":2628,"searchable":true,"timezone":"Atlantic/Canary","state_code":null,"country_name":"Spanien","country_code":"ES","main_airport_name":"Las Palmas","cases":null,"index_strings":["las palmas","lpa","palmas de gran canaria","es","spanien","spain"]},{"type":"airport","code":"LPA","name":"Las Palmas","coordinates":{"lat":27.938944,"lon":-15.389351},"weight":2628,"searchable":false,"timezone":"Atlantic/Canary","en_city_name":"Las Palmas","city_name":"Palmas de Gran Canaria","city_code":"LPA","state_code":null,"country_name":"Spanien","country_code":"ES","cases":null,"city_cases":null,"country_cases":null,"index_strings":["lpa","las palmas","gran canaria airport","palmas de gran canaria","es","spanien","spain"]},{"type":"country","code":"IE","name":"Irland","weight":2557,"searchable":true,"cases":null,"capital":{"code":"DUB","type":"city"},"index_strings":["ie","irland","ireland"]},{"type":"city","code":"HAJ","name":"Hannover","en_name":"Hanover","coordinates":{"lat":52.3720683,"lon":9.7356861},"weight":2500,"searchable":true,"timezone":"Europe/Berlin","state_code":null,"country_name":"Deutschland","country_code":"DE","main_airport_name":"Hannover","cases":null,"index_strings":["hannover","haj","hanover","de","deutschland","germany"]},{"type":"airport","code":"HAJ","name":"Hannover","coordinates":{"lat":52.459255,"lon":9.694766},"weight":2481,"searchable":false,"timezone":"Europe/Berlin","en_city_name":"Hanover","city_name":"Hannover","city_code":"HAJ","state_code":null,"country_name":"Deutschland","country_code":"DE","cases":null,"city_cases":null,"country_cases":null,"index_strings":["haj","hannover","hannover airport","hanover","de","deutschland","germany"]},{"type":"country","code":"LB","name":"Libanon","weight":2435,"searchable":true,"cases":null,"capital":null,"index_strings":["lb","libanon","lebanon"]},{"type":"city","code":"BEY","name":"Beirut","en_name":"Beirut","coordinates":{"lat":33.826073,"lon":35.49308},"weight":2432,"searchable":true,"timezone":"Asia/Beirut","state_code":null,"country_name":"Libanon","country_code":"LB","main_airport_name":"Rafiq-Hariri-Flughafen","cases":null,"index_strings":["rafiq-hariri-flughafen","bey","beirut","lb","libanon","lebanon"]},{"type":"airport","code":"BEY","name":"Rafiq-Hariri-Flughafen","coordinates":{"lat":33.826073,"lon":35.49308},"weight":2432,"searchable":false,"timezone":"Asia/Beirut","en_city_name":"Beirut","city_name":"Beirut","city_code":"BEY","state_code":null,"country_name":"Libanon","country_code":"LB","cases":null,"city_cases":null,"country_cases":null,"index_strings":["bey","rafiq-hariri-flughafen","beirut-rafic hariri international airport","beirut","lb","libanon","lebanon"]},{"type":"country","code":"KZ","name":"Kasachstan","weight":2369,"searchable":true,"cases":null,"capital":{"code":"TSE","type":"city"},"index_strings":["kz","kasachstan","kazakhstan"]},{"type":"city","code":"SFO","name":"San Francisco","en_name":"San Francisco","coordinates":{"lat":37.7749295,"lon":-122.4194155},"weight":2361,"searchable":true,"timezone":"America/Los_Angeles","state_code":"CA","country_name":"Vereinigte Staaten","country_code":"US","main_airport_name":"San Francisco International","cases":null,"index_strings":["san francisco international","sfo","san francisco","us","vereinigte staaten","united states"]},{"type":"airport","code":"SFO","name":"San Francisco International","coordinates":{"lat":37.615215,"lon":-122.38988},"weight":2360,"searchable":false,"timezone":"America/Los_Angeles","en_city_name":"San Francisco","city_name":"San Francisco","city_code":"SFO","state_code":"CA","country_name":"Vereinigte Staaten","country_code":"US","cases":null,"city_cases":null,"country_cases":null,"index_strings":["sfo","san francisco international","san francisco international airport","san francisco","us","vereinigte staaten","united states"]},{"type":"city","code":"LIS","name":"Lissabon","en_name":"Lisbon","coordinates":{"lat":38.706932,"lon":-9.1356321},"weight":2326,"searchable":true,"timezone":"Europe/Lisbon","state_code":null,"country_name":"Portugal","country_code":"PT","main_airport_name":"Lissabon-Portela","cases":null,"index_strings":["lissabon-portela","lis","lissabon","lisbon","pt","portugal"]},{"type":"airport","code":"LIS","name":"Lissabon-Portela","coordinates":{"lat":38.770042,"lon":-9.128165},"weight":2326,"searchable":false,"timezone":"Europe/Lisbon","en_city_name":"Lisbon","city_name":"Lissabon","city_code":"LIS","state_code":null,"country_name":"Portugal","country_code":"PT","cases":null,"city_cases":null,"country_cases":null,"index_strings":["lis","lissabon-portela","lisbon portela airport","lissabon","lisbon","pt","portugal"]},{"type":"city","code":"SIP","name":"Simferopol","en_name":"Simferopol","coordinates":{"lat":45.020657,"lon":33.99819},"weight":2304,"searchable":true,"timezone":"Europe/Simferopol","state_code":null,"country_name":"Crimea","country_code":"KX","main_airport_name":"Simferopol","cases":null,"index_strings":["simferopol","sip","kx","crimea"]},{"type":"airport","code":"SIP","name":"Simferopol","coordinates":{"lat":45.020657,"lon":33.99819},"weight":2303,"searchable":false,"timezone":"Europe/Simferopol","en_city_name":"Simferopol","city_name":"Simferopol","city_code":"SIP","state_code":null,"country_name":"Crimea","country_code":"KX","cases":null,"city_cases":null,"country_cases":null,"index_strings":["sip","simferopol","simferopol international airport","kx","crimea"]},{"type":"city","code":"AGP","name":"Málaga","en_name":"Malaga","coordinates":{"lat":36.7196484,"lon":-4.4200163},"weight":2249,"searchable":true,"timezone":"Europe/Madrid","state_code":null,"country_name":"Spanien","country_code":"ES","main_airport_name":"Malaga","cases":null,"index_strings":["malaga","agp","málaga","es","spanien","spain"]},{"type":"airport","code":"AGP","name":"Malaga","coordinates":{"lat":36.675182,"lon":-4.489616},"weight":2247,"searchable":false,"timezone":"Europe/Madrid","en_city_name":"Malaga","city_name":"Málaga","city_code":"AGP","state_code":null,"country_name":"Spanien","country_code":"ES","cases":null,"city_cases":null,"country_cases":null,"index_strings":["agp","malaga","malaga airport","málaga","es","spanien","spain"]},{"type":"city","code":"HER","name":"Heraklion","en_name":"Heraklion","coordinates":{"lat":35.33663,"lon":25.174192},"weight":2225,"searchable":true,"timezone":"Europe/Athens","state_code":null,"country_name":"Griechenland","country_code":"GR","main_airport_name":"Heraklion","cases":null,"index_strings":["heraklion","her","gr","griechenland","greece"]},{"type":"airport","code":"HER","name":"Heraklion","coordinates":{"lat":35.33663,"lon":25.174192},"weight":2225,"searchable":false,"timezone":"Europe/Athens","en_city_name":"Heraklion","city_name":"Heraklion","city_code":"HER","state_code":null,"country_name":"Griechenland","country_code":"GR","cases":null,"city_cases":null,"country_cases":null,"index_strings":["her","heraklion","heraklion airport","gr","griechenland","greece"]},{"type":"city","code":"IEV","name":"Kiew","en_name":"Kyiv","coordinates":{"lat":50.45,"lon":30.5},"weight":2214,"searchable":true,"timezone":"Europe/Kiev","state_code":null,"country_name":"Ukraine","country_code":"UA","main_airport_name":null,"cases":null,"index_strings":["iev","kiew","kyiv","ua","ukraine"]},{"type":"city","code":"KUL","name":"Kuala Lumpur","en_name":"Kuala Lumpur","coordinates":{"lat":3.139003,"lon":101.686855},"weight":2211,"searchable":true,"timezone":"Asia/Kuala_Lumpur","state_code":null,"country_name":"Malaysia","country_code":"MY","main_airport_name":null,"cases":null,"index_strings":["kul","kuala lumpur","my","malaysia"]},{"type":"city","code":"DPS","name":"Denpasar Bali","en_name":"Denpasar","coordinates":{"lat":-8.74446,"lon":115.16331},"weight":2199,"searchable":true,"timezone":"Asia/Makassar","state_code":null,"country_name":"Indonesien","country_code":"ID","main_airport_name":"Internationale Flughafen Ngurah Rai","cases":null,"index_strings":["internationale flughafen ngurah rai","бали","bali","dps","denpasar bali","denpasar","id","indonesien","indonesia"]},{"type":"airport","code":"DPS","name":"Internationale Flughafen Ngurah Rai","coordinates":{"lat":-8.74446,"lon":115.16331},"weight":2199,"searchable":false,"timezone":"Asia/Makassar","en_city_name":"Denpasar","city_name":"Denpasar Bali","city_code":"DPS","state_code":null,"country_name":"Indonesien","country_code":"ID","cases":null,"city_cases":null,"country_cases":null,"index_strings":["dps","internationale flughafen ngurah rai","ngurah rai international airport","denpasar bali","denpasar","id","indonesien","indonesia"]},{"type":"city","code":"DUB","name":"Dublin","en_name":"Dublin","coordinates":{"lat":53.42728,"lon":-6.24357},"weight":2169,"searchable":true,"timezone":"Europe/Dublin","state_code":null,"country_name":"Irland","country_code":"IE","main_airport_name":"Dublin International","cases":null,"index_strings":["dublin international","dub","dublin","ie","irland","ireland"]},{"type":"airport","code":"DUB","name":"Dublin International","coordinates":{"lat":53.42728,"lon":-6.24357},"weight":2169,"searchable":false,"timezone":"Europe/Dublin","en_city_name":"Dublin","city_name":"Dublin","city_code":"DUB","state_code":null,"country_name":"Irland","country_code":"IE","cases":null,"city_cases":null,"country_cases":null,"index_strings":["dub","dublin international","dublin airport","dublin","ie","irland","ireland"]},{"type":"city","code":"ADA","name":"Adana","en_name":"Adana","coordinates":{"lat":37.0,"lon":35.3213333},"weight":2140,"searchable":true,"timezone":"Europe/Istanbul","state_code":null,"country_name":"Türkei","country_code":"TR","main_airport_name":"Adana","cases":null,"index_strings":["adana","ada","tr","türkei","turkey"]},{"type":"airport","code":"ADA","name":"Adana","coordinates":{"lat":36.98503,"lon":35.29736},"weight":2140,"searchable":false,"timezone":"Europe/Istanbul","en_city_name":"Adana","city_name":"Adana","city_code":"ADA","state_code":null,"country_name":"Türkei","country_code":"TR","cases":null,"city_cases":null,"country_cases":null,"index_strings":["ada","adana","adana airport","tr","türkei","turkey"]},{"type":"city","code":"LON","name":"London","en_name":"London","coordinates":{"lat":51.51,"lon":0.06},"weight":2117,"searchable":true,"timezone":"Europe/London","state_code":null,"country_name":"Vereinigte Königreich","country_code":"GB","main_airport_name":null,"cases":null,"index_strings":["lon","london","gb","vereinigte königreich","united kingdom"]},{"type":"country","code":"SG","name":"Singapur","weight":2096,"searchable":true,"cases":null,"capital":{"code":"SIN","type":"city"},"index_strings":["sg","singapur","singapore"]},{"type":"city","code":"SIN","name":"Singapur","en_name":"Singapore","coordinates":{"lat":1.2894365,"lon":103.8499802},"weight":2096,"searchable":true,"timezone":"Asia/Singapore","state_code":null,"country_name":"Singapur","country_code":"SG","main_airport_name":"Singapur","cases":null,"index_strings":["singapur","sin","singapore","sg"]},{"type":"airport","code":"SIN","name":"Singapur","coordinates":{"lat":1.361173,"lon":103.990204},"weight":2085,"searchable":false,"timezone":"Asia/Singapore","en_city_name":"Singapore","city_name":"Singapur","city_code":"SIN","state_code":null,"country_name":"Singapur","country_code":"SG","cases":null,"city_cases":null,"country_cases":null,"index_strings":["sin","singapur","changi international airport","singapore","sg"]},{"type":"country","code":"PK","name":"Pakistan","weight":2049,"searchable":true,"cases":null,"capital":{"code":"ISB","type":"city"},"index_strings":["pk","pakistan"]},{"type":"city","code":"MNL","name":"Manila","en_name":"Manila","coordinates":{"lat":14.5995124,"lon":120.9842195},"weight":2049,"searchable":true,"timezone":"Asia/Manila","state_code":null,"country_name":"Philippinen","country_code":"PH","main_airport_name":"Ninoy Aquino International","cases":null,"index_strings":["ninoy aquino international","mnl","manila","ph","philippinen","philippines"]},{"type":"airport","code":"MNL","name":"Ninoy Aquino International","coordinates":{"lat":14.509602,"lon":121.01251},"weight":2049,"searchable":false,"timezone":"Asia/Manila","en_city_name":"Manila","city_name":"Manila","city_code":"MNL","state_code":null,"country_name":"Philippinen","country_code":"PH","cases":null,"city_cases":null,"country_cases":null,"index_strings":["mnl","ninoy aquino international","ninoy aquino international airport","manila","ph","philippinen","philippines"]},{"type":"city","code":"CAI","name":"Kairo","en_name":"Cairo","coordinates":{"lat":30.120106,"lon":31.40647},"weight":2029,"searchable":true,"timezone":"Africa/Cairo","state_code":null,"country_name":"Ägypten","country_code":"EG","main_airport_name":"Kairo","cases":null,"index_strings":["kairo","cai","cairo","eg","ägypten","egypt"]},{"type":"airport","code":"CAI","name":"Kairo","coordinates":{"lat":30.120106,"lon":31.40647},"weight":2029,"searchable":false,"timezone":"Africa/Cairo","en_city_name":"Cairo","city_name":"Kairo","city_code":"CAI","state_code":null,"country_name":"Ägypten","country_code":"EG","cases":null,"city_cases":null,"country_cases":null,"index_strings":["cai","kairo","cairo international airport","cairo","eg","ägypten","egypt"]},{"type":"country","code":"FI","name":"Finnland","weight":2019,"searchable":true,"cases":null,"capital":{"code":"HEL","type":"city"},"index_strings":["fi","finnland","finland"]},{"type":"country","code":"CZ","name":"Tschechische Republik","weight":2004,"searchable":true,"cases":null,"capital":{"code":"PRG","type":"city"},"index_strings":["republik","tschechische","cz","tschechische republik","czech republic"]},{"type":"country","code":"DK","name":"Dänemark","weight":2002,"searchable":true,"cases":null,"capital":{"code":"CPH","type":"city"},"index_strings":["dk","dänemark","denmark"]},{"type":"country","code":"LK","name":"Sri Lanka","weight":1996,"searchable":true,"cases":null,"capital":{"code":"CMB","type":"city"},"index_strings":["lanka","sri","lk","sri lanka"]},{"type":"country","code":"JP","name":"Japan","weight":1988,"searchable":true,"cases":null,"capital":{"code":"TYO","type":"city"},"index_strings":["jp","japan"]},{"type":"country","code":"IL","name":"Israel","weight":1953,"searchable":true,"cases":null,"capital":{"code":"JRS","type":"city"},"index_strings":["il","israel"]},{"type":"city","code":"AKL","name":"Auckland","en_name":"Auckland","coordinates":{"lat":-36.8484597,"lon":174.7633315},"weight":1938,"searchable":true,"timezone":"Pacific/Auckland","state_code":null,"country_name":"Neuseeland","country_code":"NZ","main_airport_name":"Auckland","cases":null,"index_strings":["auckland","akl","nz","neuseeland","new zealand"]},{"type":"airport","code":"AKL","name":"Auckland","coordinates":{"lat":-37.004787,"lon":174.78352},"weight":1933,"searchable":false,"timezone":"Pacific/Auckland","en_city_name":"Auckland","city_name":"Auckland","city_code":"AKL","state_code":null,"country_name":"Neuseeland","country_code":"NZ","cases":null,"city_cases":null,"country_cases":null,"index_strings":["akl","auckland","auckland airport","nz","neuseeland","new zealand"]},{"type":"country","code":"BG","name":"Bulgarien","weight":1931,"searchable":true,"cases":null,"capital":{"code":"SOF","type":"city"},"index_strings":["bg","bulgarien","bulgaria"]},{"type":"city","code":"SYD","name":"Sydney","en_name":"Sydney","coordinates":{"lat":-33.8689009,"lon":151.2070914},"weight":1908,"searchable":true,"timezone":"Australia/Sydney","state_code":"NS","country_name":"Australien","country_code":"AU","main_airport_name":"Kingsford Smith International","cases":null,"index_strings":["kingsford smith international","syd","sydney","au","australien","australia"]},{"type":"airport","code":"SYD","name":"Kingsford Smith International","coordinates":{"lat":-33.932922,"lon":151.1799},"weight":1907,"searchable":false,"timezone":"Australia/Sydney","en_city_name":"Sydney","city_name":"Sydney","city_code":"SYD","state_code":"NS","country_name":"Australien","country_code":"AU","cases":null,"city_cases":null,"country_cases":null,"index_strings":["syd","kingsford smith international","sydney (kingsford smith) airport","sydney","au","australien","australia"]},{"type":"city","code":"CMB","name":"Colombo","en_name":"Colombo","coordinates":{"lat":6.927468,"lon":79.848358},"weight":1902,"searchable":true,"timezone":"Asia/Colombo","state_code":null,"country_name":"Sri Lanka","country_code":"LK","main_airport_name":"Colombo Bandaranaike International","cases":null,"index_strings":["colombo bandaranaike international","cmb","colombo","lk","sri lanka"]},{"type":"airport","code":"CMB","name":"Colombo Bandaranaike International","coordinates":{"lat":7.174112,"lon":79.8865},"weight":1902,"searchable":false,"timezone":"Asia/Colombo","en_city_name":"Colombo","city_name":"Colombo","city_code":"CMB","state_code":null,"country_name":"Sri Lanka","country_code":"LK","cases":null,"city_cases":null,"country_cases":null,"index_strings":["cmb","colombo bandaranaike international","bandaranaike international airport","colombo","lk","sri lanka"]},{"type":"city","code":"HAV","name":"Havanna","en_name":"Havana","coordinates":{"lat":22.99845,"lon":-82.40818},"weight":1900,"searchable":true,"timezone":"America/Havana","state_code":null,"country_name":"Kuba","country_code":"CU","main_airport_name":"Aeropuerto Internacional José Martí ","cases":null,"index_strings":["aeropuerto internacional josé martí ","hav","havanna","havana","cu","kuba","cuba"]},{"type":"airport","code":"HAV","name":"Aeropuerto Internacional José Martí ","coordinates":{"lat":22.99845,"lon":-82.40818},"weight":1900,"searchable":false,"timezone":"America/Havana","en_city_name":"Havana","city_name":"Havanna","city_code":"HAV","state_code":null,"country_name":"Kuba","country_code":"CU","cases":null,"city_cases":null,"country_cases":null,"index_strings":["hav","aeropuerto internacional josé martí ","jose marti international airport","havanna","havana","cu","kuba","cuba"]},{"type":"city","code":"LAS","name":"Las Vegas","en_name":"Las Vegas","coordinates":{"lat":36.114646,"lon":-115.172816},"weight":1879,"searchable":true,"timezone":"America/Los_Angeles","state_code":"NV","country_name":"Vereinigte Staaten","country_code":"US","main_airport_name":null,"cases":null,"index_strings":["las","las vegas","us","vereinigte staaten","united states"]},{"type":"airport","code":"KUL","name":"Kuala Lumpur International Airport (KLIA)","coordinates":{"lat":2.755672,"lon":101.70539},"weight":1878,"searchable":true,"timezone":"Asia/Kuala_Lumpur","en_city_name":"Kuala Lumpur","city_name":"Kuala Lumpur","city_code":"KUL","state_code":null,"country_name":"Malaysia","country_code":"MY","cases":null,"city_cases":null,"country_cases":null,"index_strings":["kul","kuala lumpur international airport (klia)","kuala lumpur international airport","kuala lumpur","my","malaysia"]},{"type":"airport","code":"LAS","name":"McCarran International Airport Las Vegas","coordinates":{"lat":36.086945,"lon":-115.1486},"weight":1870,"searchable":true,"timezone":"America/Los_Angeles","en_city_name":"Las Vegas","city_name":"Las Vegas","city_code":"LAS","state_code":"NV","country_name":"Vereinigte Staaten","country_code":"US","cases":null,"city_cases":null,"country_cases":null,"index_strings":["las","mccarran international airport las vegas","mccarran international airport","las vegas","us","vereinigte staaten","united states"]},{"type":"city","code":"CHI","name":"Chicago","en_name":"Chicago","coordinates":{"lat":41.8781136,"lon":-87.6297982},"weight":1863,"searchable":true,"timezone":"America/Chicago","state_code":"IL","country_name":"Vereinigte Staaten","country_code":"US","main_airport_name":null,"cases":null,"index_strings":["chi","chicago","us","vereinigte staaten","united states"]},{"type":"city","code":"SHA","name":"Shanghai","en_name":"Shanghai","coordinates":{"lat":31.230393,"lon":121.473704},"weight":1831,"searchable":true,"timezone":"Asia/Shanghai","state_code":null,"country_name":"China","country_code":"CN","main_airport_name":null,"cases":null,"index_strings":["sha","shanghai","cn","china"]},{"type":"city","code":"THR","name":"Teheran","en_name":"Tehran","coordinates":{"lat":35.6961111,"lon":51.4230556},"weight":1818,"searchable":true,"timezone":"Asia/Tehran","state_code":null,"country_name":"Iran","country_code":"IR","main_airport_name":null,"cases":null,"index_strings":["thr","teheran","tehran","ir","iran"]},{"type":"country","code":"BE","name":"Belgien","weight":1795,"searchable":true,"cases":null,"capital":{"code":"BRU","type":"city"},"index_strings":["be","belgien","belgium"]},{"type":"city","code":"TLV","name":"Tel Aviv Yafo","en_name":"Tel Aviv-Yafo","coordinates":{"lat":32.000454,"lon":34.870743},"weight":1789,"searchable":true,"timezone":"Asia/Jerusalem","state_code":null,"country_name":"Israel","country_code":"IL","main_airport_name":null,"cases":null,"index_strings":["tlv","tel aviv yafo","tel aviv-yafo","il","israel"]},{"type":"airport","code":"TLV","name":"Ben Gurion","coordinates":{"lat":32.000454,"lon":34.870743},"weight":1784,"searchable":true,"timezone":"Asia/Jerusalem","en_city_name":"Tel Aviv-Yafo","city_name":"Tel Aviv Yafo","city_code":"TLV","state_code":null,"country_name":"Israel","country_code":"IL","cases":null,"city_cases":null,"country_cases":null,"index_strings":["tlv","ben gurion","ben gurion international airport","tel aviv yafo","tel aviv-yafo","il","israel"]},{"type":"city","code":"LED","name":"Sankt Petersburg","en_name":"Saint Petersburg","coordinates":{"lat":59.939039,"lon":30.315785},"weight":1773,"searchable":true,"timezone":"Europe/Moscow","state_code":null,"country_name":"Russische Föderation","country_code":"RU","main_airport_name":"Pulkowo","cases":null,"index_strings":["pulkowo","sankt petersburg","st petersburg","leningrad","ленинград","питер","спб","led","saint petersburg","ru","russische föderation","russia"]},{"type":"airport","code":"LED","name":"Pulkowo","coordinates":{"lat":59.806084,"lon":30.3083},"weight":1767,"searchable":false,"timezone":"Europe/Moscow","en_city_name":"Saint Petersburg","city_name":"Sankt Petersburg","city_code":"LED","state_code":null,"country_name":"Russische Föderation","country_code":"RU","cases":null,"city_cases":null,"country_cases":null,"index_strings":["led","pulkowo","pulkovo airport","sankt petersburg","saint petersburg","ru","russische föderation","russia"]},{"type":"city","code":"CTA","name":"Catania","en_name":"Catania","coordinates":{"lat":37.47066,"lon":15.065877},"weight":1760,"searchable":true,"timezone":"Europe/Rome","state_code":null,"country_name":"Italien","country_code":"IT","main_airport_name":"Catania","cases":null,"index_strings":["catania","cta","it","italien","italy"]},{"type":"airport","code":"CTA","name":"Catania","coordinates":{"lat":37.47066,"lon":15.065877},"weight":1760,"searchable":false,"timezone":"Europe/Rome","en_city_name":"Catania","city_name":"Catania","city_code":"CTA","state_code":null,"country_name":"Italien","country_code":"IT","cases":null,"city_cases":null,"country_cases":null,"index_strings":["cta","catania","catania-fontanarossa airport","it","italien","italy"]},{"type":"city","code":"DEL","name":"Neu-Delhi","en_name":"Delhi","coordinates":{"lat":28.556555,"lon":77.10079},"weight":1706,"searchable":true,"timezone":"Asia/Kolkata","state_code":null,"country_name":"Indien","country_code":"IN","main_airport_name":"Indira Gandhi International ","cases":null,"index_strings":["indira gandhi international ","del","neu-delhi","delhi","in","indien","india"]},{"type":"airport","code":"DEL","name":"Indira Gandhi International ","coordinates":{"lat":28.556555,"lon":77.10079},"weight":1706,"searchable":false,"timezone":"Asia/Kolkata","en_city_name":"Delhi","city_name":"Neu-Delhi","city_code":"DEL","state_code":null,"country_name":"Indien","country_code":"IN","cases":null,"city_cases":null,"country_cases":null,"index_strings":["del","indira gandhi international ","indira gandhi international airport","neu-delhi","delhi","in","indien","india"]},{"type":"city","code":"NYC","name":"New York","en_name":"New York","coordinates":{"lat":40.7143528,"lon":-74.0059731},"weight":1698,"searchable":true,"timezone":"America/New_York","state_code":"NY","country_name":"Vereinigte Staaten","country_code":"US","main_airport_name":null,"cases":null,"index_strings":["nyc","new york","us","vereinigte staaten","united states"]},{"type":"country","code":"HK","name":"Hongkong","weight":1697,"searchable":false,"cases":null,"capital":{"code":"HKG","type":"city"},"index_strings":["hong","kong","hk","hongkong","hong kong"]},{"type":"city","code":"HKG","name":"Hong Kong","en_name":"Hong Kong","coordinates":{"lat":22.2478599,"lon":114.2033843},"weight":1697,"searchable":true,"timezone":"Asia/Hong_Kong","state_code":null,"country_name":"Hongkong","country_code":"HK","main_airport_name":null,"cases":null,"index_strings":["hkg","hong kong","hk","hongkong"]},{"type":"airport","code":"HKG","name":"Chek Lap Kok","coordinates":{"lat":22.315248,"lon":113.93649},"weight":1696,"searchable":true,"timezone":"Asia/Hong_Kong","en_city_name":"Hong Kong","city_name":"Hong Kong","city_code":"HKG","state_code":null,"country_name":"Hongkong","country_code":"HK","cases":null,"city_cases":null,"country_cases":null,"index_strings":["hkg","chek lap kok","hong kong international airport","hong kong","hk","hongkong"]},{"type":"city","code":"PRG","name":"Prag","en_name":"Prague","coordinates":{"lat":50.0878114,"lon":14.4204598},"weight":1692,"searchable":true,"timezone":"Europe/Prague","state_code":null,"country_name":"Tschechische Republik","country_code":"CZ","main_airport_name":"Václav Havel Prag","cases":null,"index_strings":["václav havel prag","prg","prag","prague","cz","tschechische republik","czech republic"]},{"type":"airport","code":"PRG","name":"Václav Havel Prag","coordinates":{"lat":50.10619,"lon":14.266638},"weight":1689,"searchable":false,"timezone":"Europe/Prague","en_city_name":"Prague","city_name":"Prag","city_code":"PRG","state_code":null,"country_name":"Tschechische Republik","country_code":"CZ","cases":null,"city_cases":null,"country_cases":null,"index_strings":["prg","václav havel prag","vaclav havel airport prague","prag","prague","cz","tschechische republik","czech republic"]},{"type":"country","code":"SA","name":"Saudi-Arabien","weight":1688,"searchable":true,"cases":null,"capital":{"code":"RUH","type":"city"},"index_strings":["arabia","saudi","sa","saudi-arabien","saudi arabia"]},{"type":"country","code":"KE","name":"Kenia","weight":1667,"searchable":true,"cases":null,"capital":{"code":"NBO","type":"city"},"index_strings":["ke","kenia","kenya"]},{"type":"country","code":"GE","name":"Georgien","weight":1652,"searchable":true,"cases":null,"capital":{"code":"TBS","type":"city"},"index_strings":["ge","georgien","georgia"]},{"type":"city","code":"USM","name":"Koh Samui","en_name":"Koh Samui","coordinates":{"lat":9.555315,"lon":100.0628},"weight":1649,"searchable":true,"timezone":"Asia/Bangkok","state_code":null,"country_name":"Thailand","country_code":"TH","main_airport_name":"Samui International ","cases":null,"index_strings":["samui international ","usm","koh samui","th","thailand"]},{"type":"airport","code":"USM","name":"Samui International ","coordinates":{"lat":9.555315,"lon":100.0628},"weight":1649,"searchable":false,"timezone":"Asia/Bangkok","en_city_name":"Koh Samui","city_name":"Koh Samui","city_code":"USM","state_code":null,"country_name":"Thailand","country_code":"TH","cases":null,"city_cases":null,"country_cases":null,"index_strings":["usm","samui international ","koh samui airport","koh samui","th","thailand"]},{"type":"country","code":"SE","name":"Schweden","weight":1633,"searchable":true,"cases":null,"capital":{"code":"STO","type":"city"},"index_strings":["se","schweden","sweden"]},{"type":"city","code":"FUE","name":"Fuerteventura","en_name":"Puerto del Rosario","coordinates":{"lat":28.450605,"lon":-13.869893},"weight":1627,"searchable":true,"timezone":"Atlantic/Canary","state_code":null,"country_name":"Spanien","country_code":"ES","main_airport_name":"Puerto del Rosario","cases":null,"index_strings":["puerto del rosario","fue","fuerteventura","es","spanien","spain"]},{"type":"airport","code":"FUE","name":"Puerto del Rosario","coordinates":{"lat":28.450605,"lon":-13.869893},"weight":1627,"searchable":false,"timezone":"Atlantic/Canary","en_city_name":"Puerto del Rosario","city_name":"Fuerteventura","city_code":"FUE","state_code":null,"country_name":"Spanien","country_code":"ES","cases":null,"city_cases":null,"country_cases":null,"index_strings":["fue","puerto del rosario","fuerteventura airport","fuerteventura","es","spanien","spain"]},{"type":"country","code":"TW","name":"Taiwan","weight":1613,"searchable":true,"cases":null,"capital":{"code":"TPE","type":"city"},"index_strings":["tw","taiwan"]},{"type":"city","code":"CPH","name":"Kastrup","en_name":"Copenhagen","coordinates":{"lat":55.693403,"lon":12.583046},"weight":1583,"searchable":true,"timezone":"Europe/Copenhagen","state_code":null,"country_name":"Dänemark","country_code":"DK","main_airport_name":"Kopenhagen-Kastrup","cases":null,"index_strings":["kopenhagen-kastrup","cph","kastrup","copenhagen","dk","dänemark","denmark"]},{"type":"city","code":"BRU","name":"Brüssel","en_name":"Brussels","coordinates":{"lat":50.8503396,"lon":4.3517103},"weight":1579,"searchable":true,"timezone":"Europe/Brussels","state_code":null,"country_name":"Belgien","country_code":"BE","main_airport_name":null,"cases":null,"index_strings":["bru","brüssel","brussels","be","belgien","belgium"]},{"type":"airport","code":"CPH","name":"Kopenhagen-Kastrup","coordinates":{"lat":55.62905,"lon":12.647601},"weight":1573,"searchable":false,"timezone":"Europe/Copenhagen","en_city_name":"Copenhagen","city_name":"Kastrup","city_code":"CPH","state_code":null,"country_name":"Dänemark","country_code":"DK","cases":null,"city_cases":null,"country_cases":null,"index_strings":["cph","kopenhagen-kastrup","copenhagen airport","kastrup","copenhagen","dk","dänemark","denmark"]},{"type":"country","code":"PE","name":"Peru","weight":1553,"searchable":true,"cases":null,"capital":{"code":"LIM","type":"city"},"index_strings":["pe","peru"]},{"type":"airport","code":"BRU","name":"Brüssel-Zaventem","coordinates":{"lat":50.89717,"lon":4.483602},"weight":1535,"searchable":true,"timezone":"Europe/Brussels","en_city_name":"Brussels","city_name":"Brüssel","city_code":"BRU","state_code":null,"country_name":"Belgien","country_code":"BE","cases":null,"city_cases":null,"country_cases":null,"index_strings":["bru","brüssel-zaventem","brussels airport","brüssel","brussels","be","belgien","belgium"]},{"type":"city","code":"GZT","name":"Gaziantep","en_name":"Gaziantep","coordinates":{"lat":36.944935,"lon":37.473747},"weight":1533,"searchable":true,"timezone":"Europe/Istanbul","state_code":null,"country_name":"Türkei","country_code":"TR","main_airport_name":"Gaziantep","cases":null,"index_strings":["gaziantep","gzt","tr","türkei","turkey"]},{"type":"airport","code":"GZT","name":"Gaziantep","coordinates":{"lat":36.944935,"lon":37.473747},"weight":1533,"searchable":false,"timezone":"Europe/Istanbul","en_city_name":"Gaziantep","city_name":"Gaziantep","city_code":"GZT","state_code":null,"country_name":"Türkei","country_code":"TR","cases":null,"city_cases":null,"country_cases":null,"index_strings":["gzt","gaziantep","gaziantep airport","tr","türkei","turkey"]},{"type":"city","code":"SGN","name":"Ho Chi Minh Stadt","en_name":"Ho Chi Minh City","coordinates":{"lat":10.813045,"lon":106.662476},"weight":1531,"searchable":true,"timezone":"Asia/Ho_Chi_Minh","state_code":null,"country_name":"Vietnam","country_code":"VN","main_airport_name":"Tan Son Nhat International ","cases":null,"index_strings":["tan son nhat international ","sgn","ho chi minh stadt","ho chi minh city","vn","vietnam"]},{"type":"airport","code":"SGN","name":"Tan Son Nhat International ","coordinates":{"lat":10.813045,"lon":106.662476},"weight":1531,"searchable":false,"timezone":"Asia/Ho_Chi_Minh","en_city_name":"Ho Chi Minh City","city_name":"Ho Chi Minh Stadt","city_code":"SGN","state_code":null,"country_name":"Vietnam","country_code":"VN","cases":null,"city_cases":null,"country_cases":null,"index_strings":["sgn","tan son nhat international ","tan son nhat international airport","ho chi minh stadt","ho chi minh city","vn","vietnam"]},{"type":"airport","code":"THR","name":"Tehran","coordinates":{"lat":35.691532,"lon":51.32187},"weight":1512,"searchable":true,"timezone":"Asia/Tehran","en_city_name":"Tehran","city_name":"Teheran","city_code":"THR","state_code":null,"country_name":"Iran","country_code":"IR","cases":null,"city_cases":null,"country_cases":null,"index_strings":["thr","tehran","mehrabad international airport","teheran","ir","iran"]},{"type":"city","code":"FAO","name":"Faro","en_name":"Faro","coordinates":{"lat":37.0153597,"lon":-7.935113},"weight":1503,"searchable":true,"timezone":"Europe/Lisbon","state_code":null,"country_name":"Portugal","country_code":"PT","main_airport_name":"Faro","cases":null,"index_strings":["faro","fao","pt","portugal"]},{"type":"airport","code":"FAO","name":"Faro","coordinates":{"lat":37.020645,"lon":-7.968545},"weight":1503,"searchable":false,"timezone":"Europe/Lisbon","en_city_name":"Faro","city_name":"Faro","city_code":"FAO","state_code":null,"country_name":"Portugal","country_code":"PT","cases":null,"city_cases":null,"country_cases":null,"index_strings":["fao","faro","faro airport","pt","portugal"]},{"type":"country","code":"HU","name":"Ungarn","weight":1502,"searchable":true,"cases":null,"capital":{"code":"BUD","type":"city"},"index_strings":["hu","ungarn","hungary"]},{"type":"country","code":"MK","name":"Nordmazedonien","weight":1500,"searchable":true,"cases":null,"capital":{"code":"SKP","type":"city"},"index_strings":["macedonia","north","mk","nordmazedonien","north macedonia"]},{"type":"city","code":"TUN","name":"Tunis","en_name":"Tunis","coordinates":{"lat":36.847622,"lon":10.21709},"weight":1487,"searchable":true,"timezone":"Africa/Tunis","state_code":null,"country_name":"Tunesien","country_code":"TN","main_airport_name":"Tunis","cases":null,"index_strings":["tunis","tun","tn","tunesien","tunisia"]},{"type":"airport","code":"TUN","name":"Tunis","coordinates":{"lat":36.847622,"lon":10.21709},"weight":1487,"searchable":false,"timezone":"Africa/Tunis","en_city_name":"Tunis","city_name":"Tunis","city_code":"TUN","state_code":null,"country_name":"Tunesien","country_code":"TN","cases":null,"city_cases":null,"country_cases":null,"index_strings":["tun","tunis","tunis-carthage international airport","tn","tunesien","tunisia"]},{"type":"city","code":"VCE","name":"Venedig","en_name":"Venice","coordinates":{"lat":45.4343363,"lon":12.3387844},"weight":1480,"searchable":true,"timezone":"Europe/Rome","state_code":null,"country_name":"Italien","country_code":"IT","main_airport_name":null,"cases":null,"index_strings":["vce","venedig","venice","it","italien","italy"]},{"type":"country","code":"CO","name":"Kolumbien","weight":1470,"searchable":true,"cases":null,"capital":{"code":"BOG","type":"city"},"index_strings":["co","kolumbien","colombia"]},{"type":"city","code":"PRN","name":"Prishtina","en_name":"Pristina","coordinates":{"lat":42.573612,"lon":21.035557},"weight":1459,"searchable":true,"timezone":"Europe/Belgrade","state_code":null,"country_name":"Kosovo","country_code":"XK","main_airport_name":"Pristina","cases":null,"index_strings":["pristina","prn","prishtina","xk","kosovo"]},{"type":"airport","code":"PRN","name":"Pristina","coordinates":{"lat":42.573612,"lon":21.035557},"weight":1459,"searchable":false,"timezone":"Europe/Belgrade","en_city_name":"Pristina","city_name":"Prishtina","city_code":"PRN","state_code":null,"country_name":"Kosovo","country_code":"XK","cases":null,"city_cases":null,"country_cases":null,"index_strings":["prn","pristina","pristina international airport","prishtina","xk","kosovo"]},{"type":"city","code":"OSL","name":"Oslo","en_name":"Oslo","coordinates":{"lat":59.9138688,"lon":10.7522454},"weight":1457,"searchable":true,"timezone":"Europe/Oslo","state_code":null,"country_name":"Norwegen","country_code":"NO","main_airport_name":null,"cases":null,"index_strings":["osl","oslo","no","norwegen","norway"]},{"type":"airport","code":"SHA","name":"Shanghai Hongqiao International","coordinates":{"lat":31.196815,"lon":121.34197},"weight":1456,"searchable":true,"timezone":"Asia/Shanghai","en_city_name":"Shanghai","city_name":"Shanghai","city_code":"SHA","state_code":null,"country_name":"China","country_code":"CN","cases":null,"city_cases":null,"country_cases":null,"index_strings":["sha","shanghai hongqiao international","shanghai hongqiao international airport","shanghai","cn","china"]},{"type":"city","code":"IBZ","name":"Ibiza","en_name":"Ibiza","coordinates":{"lat":38.876595,"lon":1.367803},"weight":1452,"searchable":true,"timezone":"Europe/Madrid","state_code":null,"country_name":"Spanien","country_code":"ES","main_airport_name":"Ibiza","cases":null,"index_strings":["ibiza","ibz","es","spanien","spain"]},{"type":"airport","code":"IBZ","name":"Ibiza","coordinates":{"lat":38.876595,"lon":1.367803},"weight":1452,"searchable":false,"timezone":"Europe/Madrid","en_city_name":"Ibiza","city_name":"Ibiza","city_code":"IBZ","state_code":null,"country_name":"Spanien","country_code":"ES","cases":null,"city_cases":null,"country_cases":null,"index_strings":["ibz","ibiza","ibiza airport","es","spanien","spain"]},{"type":"airport","code":"VCE","name":"Venedig M.P.","coordinates":{"lat":45.502285,"lon":12.337947},"weight":1429,"searchable":true,"timezone":"Europe/Rome","en_city_name":"Venice","city_name":"Venedig","city_code":"VCE","state_code":null,"country_name":"Italien","country_code":"IT","cases":null,"city_cases":null,"country_cases":null,"index_strings":["vce","venedig m.p.","venice marco polo airport","venedig","venice","it","italien","italy"]},{"type":"city","code":"BEG","name":"Belgrad","en_name":"Belgrade","coordinates":{"lat":44.802416,"lon":20.465601},"weight":1420,"searchable":true,"timezone":"Europe/Belgrade","state_code":null,"country_name":"Serbien","country_code":"RS","main_airport_name":"Nikola-Tesla-Flughafen Belgrad","cases":null,"index_strings":["nikola-tesla-flughafen belgrad","beg","belgrad","belgrade","rs","serbien","serbia"]},{"type":"airport","code":"BEG","name":"Nikola-Tesla-Flughafen Belgrad","coordinates":{"lat":44.819443,"lon":20.306944},"weight":1420,"searchable":false,"timezone":"Europe/Belgrade","en_city_name":"Belgrade","city_name":"Belgrad","city_code":"BEG","state_code":null,"country_name":"Serbien","country_code":"RS","cases":null,"city_cases":null,"country_cases":null,"index_strings":["beg","nikola-tesla-flughafen belgrad","belgrad nikola tesla airport","belgrad","belgrade","rs","serbien","serbia"]},{"type":"city","code":"NUE","name":"Nürnberg","en_name":"Nuremberg","coordinates":{"lat":49.45052,"lon":11.08048},"weight":1417,"searchable":true,"timezone":"Europe/Berlin","state_code":null,"country_name":"Deutschland","country_code":"DE","main_airport_name":"Nürnberg","cases":null,"index_strings":["nürnberg","nue","nuremberg","de","deutschland","germany"]},{"type":"airport","code":"NUE","name":"Nürnberg","coordinates":{"lat":49.494167,"lon":11.077062},"weight":1417,"searchable":false,"timezone":"Europe/Berlin","en_city_name":"Nuremberg","city_name":"Nürnberg","city_code":"NUE","state_code":null,"country_name":"Deutschland","country_code":"DE","cases":null,"city_cases":null,"country_cases":null,"index_strings":["nue","nürnberg","nuremberg airport","nuremberg","de","deutschland","germany"]},{"type":"country","code":"CY","name":"Zypern","weight":1412,"searchable":true,"cases":null,"capital":{"code":"ECN","type":"city"},"index_strings":["cy","zypern","cyprus"]},{"type":"airport","code":"SAW","name":"Istanbul-Sabiha Gökçen","coordinates":{"lat":40.904675,"lon":29.309189},"weight":1411,"searchable":true,"timezone":"Europe/Istanbul","en_city_name":"Istanbul","city_name":"Istanbul","city_code":"IST","state_code":null,"country_name":"Türkei","country_code":"TR","cases":null,"city_cases":null,"country_cases":null,"index_strings":["saw","istanbul-sabiha gökçen","sabiha gokcen international airport","ist","istanbul","tr","türkei","turkey"]},{"type":"city","code":"SKP","name":"Skopie","en_name":"Skopje","coordinates":{"lat":41.95649,"lon":21.62872},"weight":1396,"searchable":true,"timezone":"Europe/Skopje","state_code":null,"country_name":"Nordmazedonien","country_code":"MK","main_airport_name":"Skopje","cases":null,"index_strings":["skopje","skp","skopie","mk","nordmazedonien","north macedonia"]},{"type":"airport","code":"SKP","name":"Skopje","coordinates":{"lat":41.95649,"lon":21.62872},"weight":1396,"searchable":false,"timezone":"Europe/Skopje","en_city_name":"Skopje","city_name":"Skopie","city_code":"SKP","state_code":null,"country_name":"Nordmazedonien","country_code":"MK","cases":null,"city_cases":null,"country_cases":null,"index_strings":["skp","skopje","skopje alexander the great airport","skopie","mk","nordmazedonien","north macedonia"]},{"type":"city","code":"KZR","name":"Kutahya","en_name":"Kutahya","coordinates":{"lat":39.120277,"lon":30.116945},"weight":1388,"searchable":true,"timezone":"Europe/Istanbul","state_code":null,"country_name":"Turkey","country_code":"TR","main_airport_name":"Zafer Airport","cases":null,"index_strings":["zafer airport","kzr","kutahya","tr","turkey"]},{"type":"airport","code":"KZR","name":"Zafer Airport","coordinates":{"lat":39.120277,"lon":30.116945},"weight":1388,"searchable":false,"timezone":"Europe/Istanbul","en_city_name":"Kutahya","city_name":"Kutahya","city_code":"KZR","state_code":null,"country_name":"Turkey","country_code":"TR","cases":null,"city_cases":null,"country_cases":null,"index_strings":["kzr","zafer airport","kutahya","tr","turkey"]},{"type":"country","code":"MM","name":"Myanmar","weight":1383,"searchable":true,"cases":null,"capital":{"code":"RGN","type":"city"},"index_strings":["mm","myanmar"]},{"type":"country","code":"RO","name":"Rumänien","weight":1373,"searchable":true,"cases":null,"capital":{"code":"BUH","type":"city"},"index_strings":["ro","rumänien","romania"]},{"type":"city","code":"ORL","name":"Orlando","en_name":"Orlando","coordinates":{"lat":28.533611,"lon":-81.386667},"weight":1358,"searchable":true,"timezone":"America/New_York","state_code":"FL","country_name":"Vereinigte Staaten","country_code":"US","main_airport_name":null,"cases":null,"index_strings":["orl","orlando","us","vereinigte staaten","united states"]},{"type":"city","code":"BUD","name":"Budapest","en_name":"Budapest","coordinates":{"lat":47.4984056,"lon":19.0407578},"weight":1339,"searchable":true,"timezone":"Europe/Budapest","state_code":null,"country_name":"Ungarn","country_code":"HU","main_airport_name":"Budapest Liszt Ferenc","cases":null,"index_strings":["budapest liszt ferenc","bud","budapest","hu","ungarn","hungary"]},{"type":"airport","code":"BUD","name":"Budapest Liszt Ferenc","coordinates":{"lat":47.433037,"lon":19.261621},"weight":1339,"searchable":false,"timezone":"Europe/Budapest","en_city_name":"Budapest","city_name":"Budapest","city_code":"BUD","state_code":null,"country_name":"Ungarn","country_code":"HU","cases":null,"city_cases":null,"country_cases":null,"index_strings":["bud","budapest liszt ferenc","budapest ferenc liszt international airport","budapest","hu","ungarn","hungary"]},{"type":"city","code":"YVR","name":"Vancouver","en_name":"Vancouver","coordinates":{"lat":49.261226,"lon":-123.1139268},"weight":1337,"searchable":true,"timezone":"America/Vancouver","state_code":"BC","country_name":"Kanada","country_code":"CA","main_airport_name":null,"cases":null,"index_strings":["yvr","vancouver","ca","kanada","canada"]},{"type":"city","code":"HNL","name":"Honolulu Hawaii","en_name":"Honolulu","coordinates":{"lat":21.3069444,"lon":-157.8583333},"weight":1335,"searchable":true,"timezone":"Pacific/Honolulu","state_code":"HI","country_name":"Vereinigte Staaten","country_code":"US","main_airport_name":"Internationale Flughafen Honolulu","cases":null,"index_strings":["internationale flughafen honolulu","hnl","honolulu hawaii","honolulu","us","vereinigte staaten","united states"]},{"type":"airport","code":"HNL","name":"Internationale Flughafen Honolulu","coordinates":{"lat":21.325832,"lon":-157.92166},"weight":1334,"searchable":false,"timezone":"Pacific/Honolulu","en_city_name":"Honolulu","city_name":"Honolulu Hawaii","city_code":"HNL","state_code":"HI","country_name":"Vereinigte Staaten","country_code":"US","cases":null,"city_cases":null,"country_cases":null,"index_strings":["hnl","internationale flughafen honolulu","honolulu international airport","honolulu hawaii","honolulu","us","vereinigte staaten","united states"]},{"type":"airport","code":"OSL","name":"Oslo Gardermoen","coordinates":{"lat":60.19419,"lon":11.100411},"weight":1323,"searchable":true,"timezone":"Europe/Oslo","en_city_name":"Oslo","city_name":"Oslo","city_code":"OSL","state_code":null,"country_name":"Norwegen","country_code":"NO","cases":null,"city_cases":null,"country_cases":null,"index_strings":["osl","oslo gardermoen","oslo airport gardermoen","oslo","no","norwegen","norway"]},{"type":"airport","code":"YVR","name":"Vancouver international ","coordinates":{"lat":49.1947,"lon":-123.17919},"weight":1318,"searchable":true,"timezone":"America/Vancouver","en_city_name":"Vancouver","city_name":"Vancouver","city_code":"YVR","state_code":"BC","country_name":"Kanada","country_code":"CA","cases":null,"city_cases":null,"country_cases":null,"index_strings":["yvr","vancouver international ","vancouver international airport","vancouver","ca","kanada","canada"]},{"type":"city","code":"ATL","name":"Atlanta","en_name":"Atlanta","coordinates":{"lat":33.7489954,"lon":-84.3879824},"weight":1317,"searchable":true,"timezone":"America/New_York","state_code":"GA","country_name":"Vereinigte Staaten","country_code":"US","main_airport_name":null,"cases":null,"index_strings":["atl","atlanta","us","vereinigte staaten","united states"]},{"type":"city","code":"JNB","name":"Johannesburg","en_name":"Johannesburg","coordinates":{"lat":-26.2041028,"lon":28.0473051},"weight":1314,"searchable":true,"timezone":"Africa/Johannesburg","state_code":null,"country_name":"Südafrika","country_code":"ZA","main_airport_name":null,"cases":null,"index_strings":["jnb","johannesburg","za","südafrika","south africa"]},{"type":"airport","code":"ATL","name":"Hartsfield–Jackson Atlanta International","coordinates":{"lat":33.640068,"lon":-84.44403},"weight":1314,"searchable":true,"timezone":"America/New_York","en_city_name":"Atlanta","city_name":"Atlanta","city_code":"ATL","state_code":"GA","country_name":"Vereinigte Staaten","country_code":"US","cases":null,"city_cases":null,"country_cases":null,"index_strings":["atl","hartsfield–jackson atlanta international","hartsfield-jackson atlanta international airport","atlanta","us","vereinigte staaten","united states"]},{"type":"city","code":"TZX","name":"Trabzon","en_name":"Trabzon","coordinates":{"lat":40.99419,"lon":39.78168},"weight":1303,"searchable":true,"timezone":"Europe/Istanbul","state_code":null,"country_name":"Türkei","country_code":"TR","main_airport_name":"Trabzon","cases":null,"index_strings":["trabzon","tzx","tr","türkei","turkey"]},{"type":"airport","code":"TZX","name":"Trabzon","coordinates":{"lat":40.99419,"lon":39.78168},"weight":1303,"searchable":false,"timezone":"Europe/Istanbul","en_city_name":"Trabzon","city_name":"Trabzon","city_code":"TZX","state_code":null,"country_name":"Türkei","country_code":"TR","cases":null,"city_cases":null,"country_cases":null,"index_strings":["tzx","trabzon","trabzon airport","tr","türkei","turkey"]},{"type":"city","code":"CPT","name":"Kapstadt","en_name":"Cape Town","coordinates":{"lat":-33.968906,"lon":18.596489},"weight":1301,"searchable":true,"timezone":"Africa/Johannesburg","state_code":null,"country_name":"Südafrika","country_code":"ZA","main_airport_name":"Cape Town International","cases":null,"index_strings":["cape town international","cpt","kapstadt","cape town","za","südafrika","south africa"]},{"type":"airport","code":"CPT","name":"Cape Town International","coordinates":{"lat":-33.968906,"lon":18.596489},"weight":1301,"searchable":false,"timezone":"Africa/Johannesburg","en_city_name":"Cape Town","city_name":"Kapstadt","city_code":"CPT","state_code":null,"country_name":"Südafrika","country_code":"ZA","cases":null,"city_cases":null,"country_cases":null,"index_strings":["cpt","cape town international","cape town international airport","kapstadt","cape town","za","südafrika","south africa"]},{"type":"city","code":"ALC","name":"Alicante","en_name":"Alicante","coordinates":{"lat":38.34521,"lon":-0.4809945},"weight":1287,"searchable":true,"timezone":"Europe/Madrid","state_code":null,"country_name":"Spanien","country_code":"ES","main_airport_name":"Alicante","cases":null,"index_strings":["alicante","alc","es","spanien","spain"]},{"type":"city","code":"HLE","name":"Jamestown","en_name":"Jamestown","coordinates":{"lat":-7.966667,"lon":-14.4},"weight":1286,"searchable":true,"timezone":"Atlantic/St_Helena","state_code":null,"country_name":"St. Helena, Ascension und Tristan da Cunha","country_code":"SH","main_airport_name":"Saint Helena Airport","cases":null,"index_strings":["saint helena airport","hle","jamestown","sh","st. helena, ascension und tristan da cunha","saint helena, ascension and tristan da cunha"]},{"type":"airport","code":"HLE","name":"Saint Helena Airport","coordinates":{"lat":0.0,"lon":0.0},"weight":1286,"searchable":false,"timezone":"Atlantic/St_Helena","en_city_name":"Jamestown","city_name":"Jamestown","city_code":"HLE","state_code":null,"country_name":"Saint Helena, Ascension and Tristan da Cunha","country_code":"SH","cases":null,"city_cases":null,"country_cases":null,"index_strings":["hle","saint helena airport","jamestown","sh","saint helena, ascension and tristan da cunha"]},{"type":"airport","code":"JNB","name":"Johannesburg Internationale","coordinates":{"lat":-26.132664,"lon":28.231314},"weight":1286,"searchable":true,"timezone":"Africa/Johannesburg","en_city_name":"Johannesburg","city_name":"Johannesburg","city_code":"JNB","state_code":null,"country_name":"Südafrika","country_code":"ZA","cases":null,"city_cases":null,"country_cases":null,"index_strings":["jnb","johannesburg internationale","o.r. tambo international airport","johannesburg","za","südafrika","south africa"]},{"type":"airport","code":"ALC","name":"Alicante","coordinates":{"lat":38.287098,"lon":-0.557381},"weight":1283,"searchable":false,"timezone":"Europe/Madrid","en_city_name":"Alicante","city_name":"Alicante","city_code":"ALC","state_code":null,"country_name":"Spanien","country_code":"ES","cases":null,"city_cases":null,"country_cases":null,"index_strings":["alc","alicante","alicante-elche airport","es","spanien","spain"]},{"type":"airport","code":"LHR","name":"London Heathrow","coordinates":{"lat":51.469604,"lon":-0.453566},"weight":1277,"searchable":true,"timezone":"Europe/London","en_city_name":"London","city_name":"London","city_code":"LON","state_code":null,"country_name":"Vereinigte Königreich","country_code":"GB","cases":null,"city_cases":null,"country_cases":null,"index_strings":["lhr","london heathrow","london heathrow airport","lon","london","gb","vereinigte königreich","united kingdom"]},{"type":"airport","code":"IEV","name":"Kiew Zhulhany","coordinates":{"lat":50.401943,"lon":30.450832},"weight":1271,"searchable":true,"timezone":"Europe/Kiev","en_city_name":"Kyiv","city_name":"Kiew","city_code":"IEV","state_code":null,"country_name":"Ukraine","country_code":"UA","cases":null,"city_cases":null,"country_cases":null,"index_strings":["iev","kiew zhulhany","kyiv international airport","kiew","kyiv","ua","ukraine"]},{"type":"city","code":"PAR","name":"Paris","en_name":"Paris","coordinates":{"lat":48.856614,"lon":2.3522219},"weight":1270,"searchable":true,"timezone":"Europe/Paris","state_code":null,"country_name":"Frankreich","country_code":"FR","main_airport_name":null,"cases":null,"index_strings":["par","paris","fr","frankreich","france"]},{"type":"city","code":"MOW","name":"Moskau","en_name":"Moscow","coordinates":{"lat":55.755786,"lon":37.617633},"weight":1269,"searchable":true,"timezone":"Europe/Moscow","state_code":null,"country_name":"Russische Föderation","country_code":"RU","main_airport_name":null,"cases":null,"index_strings":["нерезиновая","понаехавск","нерезиновск","defaultcity","mow","moskau","moscow","ru","russische föderation","russia"]},{"type":"city","code":"CUN","name":"Cancún","en_name":"Cancun","coordinates":{"lat":21.040457,"lon":-86.874435},"weight":1265,"searchable":true,"timezone":"America/Cancun","state_code":null,"country_name":"Mexiko","country_code":"MX","main_airport_name":"Aeropuerto Internacional de Cancún","cases":null,"index_strings":["aeropuerto internacional de cancún","cun","cancún","cancun","mx","mexiko","mexico"]},{"type":"airport","code":"CUN","name":"Aeropuerto Internacional de Cancún","coordinates":{"lat":21.040457,"lon":-86.874435},"weight":1265,"searchable":false,"timezone":"America/Cancun","en_city_name":"Cancun","city_name":"Cancún","city_code":"CUN","state_code":null,"country_name":"Mexiko","country_code":"MX","cases":null,"city_cases":null,"country_cases":null,"index_strings":["cun","aeropuerto internacional de cancún","cancun international airport","cancún","cancun","mx","mexiko","mexico"]},{"type":"city","code":"PUJ","name":"Punta Cana","en_name":"Punta Cana","coordinates":{"lat":18.562477,"lon":-68.364},"weight":1257,"searchable":true,"timezone":"America/Santo_Domingo","state_code":null,"country_name":"Dominikanische Republik","country_code":"DO","main_airport_name":"Punta Cana","cases":null,"index_strings":["punta cana","puj","do","dominikanische republik","dominican republic"]},{"type":"airport","code":"PUJ","name":"Punta Cana","coordinates":{"lat":18.562477,"lon":-68.364},"weight":1257,"searchable":false,"timezone":"America/Santo_Domingo","en_city_name":"Punta Cana","city_name":"Punta Cana","city_code":"PUJ","state_code":null,"country_name":"Dominikanische Republik","country_code":"DO","cases":null,"city_cases":null,"country_cases":null,"index_strings":["puj","punta cana","punta cana international airport","do","dominikanische republik","dominican republic"]},{"type":"city","code":"TBS","name":"Tiflis","en_name":"Tbilisi","coordinates":{"lat":41.674065,"lon":44.958958},"weight":1243,"searchable":true,"timezone":"Asia/Tbilisi","state_code":null,"country_name":"Georgien","country_code":"GE","main_airport_name":"Tiflis Internationale","cases":null,"index_strings":["tiflis internationale","tbs","tiflis","tbilisi","ge","georgien","georgia"]},{"type":"airport","code":"TBS","name":"Tiflis Internationale","coordinates":{"lat":41.674065,"lon":44.958958},"weight":1243,"searchable":false,"timezone":"Asia/Tbilisi","en_city_name":"Tbilisi","city_name":"Tiflis","city_code":"TBS","state_code":null,"country_name":"Georgien","country_code":"GE","cases":null,"city_cases":null,"country_cases":null,"index_strings":["tbs","tiflis internationale","tbilisi international airport","tiflis","tbilisi","ge","georgien","georgia"]},{"type":"country","code":"KX","name":"Crimea","weight":1222,"searchable":false,"cases":null,"capital":null,"index_strings":["kx","crimea"]},{"type":"city","code":"TPE","name":"Taipeh","en_name":"Taipei","coordinates":{"lat":25.091075,"lon":121.5598345},"weight":1208,"searchable":true,"timezone":"Asia/Taipei","state_code":null,"country_name":"Taiwan","country_code":"TW","main_airport_name":null,"cases":null,"index_strings":["tpe","taipeh","taipei","tw","taiwan"]},{"type":"city","code":"HEL","name":"Helsinki","en_name":"Helsinki","coordinates":{"lat":60.2943605,"lon":25.0402427},"weight":1193,"searchable":true,"timezone":"Europe/Helsinki","state_code":null,"country_name":"Finnland","country_code":"FI","main_airport_name":"Helsinki-Vantaa","cases":null,"index_strings":["helsinki-vantaa","helsinki","хельсинки","hel","fi","finnland","finland"]},{"type":"city","code":"AUH","name":"Abu Dhabi","en_name":"Abu Dhabi","coordinates":{"lat":24.4666667,"lon":54.3666667},"weight":1193,"searchable":true,"timezone":"Asia/Dubai","state_code":null,"country_name":"Vereinigte Arabische Emirate","country_code":"AE","main_airport_name":"Abu Dhabi Internationale","cases":null,"index_strings":["abu dhabi internationale","auh","abu dhabi","ae","vereinigte arabische emirate","united arab emirates"]},{"type":"airport","code":"AUH","name":"Abu Dhabi Internationale","coordinates":{"lat":24.426912,"lon":54.645973},"weight":1193,"searchable":false,"timezone":"Asia/Dubai","en_city_name":"Abu Dhabi","city_name":"Abu Dhabi","city_code":"AUH","state_code":null,"country_name":"Vereinigte Arabische Emirate","country_code":"AE","cases":null,"city_cases":null,"country_cases":null,"index_strings":["auh","abu dhabi internationale","abu dhabi international airport","abu dhabi","ae","vereinigte arabische emirate","united arab emirates"]},{"type":"airport","code":"HEL","name":"Helsinki-Vantaa","coordinates":{"lat":60.31795,"lon":24.96645},"weight":1186,"searchable":false,"timezone":"Europe/Helsinki","en_city_name":"Helsinki","city_name":"Helsinki","city_code":"HEL","state_code":null,"country_name":"Finnland","country_code":"FI","cases":null,"city_cases":null,"country_cases":null,"index_strings":["hel","helsinki-vantaa","helsinki-vantaa airport","helsinki","fi","finnland","finland"]},{"type":"country","code":"NP","name":"Nepal","weight":1179,"searchable":true,"cases":null,"capital":{"code":"KTM","type":"city"},"index_strings":["np","nepal"]},{"type":"country","code":"DZ","name":"Algerien","weight":1174,"searchable":true,"cases":null,"capital":{"code":"ALG","type":"city"},"index_strings":["dz","algerien","algeria"]},{"type":"city","code":"LIM","name":"Lima","en_name":"Lima","coordinates":{"lat":-12.019421,"lon":-77.107666},"weight":1148,"searchable":true,"timezone":"America/Lima","state_code":null,"country_name":"Peru","country_code":"PE","main_airport_name":"Lima","cases":null,"index_strings":["lima","lim","pe","peru"]},{"type":"airport","code":"LIM","name":"Lima","coordinates":{"lat":-12.019421,"lon":-77.107666},"weight":1148,"searchable":false,"timezone":"America/Lima","en_city_name":"Lima","city_name":"Lima","city_code":"LIM","state_code":null,"country_name":"Peru","country_code":"PE","cases":null,"city_cases":null,"country_cases":null,"index_strings":["lim","lima","jorge chavez international airport","pe","peru"]},{"type":"city","code":"WAW","name":"Warschau","en_name":"Warsaw","coordinates":{"lat":52.170906,"lon":20.97329},"weight":1139,"searchable":true,"timezone":"Europe/Warsaw","state_code":null,"country_name":"Polen","country_code":"PL","main_airport_name":null,"cases":null,"index_strings":["waw","warschau","warsaw","pl","polen","poland"]},{"type":"airport","code":"WAW","name":"Chopin-Flughafen Warschau","coordinates":{"lat":52.170906,"lon":20.97329},"weight":1139,"searchable":true,"timezone":"Europe/Warsaw","en_city_name":"Warsaw","city_name":"Warschau","city_code":"WAW","state_code":null,"country_name":"Polen","country_code":"PL","cases":null,"city_cases":null,"country_cases":null,"index_strings":["waw","chopin-flughafen warschau","frederic chopin airport","warschau","warsaw","pl","polen","poland"]},{"type":"country","code":"CR","name":"Costa Rica","weight":1137,"searchable":true,"cases":null,"capital":{"code":"SJO","type":"city"},"index_strings":["costa","rica","cr","costa rica"]},{"type":"city","code":"RAK","name":"Marrakesh","en_name":"Marrakech","coordinates":{"lat":31.601875,"lon":-8.026902},"weight":1135,"searchable":true,"timezone":"Africa/Casablanca","state_code":null,"country_name":"Marokko","country_code":"MA","main_airport_name":"Marrakesch","cases":null,"index_strings":["marrakesch","rak","marrakesh","marrakech","ma","marokko","morocco"]},{"type":"airport","code":"RAK","name":"Marrakesch","coordinates":{"lat":31.601875,"lon":-8.026902},"weight":1135,"searchable":false,"timezone":"Africa/Casablanca","en_city_name":"Marrakech","city_name":"Marrakesh","city_code":"RAK","state_code":null,"country_name":"Marokko","country_code":"MA","cases":null,"city_cases":null,"country_cases":null,"index_strings":["rak","marrakesch","menara airport","marrakesh","marrakech","ma","marokko","morocco"]},{"type":"city","code":"MEX","name":"Mexiko-Stadt","en_name":"Mexico City","coordinates":{"lat":19.4270499,"lon":-99.1275711},"weight":1126,"searchable":true,"timezone":"America/Mexico_City","state_code":null,"country_name":"Mexiko","country_code":"MX","main_airport_name":null,"cases":null,"index_strings":["mex","mexiko-stadt","mexico city","mx","mexiko","mexico"]},{"type":"city","code":"SZF","name":"Samsun","en_name":"Samsun","coordinates":{"lat":41.25738,"lon":36.555058},"weight":1126,"searchable":true,"timezone":"Europe/Istanbul","state_code":null,"country_name":"Türkei","country_code":"TR","main_airport_name":"Samsun Carsamba","cases":null,"index_strings":["samsun carsamba","szf","samsun","tr","türkei","turkey"]},{"type":"airport","code":"SZF","name":"Samsun Carsamba","coordinates":{"lat":41.25738,"lon":36.555058},"weight":1126,"searchable":false,"timezone":"Europe/Istanbul","en_city_name":"Samsun","city_name":"Samsun","city_code":"SZF","state_code":null,"country_name":"Türkei","country_code":"TR","cases":null,"city_cases":null,"country_cases":null,"index_strings":["szf","samsun carsamba","samsun-carsamba airport","samsun","tr","türkei","turkey"]},{"type":"airport","code":"TPE","name":"Internationale Flughafen Taiwan Taoyuan","coordinates":{"lat":25.07639,"lon":121.22389},"weight":1123,"searchable":true,"timezone":"Asia/Taipei","en_city_name":"Taipei","city_name":"Taipeh","city_code":"TPE","state_code":null,"country_name":"Taiwan","country_code":"TW","cases":null,"city_cases":null,"country_cases":null,"index_strings":["tpe","internationale flughafen taiwan taoyuan","taiwan taoyuan international airport","taipeh","taipei","tw","taiwan"]},{"type":"airport","code":"MEX","name":"Internationale Flughafen von Mexiko-Stadt","coordinates":{"lat":19.435278,"lon":-99.07278},"weight":1106,"searchable":true,"timezone":"America/Mexico_City","en_city_name":"Mexico City","city_name":"Mexiko-Stadt","city_code":"MEX","state_code":null,"country_name":"Mexiko","country_code":"MX","cases":null,"city_cases":null,"country_cases":null,"index_strings":["mex","internationale flughafen von mexiko-stadt","benito juarez international airport","mexiko-stadt","mexico city","mx","mexiko","mexico"]},{"type":"country","code":"CL","name":"Chile","weight":1105,"searchable":true,"cases":null,"capital":{"code":"SCL","type":"city"},"index_strings":["cl","chile"]},{"type":"city","code":"MEL","name":"Melbourne","en_name":"Melbourne","coordinates":{"lat":-37.8131869,"lon":144.9629796},"weight":1103,"searchable":true,"timezone":"Australia/Melbourne","state_code":"VI","country_name":"Australien","country_code":"AU","main_airport_name":null,"cases":null,"index_strings":["mel","melbourne","au","australien","australia"]},{"type":"country","code":"JO","name":"Jordanien","weight":1096,"searchable":true,"cases":null,"capital":{"code":"AMM","type":"city"},"index_strings":["jo","jordanien","jordan"]},{"type":"city","code":"SSH","name":"Scharm El-Scheich","en_name":"Sharm el Sheikh","coordinates":{"lat":27.979357,"lon":34.385254},"weight":1090,"searchable":true,"timezone":"Africa/Cairo","state_code":null,"country_name":"Ägypten","country_code":"EG","main_airport_name":"Flughafen Scharm El-Scheich","cases":null,"index_strings":["flughafen scharm el-scheich","ssh","scharm el-scheich","sharm el sheikh","eg","ägypten","egypt"]},{"type":"airport","code":"SSH","name":"Flughafen Scharm El-Scheich","coordinates":{"lat":27.979357,"lon":34.385254},"weight":1090,"searchable":false,"timezone":"Africa/Cairo","en_city_name":"Sharm el Sheikh","city_name":"Scharm El-Scheich","city_code":"SSH","state_code":null,"country_name":"Ägypten","country_code":"EG","cases":null,"city_cases":null,"country_cases":null,"index_strings":["ssh","flughafen scharm el-scheich","sharm el sheikh airport","scharm el-scheich","sharm el sheikh","eg","ägypten","egypt"]},{"type":"country","code":"IQ","name":"Irak","weight":1089,"searchable":true,"cases":null,"capital":{"code":"BGW","type":"city"},"index_strings":["iq","irak","iraq"]},{"type":"country","code":"TZ","name":"Tansania","weight":1087,"searchable":true,"cases":null,"capital":{"code":"DOD","type":"city"},"index_strings":["tz","tansania","tanzania"]},{"type":"city","code":"FMY","name":"Fort Myers","en_name":"Fort Myers","coordinates":{"lat":26.640628,"lon":-81.8723084},"weight":1082,"searchable":true,"timezone":"America/New_York","state_code":"FL","country_name":"Vereinigte Staaten","country_code":"US","main_airport_name":null,"cases":null,"index_strings":["fort myers","fmy","us","vereinigte staaten","united states"]},{"type":"airport","code":"MEL","name":"Melbourne","coordinates":{"lat":-37.669613,"lon":144.84978},"weight":1076,"searchable":true,"timezone":"Australia/Melbourne","en_city_name":"Melbourne","city_name":"Melbourne","city_code":"MEL","state_code":"VI","country_name":"Australien","country_code":"AU","cases":null,"city_cases":null,"country_cases":null,"index_strings":["mel","melbourne","tullamarine airport","au","australien","australia"]},{"type":"city","code":"CAS","name":"Casablanca","en_name":"Casablanca","coordinates":{"lat":33.533333,"lon":-7.583333},"weight":1071,"searchable":true,"timezone":"Africa/Casablanca","state_code":null,"country_name":"Marokko","country_code":"MA","main_airport_name":null,"cases":null,"index_strings":["casablanca","cas","ma","marokko","morocco"]},{"type":"city","code":"NCE","name":"Nizza","en_name":"Nice","coordinates":{"lat":43.66049,"lon":7.205232},"weight":1060,"searchable":true,"timezone":"Europe/Paris","state_code":null,"country_name":"Frankreich","country_code":"FR","main_airport_name":"Nizza","cases":null,"index_strings":["nizza","nce","nice","fr","frankreich","france"]},{"type":"airport","code":"NCE","name":"Nizza","coordinates":{"lat":43.66049,"lon":7.205232},"weight":1060,"searchable":false,"timezone":"Europe/Paris","en_city_name":"Nice","city_name":"Nizza","city_code":"NCE","state_code":null,"country_name":"Frankreich","country_code":"FR","cases":null,"city_cases":null,"country_cases":null,"index_strings":["nce","nizza","cote d'azur airport","nice","fr","frankreich","france"]},{"type":"country","code":"EC","name":"Ecuador","weight":1042,"searchable":true,"cases":null,"capital":{"code":"UIO","type":"city"},"index_strings":["ec","ecuador"]},{"type":"city","code":"BRE","name":"Bremen","en_name":"Bremen","coordinates":{"lat":53.05297,"lon":8.785352},"weight":1023,"searchable":true,"timezone":"Europe/Berlin","state_code":null,"country_name":"Deutschland","country_code":"DE","main_airport_name":"Bremen","cases":null,"index_strings":["bremen","bre","de","deutschland","germany"]},{"type":"airport","code":"BRE","name":"Bremen","coordinates":{"lat":53.05297,"lon":8.785352},"weight":1023,"searchable":false,"timezone":"Europe/Berlin","en_city_name":"Bremen","city_name":"Bremen","city_code":"BRE","state_code":null,"country_name":"Deutschland","country_code":"DE","cases":null,"city_cases":null,"country_cases":null,"index_strings":["bre","bremen","bremen airport","de","deutschland","germany"]},{"type":"country","code":"BY","name":"Weißrussland","weight":1017,"searchable":true,"cases":null,"capital":{"code":"MSQ","type":"city"},"index_strings":["by","weißrussland","belarus"]},{"type":"airport","code":"ESB","name":"Ankara","coordinates":{"lat":40.11494,"lon":32.993145},"weight":1001,"searchable":true,"timezone":"Europe/Istanbul","en_city_name":"Ankara","city_name":"Ankara","city_code":"ANK","state_code":null,"country_name":"Türkei","country_code":"TR","cases":null,"city_cases":null,"country_cases":null,"index_strings":["esb","ankara","esenboga international airport","ank","tr","türkei","turkey"]},{"type":"city","code":"KTM","name":"Kathmandu","en_name":"Kathmandu","coordinates":{"lat":27.699905,"lon":85.35657},"weight":991,"searchable":true,"timezone":"Asia/Kathmandu","state_code":null,"country_name":"Nepal","country_code":"NP","main_airport_name":"Tribhuvan International","cases":null,"index_strings":["tribhuvan international","ktm","kathmandu","np","nepal"]},{"type":"airport","code":"KTM","name":"Tribhuvan International","coordinates":{"lat":27.699905,"lon":85.35657},"weight":991,"searchable":false,"timezone":"Asia/Kathmandu","en_city_name":"Kathmandu","city_name":"Kathmandu","city_code":"KTM","state_code":null,"country_name":"Nepal","country_code":"NP","cases":null,"city_cases":null,"country_cases":null,"index_strings":["ktm","tribhuvan international","tribhuvan international airport","kathmandu","np","nepal"]},{"type":"airport","code":"CDG","name":"Paris-Charles-de-Gaulle","coordinates":{"lat":49.003197,"lon":2.567023},"weight":991,"searchable":true,"timezone":"Europe/Paris","en_city_name":"Paris","city_name":"Paris","city_code":"PAR","state_code":null,"country_name":"Frankreich","country_code":"FR","cases":null,"city_cases":null,"country_cases":null,"index_strings":["cdg","paris-charles-de-gaulle","charles de gaulle airport","par","paris","fr","frankreich","france"]},{"type":"city","code":"NAP","name":"Neapel","en_name":"Naples","coordinates":{"lat":40.8400969,"lon":14.2516357},"weight":990,"searchable":true,"timezone":"Europe/Rome","state_code":null,"country_name":"Italien","country_code":"IT","main_airport_name":"Neapel","cases":null,"index_strings":["neapel","nap","naples","it","italien","italy"]},{"type":"airport","code":"NAP","name":"Neapel","coordinates":{"lat":40.886112,"lon":14.291667},"weight":990,"searchable":false,"timezone":"Europe/Rome","en_city_name":"Naples","city_name":"Neapel","city_code":"NAP","state_code":null,"country_name":"Italien","country_code":"IT","cases":null,"city_cases":null,"country_cases":null,"index_strings":["nap","neapel","naples international airport","naples","it","italien","italy"]},{"type":"airport","code":"JFK","name":"John F. Kennedy International","coordinates":{"lat":40.642334,"lon":-73.78817},"weight":988,"searchable":true,"timezone":"America/New_York","en_city_name":"New York","city_name":"New York","city_code":"NYC","state_code":"NY","country_name":"Vereinigte Staaten","country_code":"US","cases":null,"city_cases":null,"country_cases":null,"index_strings":["jfk","john f. kennedy international","john f. kennedy international airport","nyc","new york","us","vereinigte staaten","united states"]},{"type":"country","code":"KR","name":"Republik Korea","weight":976,"searchable":true,"cases":null,"capital":{"code":"SEL","type":"city"},"index_strings":["korea","republik","kr","republik korea","south korea"]},{"type":"city","code":"AMM","name":"Amman","en_name":"Amman","coordinates":{"lat":31.722534,"lon":35.98932},"weight":972,"searchable":true,"timezone":"Asia/Amman","state_code":null,"country_name":"Jordanien","country_code":"JO","main_airport_name":"Queen Alia International","cases":null,"index_strings":["queen alia international","amm","amman","jo","jordanien","jordan"]},{"type":"country","code":"LV","name":"Lettland","weight":971,"searchable":true,"cases":null,"capital":{"code":"RIX","type":"city"},"index_strings":["lv","lettland","latvia"]},{"type":"city","code":"RIX","name":"Riga","en_name":"Riga","coordinates":{"lat":56.92208,"lon":23.979807},"weight":968,"searchable":true,"timezone":"Europe/Riga","state_code":null,"country_name":"Lettland","country_code":"LV","main_airport_name":"Riga","cases":null,"index_strings":["riga","rix","lv","lettland","latvia"]},{"type":"airport","code":"RIX","name":"Riga","coordinates":{"lat":56.92208,"lon":23.979807},"weight":968,"searchable":false,"timezone":"Europe/Riga","en_city_name":"Riga","city_name":"Riga","city_code":"RIX","state_code":null,"country_name":"Lettland","country_code":"LV","cases":null,"city_cases":null,"country_cases":null,"index_strings":["rix","riga","riga international airport","lv","lettland","latvia"]},{"type":"country","code":"AR","name":"Argentinien","weight":960,"searchable":true,"cases":null,"capital":{"code":"BUE","type":"city"},"index_strings":["ar","argentinien","argentina"]},{"type":"airport","code":"AMM","name":"Queen Alia International","coordinates":{"lat":31.722534,"lon":35.98932},"weight":959,"searchable":false,"timezone":"Asia/Amman","en_city_name":"Amman","city_name":"Amman","city_code":"AMM","state_code":null,"country_name":"Jordanien","country_code":"JO","cases":null,"city_cases":null,"country_cases":null,"index_strings":["amm","queen alia international","queen alia international airport","amman","jo","jordanien","jordan"]},{"type":"city","code":"SOF","name":"Sofia","en_name":"Sofia","coordinates":{"lat":42.688343,"lon":23.41443},"weight":958,"searchable":true,"timezone":"Europe/Sofia","state_code":null,"country_name":"Bulgarien","country_code":"BG","main_airport_name":"Sofia","cases":null,"index_strings":["sofia","sof","bg","bulgarien","bulgaria"]},{"type":"airport","code":"SOF","name":"Sofia","coordinates":{"lat":42.688343,"lon":23.41443},"weight":958,"searchable":false,"timezone":"Europe/Sofia","en_city_name":"Sofia","city_name":"Sofia","city_code":"SOF","state_code":null,"country_name":"Bulgarien","country_code":"BG","cases":null,"city_cases":null,"country_cases":null,"index_strings":["sof","sofia","sofia airport","bg","bulgarien","bulgaria"]},{"type":"city","code":"DTM","name":"Dortmund","en_name":"Dortmund","coordinates":{"lat":51.514828,"lon":7.613139},