[{"name":"Россия","weight":110607302,"type":"country","code":"RU","searchable":true,"index_strings":["RU","Россия","Russia"]},{"name":"Симферополь","country_name":"Крым","country_code":"KX","code":"SIP","index_strings":["SIP","Симферополь","Крым","KX","Simferopol","Crimea"],"timezone":"Europe\/Simferopol","weight":21767222,"coordinates":{"lat":45.020657,"lon":33.99819},"type":"city","searchable":false},{"name":"Санкт-Петербург","country_name":"Россия","country_code":"RU","code":"LED","index_strings":["sankt petersburg","st petersburg","leningrad","ленинград","питер","спб","LED","Санкт-Петербург","Россия","RU","Saint Petersburg","Russia"],"timezone":"Europe\/Moscow","weight":15580561,"coordinates":{"lat":59.939039,"lon":30.315785},"type":"city","searchable":false},{"name":"Крым","weight":14571041,"type":"country","code":"KX","searchable":false,"index_strings":["KX","Крым","Crimea"]},{"name":"Таиланд","weight":14391785,"type":"country","code":"TH","searchable":true,"index_strings":["TH","Таиланд","Thailand"]},{"name":"Сочи (Адлер)","country_name":"Россия","country_code":"RU","code":"AER","index_strings":["sochi","сочи","AER","Сочи (Адлер)","Россия","RU","Russia"],"timezone":"Europe\/Moscow","weight":11856611,"coordinates":{"lat":43.44884,"lon":39.941105},"type":"city","searchable":false},{"name":"Испания","weight":11213297,"type":"country","code":"ES","searchable":true,"index_strings":["ES","Испания","Spain"]},{"name":"Турция","weight":9948730,"type":"country","code":"TR","searchable":true,"index_strings":["TR","Турция","Turkey"]},{"name":"Украина","weight":8554620,"type":"country","code":"UA","searchable":true,"index_strings":["UA","Украина","Ukraine"]},{"name":"Германия","weight":8198201,"type":"country","code":"DE","searchable":true,"index_strings":["DE","Германия","Germany"]},{"name":"Москва","country_name":"Россия","country_code":"RU","code":"MOW","index_strings":["нерезиновая","понаехавск","нерезиновск","defaultcity","MOW","Москва","Россия","RU","Moscow","Russia"],"timezone":"Europe\/Moscow","weight":7305318,"coordinates":{"lat":55.755786,"lon":37.617633},"type":"city","searchable":true},{"name":"Узбекистан","weight":6564656,"type":"country","code":"UZ","searchable":true,"index_strings":["UZ","Узбекистан","Uzbekistan"]},{"name":"Краснодар","country_name":"Россия","country_code":"RU","code":"KRR","index_strings":["KRR","Краснодар","Россия","RU","Krasnodar","Russia"],"timezone":"Europe\/Moscow","weight":5883632,"coordinates":{"lat":45.034138,"lon":39.139004},"type":"city","searchable":false},{"name":"Чехия","weight":4985573,"type":"country","code":"CZ","searchable":true,"index_strings":["CZ","Чехия","Czech Republic"]},{"name":"Италия","weight":4779083,"type":"country","code":"IT","searchable":true,"index_strings":["IT","Италия","Italy"]},{"name":"Казахстан","weight":4630156,"type":"country","code":"KZ","searchable":true,"index_strings":["KZ","Казахстан","Kazakhstan"]},{"name":"Новосибирск","country_name":"Россия","country_code":"RU","code":"OVB","index_strings":["OVB","Новосибирск","Россия","RU","Novosibirsk","Russia"],"timezone":"Asia\/Phnom_Penh","weight":4310494,"coordinates":{"lat":55.00901,"lon":82.667},"type":"city","searchable":false},{"name":"Пхукет","country_name":"Таиланд","country_code":"TH","code":"HKT","index_strings":["HKT","Пхукет","Таиланд","TH","Phuket","Thailand"],"timezone":"Asia\/Bangkok","weight":4301070,"coordinates":{"lat":8.107619,"lon":98.30643499999999},"type":"city","searchable":false},{"name":"США","weight":4155181,"type":"country","code":"US","searchable":true,"index_strings":["US","США","United States"]},{"name":"Минеральные Воды","country_name":"Россия","country_code":"RU","code":"MRV","index_strings":["MRV","Минеральные Воды","Россия","RU","Mineralnye Vody","Russia"],"timezone":"Europe\/Moscow","weight":4116682,"coordinates":{"lat":44.218105,"lon":43.085815},"type":"city","searchable":false},{"name":"Армения","weight":3982552,"type":"country","code":"AM","searchable":true,"index_strings":["AM","Армения","Armenia"]},{"name":"Киргизия","weight":3942752,"type":"country","code":"KG","searchable":true,"index_strings":["KG","Киргизия","Kyrgyzstan"]},{"name":"Ереван","country_name":"Армения","country_code":"AM","code":"EVN","index_strings":["EVN","Ереван","Армения","AM","Yerevan","Armenia"],"timezone":"Asia\/Yerevan","weight":3836769,"coordinates":{"lat":40.15272,"lon":44.39805},"type":"city","searchable":false},{"name":"Израиль","weight":3749476,"type":"country","code":"IL","searchable":true,"index_strings":["IL","Израиль","Israel"]},{"name":"Анапа","country_name":"Россия","country_code":"RU","code":"AAQ","index_strings":["AAQ","Анапа","Россия","RU","Anapa","Russia"],"timezone":"Europe\/Moscow","weight":3677277,"coordinates":{"lat":44.9,"lon":37.316666},"type":"city","searchable":false},{"name":"Ташкент","country_name":"Узбекистан","country_code":"UZ","code":"TAS","index_strings":["TAS","Ташкент","Узбекистан","UZ","Tashkent","Uzbekistan"],"timezone":"Asia\/Tashkent","weight":3532722,"coordinates":{"lat":41.262714,"lon":69.26618999999999},"type":"city","searchable":false},{"name":"Греция","weight":3527383,"type":"country","code":"GR","searchable":true,"index_strings":["GR","Греция","Greece"]},{"name":"Екатеринбург","country_name":"Россия","country_code":"RU","code":"SVX","index_strings":["SVX","Екатеринбург","Россия","RU","Ekaterinburg","Russia"],"timezone":"Asia\/Yekaterinburg","weight":3473359,"coordinates":{"lat":56.750336,"lon":60.804314},"type":"city","searchable":false},{"name":"Таджикистан","weight":3413204,"type":"country","code":"TJ","searchable":true,"index_strings":["TJ","Таджикистан","Tajikistan"]},{"name":"Анталия","country_name":"Турция","country_code":"TR","code":"AYT","index_strings":["AYT","Анталия","Турция","TR","Antalya","Turkey"],"timezone":"Europe\/Istanbul","weight":3362622,"coordinates":{"lat":36.89928,"lon":30.80135},"type":"city","searchable":false},{"name":"Черногория","weight":3149027,"type":"country","code":"ME","searchable":true,"index_strings":["ME","Черногория","Montenegro"]},{"name":"Болгария","weight":3062759,"type":"country","code":"BG","searchable":true,"index_strings":["BG","Болгария","Bulgaria"]},{"name":"Грузия","weight":2989700,"type":"country","code":"GE","searchable":true,"index_strings":["GE","Грузия","Georgia"]},{"name":"Индия","weight":2876256,"type":"country","code":"IN","searchable":true,"index_strings":["IN","Индия","India"]},{"name":"Вьетнам","weight":2835624,"type":"country","code":"VN","searchable":true,"index_strings":["VN","Вьетнам","Vietnam"]},{"name":"Ростов-на-Дону","country_name":"Россия","country_code":"RU","code":"ROV","index_strings":["ROV","Ростов-на-Дону","Россия","RU","Rostov","Russia"],"timezone":"Europe\/Moscow","weight":2615639,"coordinates":{"lat":47.25,"lon":39.75},"type":"city","searchable":false},{"name":"Египет","weight":2556834,"type":"country","code":"EG","searchable":true,"index_strings":["EG","Египет","Egypt"]},{"name":"Уфа","country_name":"Россия","country_code":"RU","code":"UFA","index_strings":["UFA","Уфа","Россия","RU","Russia"],"timezone":"Asia\/Yekaterinburg","weight":2540112,"coordinates":{"lat":54.565403,"lon":55.884544},"type":"city","searchable":false},{"name":"Калининград","country_name":"Россия","country_code":"RU","code":"KGD","index_strings":["KGD","Калининград","Россия","RU","Kaliningrad","Russia"],"timezone":"Europe\/Kaliningrad","weight":2519948,"coordinates":{"lat":54.882656,"lon":20.586645},"type":"city","searchable":false},{"name":"Владивосток","country_name":"Россия","country_code":"RU","code":"VVO","index_strings":["VVO","Владивосток","Россия","RU","Vladivostok","Russia"],"timezone":"Asia\/Vladivostok","weight":2511405,"coordinates":{"lat":43.378574,"lon":132.14075},"type":"city","searchable":false},{"name":"Пулково","country_name":"Россия","city_code":"LED","city_name":"Санкт-Петербург","code":"LED","country_code":"RU","index_strings":["LED","Пулково","Санкт-Петербург","Россия","RU","Pulkovo","Saint Petersburg","Russia"],"timezone":"Europe\/Moscow","weight":2457865,"coordinates":{"lat":59.806084,"lon":30.3083},"type":"airport","searchable":true},{"name":"Китай","weight":2454208,"type":"country","code":"CN","searchable":true,"index_strings":["CN","Китай","China"]},{"name":"Кипр","weight":2449084,"type":"country","code":"CY","searchable":true,"index_strings":["CY","Кипр","Cyprus"]},{"name":"Тиват","country_name":"Черногория","country_code":"ME","code":"TIV","index_strings":["TIV","Тиват","Черногория","ME","Tivat","Montenegro"],"timezone":"Europe\/Podgorica","weight":2398118,"coordinates":{"lat":42.40361,"lon":18.725555},"type":"city","searchable":false},{"name":"ОАЭ","weight":2375376,"type":"country","code":"AE","searchable":true,"index_strings":["AE","ОАЭ","United Arab Emirates"]},{"name":"Бишкек","country_name":"Киргизия","country_code":"KG","code":"FRU","index_strings":["FRU","Бишкек","Киргизия","KG","Bishkek","Kyrgyzstan"],"timezone":"Asia\/Bishkek","weight":2299627,"coordinates":{"lat":43.05358,"lon":74.46944999999999},"type":"city","searchable":false},{"name":"Молдавия","weight":2278637,"type":"country","code":"MD","searchable":true,"index_strings":["MD","Молдавия","Moldova"]},{"name":"Кишинев","country_name":"Молдавия","country_code":"MD","code":"KIV","index_strings":["KIV","Кишинев","Молдавия","MD","Chisinau","Moldova"],"timezone":"Europe\/Chisinau","weight":2275610,"coordinates":{"lat":46.935444,"lon":28.934967},"type":"city","searchable":false},{"name":"Берлин-Бранденбург","country_name":"Германия","city_code":"BER","city_name":"Берлин","code":"BER","country_code":"DE","index_strings":["BER","Берлин-Бранденбург","Берлин","Германия","DE","Brandenburg","Berlin","Germany"],"timezone":"Europe\/Berlin","weight":2139777,"coordinates":{"lat":52.36667,"lon":13.503333},"type":"airport","searchable":true},{"name":"Красноярск","country_name":"Россия","country_code":"RU","code":"KJA","index_strings":["KJA","Красноярск","Россия","RU","Krasnojarsk","Russia"],"timezone":"Asia\/Krasnoyarsk","weight":2066765,"coordinates":{"lat":56.18113,"lon":92.48286},"type":"city","searchable":false},{"name":"Беларусь","weight":2019531,"type":"country","code":"BY","searchable":true,"index_strings":["BY","Беларусь","Belarus"]},{"name":"Тбилиси","country_name":"Грузия","country_code":"GE","code":"TBS","index_strings":["TBS","Тбилиси","Грузия","GE","Tbilisi","Georgia"],"timezone":"Asia\/Tbilisi","weight":1999474,"coordinates":{"lat":41.674065,"lon":44.958958},"type":"city","searchable":false},{"name":"Самара","country_name":"Россия","country_code":"RU","code":"KUF","index_strings":["KUF","Самара","Россия","RU","Samara","Russia"],"timezone":"Europe\/Samara","weight":1961561,"coordinates":{"lat":53.50782,"lon":50.14742},"type":"city","searchable":false},{"name":"Индонезия","weight":1960036,"type":"country","code":"ID","searchable":true,"index_strings":["ID","Индонезия","Indonesia"]},{"name":"Австрия","weight":1953030,"type":"country","code":"AT","searchable":true,"index_strings":["AT","Австрия","Austria"]},{"name":"Иркутск","country_name":"Россия","country_code":"RU","code":"IKT","index_strings":["IKT","Иркутск","Россия","RU","Irkutsk","Russia"],"timezone":"Asia\/Irkutsk","weight":1951342,"coordinates":{"lat":52.273308,"lon":104.35607},"type":"city","searchable":false},{"name":"Нидерланды","weight":1928830,"type":"country","code":"NL","searchable":true,"index_strings":["NL","Нидерланды","Netherlands"]},{"name":"Казань","country_name":"Россия","country_code":"RU","code":"KZN","index_strings":["KZN","Казань","Россия","RU","Kazan","Russia"],"timezone":"Europe\/Moscow","weight":1844624,"coordinates":{"lat":55.60844,"lon":49.29824},"type":"city","searchable":false},{"name":"Франция","weight":1837920,"type":"country","code":"FR","searchable":true,"index_strings":["FR","Франция","France"]},{"name":"Денпасар Бали","country_name":"Индонезия","country_code":"ID","code":"DPS","index_strings":["бали","bali","DPS","Денпасар Бали","Индонезия","ID","Denpasar Bali","Indonesia"],"timezone":"Asia\/Makassar","weight":1834237,"coordinates":{"lat":-8.74446,"lon":115.16331},"type":"city","searchable":false},{"name":"Бургас","country_name":"Болгария","country_code":"BG","code":"BOJ","index_strings":["BOJ","Бургас","Болгария","BG","Bourgas","Bulgaria"],"timezone":"Europe\/Sofia","weight":1749425,"coordinates":{"lat":42.416668,"lon":27.283333},"type":"city","searchable":false},{"name":"Хабаровск","country_name":"Россия","country_code":"RU","code":"KHV","index_strings":["KHV","Хабаровск","Россия","RU","Khabarovsk","Russia"],"timezone":"Asia\/Vladivostok","weight":1745030,"coordinates":{"lat":48.524563,"lon":135.16861},"type":"city","searchable":false},{"name":"Ларнака","country_name":"Кипр","country_code":"CY","code":"LCA","index_strings":["LCA","Ларнака","Кипр","CY","Larnaca","Cyprus"],"timezone":"Asia\/Nicosia","weight":1722730,"coordinates":{"lat":34.880867,"lon":33.62599},"type":"city","searchable":false},{"name":"Махачкала","country_name":"Россия","country_code":"RU","code":"MCX","index_strings":["MCX","Махачкала","Россия","RU","Makhachkala","Russia"],"timezone":"Europe\/Moscow","weight":1693284,"coordinates":{"lat":42.82095,"lon":47.65611},"type":"city","searchable":false},{"name":"Душанбе","country_name":"Таджикистан","country_code":"TJ","code":"DYU","index_strings":["DYU","Душанбе","Таджикистан","TJ","Dushanbe","Tajikistan"],"timezone":"Asia\/Dushanbe","weight":1647944,"coordinates":{"lat":38.54894,"lon":68.81728},"type":"city","searchable":false},{"name":"Ош","country_name":"Киргизия","country_code":"KG","code":"OSS","index_strings":["OSS","Ош","Киргизия","KG","Osh","Kyrgyzstan"],"timezone":"Asia\/Bishkek","weight":1642931,"coordinates":{"lat":40.60769,"lon":72.78648},"type":"city","searchable":false},{"name":"Омск","country_name":"Россия","country_code":"RU","code":"OMS","index_strings":["OMS","Омск","Россия","RU","Omsk","Russia"],"timezone":"Asia\/Omsk","weight":1634604,"coordinates":{"lat":54.957455,"lon":73.3167},"type":"city","searchable":false},{"name":"Алматы","country_name":"Казахстан","country_code":"KZ","code":"ALA","index_strings":["ALA","Алматы","Казахстан","KZ","Almaty","Kazakhstan"],"timezone":"Asia\/Almaty","weight":1592039,"coordinates":{"lat":43.255058,"lon":76.912628},"type":"city","searchable":false},{"name":"Гоа","country_name":"Индия","country_code":"IN","code":"GOI","index_strings":["GOI","Гоа","Индия","IN","Goa","India"],"timezone":"Asia\/Kolkata","weight":1564342,"coordinates":{"lat":15.384534,"lon":73.83983000000001},"type":"city","searchable":false},{"name":"Португалия","weight":1526771,"type":"country","code":"PT","searchable":true,"index_strings":["PT","Португалия","Portugal"]},{"name":"Челябинск","country_name":"Россия","country_code":"RU","code":"CEK","index_strings":["CEK","Челябинск","Россия","RU","Chelyabinsk","Russia"],"timezone":"Asia\/Yekaterinburg","weight":1489455,"coordinates":{"lat":55.297504,"lon":61.51235},"type":"city","searchable":false},{"name":"Хошимин","country_name":"Вьетнам","country_code":"VN","code":"SGN","index_strings":["SGN","Хошимин","Вьетнам","VN","Ho Chi Minh City","Vietnam"],"timezone":"Asia\/Ho_Chi_Minh","weight":1455428,"coordinates":{"lat":10.813045,"lon":106.662476},"type":"city","searchable":false},{"name":"Шри-Ланка","weight":1339594,"type":"country","code":"LK","searchable":true,"index_strings":["LK","Шри-Ланка","Sri Lanka"]},{"name":"Худжанд","country_name":"Таджикистан","country_code":"TJ","code":"LBD","index_strings":["LBD","Худжанд","Таджикистан","TJ","Khudzhand","Tajikistan"],"timezone":"Asia\/Dushanbe","weight":1320346,"coordinates":{"lat":40.219887,"lon":69.6965},"type":"city","searchable":false},{"name":"Гонконг","weight":1252471,"type":"country","code":"HK","searchable":true,"index_strings":["HK","Гонконг","Hong Kong"]},{"name":"Геленджик","country_name":"Россия","country_code":"RU","code":"GDZ","index_strings":["GDZ","Геленджик","Россия","RU","Gelendzik","Russia"],"timezone":"Europe\/Moscow","weight":1243074,"coordinates":{"lat":44.566666,"lon":38.016666},"type":"city","searchable":false},{"name":"Венгрия","weight":1188796,"type":"country","code":"HU","searchable":true,"index_strings":["HU","Венгрия","Hungary"]},{"name":"Будапешт","country_name":"Венгрия","country_code":"HU","code":"BUD","index_strings":["BUD","Будапешт","Венгрия","HU","Budapest","Hungary"],"timezone":"Europe\/Budapest","weight":1170479,"coordinates":{"lat":47.4984056,"lon":19.0407578},"type":"city","searchable":false},{"name":"Тюмень","country_name":"Россия","country_code":"RU","code":"TJM","index_strings":["TJM","Тюмень","Россия","RU","Tyumen","Russia"],"timezone":"Asia\/Yekaterinburg","weight":1158918,"coordinates":{"lat":57.181828,"lon":65.35024},"type":"city","searchable":false},{"name":"Лиссабон","country_name":"Португалия","country_code":"PT","code":"LIS","index_strings":["LIS","Лиссабон","Португалия","PT","Lisbon","Portugal"],"timezone":"Europe\/Lisbon","weight":1145947,"coordinates":{"lat":38.706932,"lon":-9.1356321},"type":"city","searchable":false},{"name":"Сургут","country_name":"Россия","country_code":"RU","code":"SGC","index_strings":["SGC","Сургут","Россия","RU","Surgut","Russia"],"timezone":"Asia\/Yekaterinburg","weight":1132747,"coordinates":{"lat":61.339916,"lon":73.40953},"type":"city","searchable":false},{"name":"Пермь","country_name":"Россия","country_code":"RU","code":"PEE","index_strings":["PEE","Пермь","Россия","RU","Perm","Russia"],"timezone":"Asia\/Yekaterinburg","weight":1104184,"coordinates":{"lat":57.920025,"lon":56.01918},"type":"city","searchable":false},{"name":"Хургада","country_name":"Египет","country_code":"EG","code":"HRG","index_strings":["HRG","Хургада","Египет","EG","Hurghada","Egypt"],"timezone":"Africa\/Cairo","weight":1095631,"coordinates":{"lat":27.189156,"lon":33.8055},"type":"city","searchable":false},{"name":"Шарм-эль-Шейх","country_name":"Египет","country_code":"EG","code":"SSH","index_strings":["SSH","Шарм-эль-Шейх","Египет","EG","Sharm el-Sheikh","Egypt"],"timezone":"Africa\/Cairo","weight":1076316,"coordinates":{"lat":27.979357,"lon":34.385254},"type":"city","searchable":false},{"name":"Одесса","country_name":"Украина","country_code":"UA","code":"ODS","index_strings":["ODS","Одесса","Украина","UA","Odessa","Ukraine"],"timezone":"Europe\/Kiev","weight":1051741,"coordinates":{"lat":46.44101,"lon":30.676718},"type":"city","searchable":false},{"name":"Филиппины","weight":1041259,"type":"country","code":"PH","searchable":true,"index_strings":["PH","Филиппины","Philippines"]},{"name":"Самуи","country_name":"Таиланд","country_code":"TH","code":"USM","index_strings":["USM","Самуи","Таиланд","TH","Koh Samui","Thailand"],"timezone":"Asia\/Bangkok","weight":1024100,"coordinates":{"lat":9.555315,"lon":100.0628},"type":"city","searchable":false},{"name":"Волгоград","country_name":"Россия","country_code":"RU","code":"VOG","index_strings":["VOG","Волгоград","Россия","RU","Volgograd","Russia"],"timezone":"Europe\/Volgograd","weight":1010793,"coordinates":{"lat":48.792,"lon":44.354805},"type":"city","searchable":false},{"name":"Петропавловск-Камчатский","country_name":"Россия","country_code":"RU","code":"PKC","index_strings":["PKC","Петропавловск-Камчатский","Россия","RU","Petropavlovsk-Kamchatsky","Russia"],"timezone":"Asia\/Kamchatka","weight":999221,"coordinates":{"lat":53.016666,"lon":158.65},"type":"city","searchable":false},{"name":"Астана","country_name":"Казахстан","country_code":"KZ","code":"TSE","index_strings":["TSE","Астана","Казахстан","KZ","Astana","Kazakhstan"],"timezone":"Asia\/Almaty","weight":978326,"coordinates":{"lat":51.02781,"lon":71.46120000000001},"type":"city","searchable":false},{"name":"Новый Уренгой","country_name":"Россия","country_code":"RU","code":"NUX","index_strings":["NUX","Новый Уренгой","Россия","RU","Novy Urengoy","Russia"],"timezone":"Asia\/Yekaterinburg","weight":965159,"coordinates":{"lat":66.07335,"lon":76.522835},"type":"city","searchable":false},{"name":"Куба","weight":951409,"type":"country","code":"CU","searchable":true,"index_strings":["CU","Куба","Cuba"]},{"name":"Сингапур","weight":942116,"type":"country","code":"SG","searchable":true,"index_strings":["SG","Сингапур","Singapore"]},{"name":"Сингапур","country_name":"Сингапур","country_code":"SG","code":"SIN","index_strings":["SIN","Сингапур","SG","Singapore"],"timezone":"Asia\/Singapore","weight":942069,"coordinates":{"lat":1.2894365,"lon":103.8499802},"type":"city","searchable":false},{"name":"Швейцария","weight":937109,"type":"country","code":"CH","searchable":true,"index_strings":["CH","Швейцария","Switzerland"]},{"name":"Польша","weight":908189,"type":"country","code":"PL","searchable":true,"index_strings":["PL","Польша","Poland"]},{"name":"Латвия","weight":897247,"type":"country","code":"LV","searchable":true,"index_strings":["LV","Латвия","Latvia"]},{"name":"Рига","country_name":"Латвия","country_code":"LV","code":"RIX","index_strings":["RIX","Рига","Латвия","LV","Riga","Latvia"],"timezone":"Europe\/Riga","weight":896129,"coordinates":{"lat":56.92208,"lon":23.979807},"type":"city","searchable":false},{"name":"Римини","country_name":"Италия","country_code":"IT","code":"RMI","index_strings":["RMI","Римини","Италия","IT","Rimini","Italy"],"timezone":"Europe\/Rome","weight":883398,"coordinates":{"lat":44.022953,"lon":12.619594},"type":"city","searchable":false},{"name":"Южно-Сахалинск","country_name":"Россия","country_code":"RU","code":"UUS","index_strings":["UUS","Южно-Сахалинск","Россия","RU","Yuzhno-Sakhalinsk","Russia"],"timezone":"Asia\/Srednekolymsk","weight":869437,"coordinates":{"lat":46.966667,"lon":142.75},"type":"city","searchable":false},{"name":"Малайзия","weight":866781,"type":"country","code":"MY","searchable":true,"index_strings":["MY","Малайзия","Malaysia"]},{"name":"Ницца","country_name":"Франция","country_code":"FR","code":"NCE","index_strings":["NCE","Ницца","Франция","FR","Nice","France"],"timezone":"Europe\/Paris","weight":841412,"coordinates":{"lat":43.66049,"lon":7.205232},"type":"city","searchable":false},{"name":"Азербайджан","weight":838169,"type":"country","code":"AZ","searchable":true,"index_strings":["AZ","Азербайджан","Azerbaijan"]},{"name":"Австралия","weight":837608,"type":"country","code":"AU","searchable":true,"index_strings":["AU","Австралия","Australia"]},{"name":"Доминиканская Республика","weight":828305,"type":"country","code":"DO","searchable":true,"index_strings":["DO","Доминиканская Республика","Dominican Republic"]},{"name":"Мальдивы","weight":826065,"type":"country","code":"MV","searchable":true,"index_strings":["MV","Мальдивы","Maldives"]},{"name":"Мексика","weight":802577,"type":"country","code":"MX","searchable":true,"index_strings":["MX","Мексика","Mexico"]},{"name":"Самарканд","country_name":"Узбекистан","country_code":"UZ","code":"SKD","index_strings":["SKD","Самарканд","Узбекистан","UZ","Samarkand","Uzbekistan"],"timezone":"Asia\/Samarkand","weight":798918,"coordinates":{"lat":39.696217,"lon":66.99084999999999},"type":"city","searchable":false},{"name":"Барнаул","country_name":"Россия","country_code":"RU","code":"BAX","index_strings":["BAX","Барнаул","Россия","RU","Barnaul","Russia"],"timezone":"Asia\/Novokuznetsk","weight":797575,"coordinates":{"lat":53.361088,"lon":83.547646},"type":"city","searchable":false},{"name":"Мале","country_name":"Мальдивы","country_code":"MV","code":"MLE","index_strings":["MLE","Мале","Мальдивы","MV","Male","Maldives"],"timezone":"Indian\/Maldives","weight":793504,"coordinates":{"lat":4.201389,"lon":73.524445},"type":"city","searchable":false},{"name":"Владикавказ","country_name":"Россия","country_code":"RU","code":"OGZ","index_strings":["OGZ","Владикавказ","Россия","RU","Vladikavkaz","Russia"],"timezone":"Europe\/Moscow","weight":769402,"coordinates":{"lat":43.2,"lon":44.6},"type":"city","searchable":false},{"name":"Дели","country_name":"Индия","country_code":"IN","code":"DEL","index_strings":["DEL","Дели","Индия","IN","New Delhi","India"],"timezone":"Asia\/Kolkata","weight":767016,"coordinates":{"lat":28.556555,"lon":77.10079},"type":"city","searchable":false},{"name":"Мурманск","country_name":"Россия","country_code":"RU","code":"MMK","index_strings":["MMK","Мурманск","Россия","RU","Murmansk","Russia"],"timezone":"Europe\/Moscow","weight":764497,"coordinates":{"lat":68.785095,"lon":32.759155},"type":"city","searchable":false},{"name":"Хорватия","weight":762450,"type":"country","code":"HR","searchable":true,"index_strings":["HR","Хорватия","Croatia"]},{"name":"Финляндия","weight":759123,"type":"country","code":"FI","searchable":true,"index_strings":["FI","Финляндия","Finland"]},{"name":"Нижний Новгород","country_name":"Россия","country_code":"RU","code":"GOJ","index_strings":["GOJ","Нижний Новгород","Россия","RU","Nizhniy Novgorod","Russia"],"timezone":"Europe\/Moscow","weight":753987,"coordinates":{"lat":56.218613,"lon":43.789764},"type":"city","searchable":false},{"name":"Подгорица","country_name":"Черногория","country_code":"ME","code":"TGD","index_strings":["TGD","Подгорица","Черногория","ME","Podgorica","Montenegro"],"timezone":"Europe\/Podgorica","weight":750632,"coordinates":{"lat":42.368023,"lon":19.246023},"type":"city","searchable":false},{"name":"Варна","country_name":"Болгария","country_code":"BG","code":"VAR","index_strings":["VAR","Варна","Болгария","BG","Varna","Bulgaria"],"timezone":"Europe\/Sofia","weight":744539,"coordinates":{"lat":43.23726,"lon":27.829096},"type":"city","searchable":false},{"name":"Гавана","country_name":"Куба","country_code":"CU","code":"HAV","index_strings":["HAV","Гавана","Куба","CU","Havana","Cuba"],"timezone":"America\/Havana","weight":721693,"coordinates":{"lat":22.99845,"lon":-82.40818},"type":"city","searchable":false},{"name":"Ставрополь","country_name":"Россия","country_code":"RU","code":"STW","index_strings":["STW","Ставрополь","Россия","RU","Stavropol","Russia"],"timezone":"Europe\/Moscow","weight":691579,"coordinates":{"lat":45.333332,"lon":42.00833},"type":"city","searchable":false},{"name":"Якутск","country_name":"Россия","country_code":"RU","code":"YKS","index_strings":["YKS","Якутск","Россия","RU","Yakutsk","Russia"],"timezone":"Asia\/Yakutsk","weight":682575,"coordinates":{"lat":62.085606,"lon":129.75006},"type":"city","searchable":false},{"name":"Нижневартовск","country_name":"Россия","country_code":"RU","code":"NJC","index_strings":["NJC","Нижневартовск","Россия","RU","Nizhnevartovsk","Russia"],"timezone":"Asia\/Yekaterinburg","weight":676897,"coordinates":{"lat":60.9476,"lon":76.49145},"type":"city","searchable":false},{"name":"Салоники","country_name":"Греция","country_code":"GR","code":"SKG","index_strings":["SKG","Салоники","Греция","GR","Thessaloniki","Greece"],"timezone":"Europe\/Athens","weight":672119,"coordinates":{"lat":40.520832,"lon":22.972221},"type":"city","searchable":false},{"name":"Норильск","country_name":"Россия","country_code":"RU","code":"NSK","index_strings":["NSK","Норильск","Россия","RU","Norilsk","Russia"],"timezone":"Asia\/Krasnoyarsk","weight":668998,"coordinates":{"lat":69.32312,"lon":87.339806},"type":"city","searchable":false},{"name":"Манила","country_name":"Филиппины","country_code":"PH","code":"MNL","index_strings":["MNL","Манила","Филиппины","PH","Manila","Philippines"],"timezone":"Asia\/Manila","weight":666752,"coordinates":{"lat":14.5995124,"lon":120.9842195},"type":"city","searchable":false},{"name":"Астрахань","country_name":"Россия","country_code":"RU","code":"ASF","index_strings":["ASF","Астрахань","Россия","RU","Astrakhan","Russia"],"timezone":"Europe\/Samara","weight":651890,"coordinates":{"lat":46.2877,"lon":47.999977},"type":"city","searchable":false},{"name":"Ираклион (Крит)","country_name":"Греция","country_code":"GR","code":"HER","index_strings":["HER","Ираклион (Крит)","Греция","GR","Heraklion","Greece"],"timezone":"Europe\/Athens","weight":651507,"coordinates":{"lat":35.33663,"lon":25.174192},"type":"city","searchable":false},{"name":"Бельгия","weight":647308,"type":"country","code":"BE","searchable":true,"index_strings":["BE","Бельгия","Belgium"]},{"name":"Томск","country_name":"Россия","country_code":"RU","code":"TOF","index_strings":["TOF","Томск","Россия","RU","Tomsk","Russia"],"timezone":"Asia\/Novokuznetsk","weight":643595,"coordinates":{"lat":56.5,"lon":84.96666999999999},"type":"city","searchable":false},{"name":"Сербия","weight":641806,"type":"country","code":"RS","searchable":true,"index_strings":["RS","Сербия","Serbia"]},{"name":"Пунта-Кана","country_name":"Доминиканская Республика","country_code":"DO","code":"PUJ","index_strings":["PUJ","Пунта-Кана","Доминиканская Республика","DO","Higuey","Dominican Republic"],"timezone":"America\/Santo_Domingo","weight":633969,"coordinates":{"lat":18.562477,"lon":-68.364},"type":"city","searchable":false},{"name":"Белград","country_name":"Сербия","country_code":"RS","code":"BEG","index_strings":["BEG","Белград","Сербия","RS","Belgrade","Serbia"],"timezone":"Europe\/Belgrade","weight":623807,"coordinates":{"lat":44.802416,"lon":20.465601},"type":"city","searchable":false},{"name":"Хельсинки","country_name":"Финляндия","country_code":"FI","code":"HEL","index_strings":["helsinki","хельсинки","HEL","Финляндия","FI","Finland"],"timezone":"Europe\/Helsinki","weight":621641,"coordinates":{"lat":60.2943605,"lon":25.0402427},"type":"city","searchable":false},{"name":"Оренбург","country_name":"Россия","country_code":"RU","code":"REN","index_strings":["REN","Оренбург","Россия","RU","Orenburg","Russia"],"timezone":"Asia\/Yekaterinburg","weight":615572,"coordinates":{"lat":51.79105,"lon":55.4567},"type":"city","searchable":false},{"name":"Батуми","country_name":"Грузия","country_code":"GE","code":"BUS","index_strings":["BUS","Батуми","Грузия","GE","Batumi","Georgia"],"timezone":"Asia\/Tbilisi","weight":615244,"coordinates":{"lat":41.610832,"lon":41.600555},"type":"city","searchable":false},{"name":"Литва","weight":614727,"type":"country","code":"LT","searchable":true,"index_strings":["LT","Литва","Lithuania"]},{"name":"Саратов","country_name":"Россия","country_code":"RU","code":"RTW","index_strings":["RTW","Саратов","Россия","RU","Saratov","Russia"],"timezone":"Europe\/Volgograd","weight":612056,"coordinates":{"lat":51.566666,"lon":46.066666},"type":"city","searchable":false},{"name":"Улан-Удэ","country_name":"Россия","country_code":"RU","code":"UUD","index_strings":["UUD","Улан-Удэ","Россия","RU","Ulan-ude","Russia"],"timezone":"Asia\/Irkutsk","weight":598961,"coordinates":{"lat":51.833332,"lon":107.5},"type":"city","searchable":false},{"name":"Пальма-де-Майорка","country_name":"Испания","country_code":"ES","code":"PMI","index_strings":["PMI","Пальма-де-Майорка","Испания","ES","Palma de Mallorca","Spain"],"timezone":"Europe\/Madrid","weight":594841,"coordinates":{"lat":39.547653,"lon":2.730388},"type":"city","searchable":false},{"name":"Гуанчжоу","country_name":"Китай","country_code":"CN","code":"CAN","index_strings":["CAN","Гуанчжоу","Китай","CN","Guangzhou","China"],"timezone":"Asia\/Shanghai","weight":591226,"coordinates":{"lat":23.387861,"lon":113.29734},"type":"city","searchable":false},{"name":"Вильнюс","country_name":"Литва","country_code":"LT","code":"VNO","index_strings":["VNO","Вильнюс","Литва","LT","Vilnius","Lithuania"],"timezone":"Europe\/Vilnius","weight":556747,"coordinates":{"lat":54.643078,"lon":25.279606},"type":"city","searchable":false},{"name":"Благовещенск","country_name":"Россия","country_code":"RU","code":"BQS","index_strings":["BQS","Благовещенск","Россия","RU","Blagoveschensk","Russia"],"timezone":"Asia\/Yakutsk","weight":553929,"coordinates":{"lat":50.416668,"lon":127.4},"type":"city","searchable":false},{"name":"Белгород","country_name":"Россия","country_code":"RU","code":"EGO","index_strings":["EGO","Белгород","Россия","RU","Belgorod","Russia"],"timezone":"Europe\/Moscow","weight":542443,"coordinates":{"lat":50.63333,"lon":36.65},"type":"city","searchable":false},{"name":"Грозный","country_name":"Россия","country_code":"RU","code":"GRV","index_strings":["GRV","Грозный","Россия","RU","Groznyj","Russia"],"timezone":"Europe\/Moscow","weight":536777,"coordinates":{"lat":43.333332,"lon":45.75},"type":"city","searchable":false},{"name":"София","country_name":"Болгария","country_code":"BG","code":"SOF","index_strings":["SOF","София","Болгария","BG","Sofia","Bulgaria"],"timezone":"Europe\/Sofia","weight":523397,"coordinates":{"lat":42.688343,"lon":23.41443},"type":"city","searchable":false},{"name":"Паттайя","country_name":"Таиланд","country_code":"TH","code":"UTP","index_strings":["UTP","Паттайя","Таиланд","TH","Pattaya","Thailand"],"timezone":"Asia\/Bangkok","weight":517573,"coordinates":{"lat":12.683333,"lon":101.01667},"type":"city","searchable":false},{"name":"Воронеж","country_name":"Россия","country_code":"RU","code":"VOZ","index_strings":["VOZ","Воронеж","Россия","RU","Voronezh","Russia"],"timezone":"Europe\/Moscow","weight":509850,"coordinates":{"lat":51.812355,"lon":39.226997},"type":"city","searchable":false},{"name":"Женева","country_name":"Швейцария","country_code":"CH","code":"GVA","index_strings":["GVA","Женева","Швейцария","CH","Geneva","Switzerland"],"timezone":"Europe\/Zurich","weight":503178,"coordinates":{"lat":46.1983922,"lon":6.1422961},"type":"city","searchable":false},{"name":"Фергана","country_name":"Узбекистан","country_code":"UZ","code":"FEG","index_strings":["FEG","Фергана","Узбекистан","UZ","Fergana","Uzbekistan"],"timezone":"Asia\/Tashkent","weight":497004,"coordinates":{"lat":40.350277,"lon":71.73361},"type":"city","searchable":false},{"name":"Пафос","country_name":"Кипр","country_code":"CY","code":"PFO","index_strings":["PFO","Пафос","Кипр","CY","Paphos","Cyprus"],"timezone":"Asia\/Nicosia","weight":496340,"coordinates":{"lat":34.71155,"lon":32.489105},"type":"city","searchable":false},{"name":"Кольцово","country_name":"Россия","city_code":"SVX","city_name":"Екатеринбург","code":"SVX","country_code":"RU","index_strings":["SVX","Кольцово","Екатеринбург","Россия","RU","Koltsovo International","Ekaterinburg","Russia"],"timezone":"Asia\/Yekaterinburg","weight":493708,"coordinates":{"lat":56.750336,"lon":60.804314},"type":"airport","searchable":true},{"name":"Канкун","country_name":"Мексика","country_code":"MX","code":"CUN","index_strings":["CUN","Канкун","Мексика","MX","Cancun","Mexico"],"timezone":"America\/Cancun","weight":493678,"coordinates":{"lat":21.040457,"lon":-86.87443500000001},"type":"city","searchable":false},{"name":"Ханой","country_name":"Вьетнам","country_code":"VN","code":"HAN","index_strings":["HAN","Ханой","Вьетнам","VN","Hanoi","Vietnam"],"timezone":"Asia\/Ho_Chi_Minh","weight":480914,"coordinates":{"lat":21.214184,"lon":105.802826},"type":"city","searchable":false},{"name":"Норвегия","weight":480572,"type":"country","code":"NO","searchable":true,"index_strings":["NO","Норвегия","Norway"]},{"name":"Марокко","weight":477747,"type":"country","code":"MA","searchable":true,"index_strings":["MA","Марокко","Morocco"]},{"name":"Архангельск","country_name":"Россия","country_code":"RU","code":"ARH","index_strings":["ARH","Архангельск","Россия","RU","Arkhangelsk","Russia"],"timezone":"Europe\/Moscow","weight":477142,"coordinates":{"lat":64.594795,"lon":40.711903},"type":"city","searchable":false},{"name":"Камбоджа","weight":475886,"type":"country","code":"KH","searchable":true,"index_strings":["KH","Камбоджа","Cambodia"]},{"name":"Суварнабхуми","country_name":"Таиланд","city_code":"BKK","city_name":"Бангкок","code":"BKK","country_code":"TH","index_strings":["BKK","Суварнабхуми","Бангкок","Таиланд","TH","Suvarnabhumi International","Bangkok","Thailand"],"timezone":"Asia\/Bangkok","weight":463244,"coordinates":{"lat":13.693062,"lon":100.752045},"type":"airport","searchable":true},{"name":"Бангкок","country_name":"Таиланд","country_code":"TH","code":"BKK","index_strings":["BKK","Бангкок","Таиланд","TH","Bangkok","Thailand"],"timezone":"Asia\/Bangkok","weight":463244,"coordinates":{"lat":13.7234186,"lon":100.4762319},"type":"city","searchable":true},{"name":"Чита","country_name":"Россия","country_code":"RU","code":"HTA","index_strings":["HTA","Чита","Россия","RU","Chita","Russia"],"timezone":"Asia\/Chita","weight":440081,"coordinates":{"lat":52.033333,"lon":113.3},"type":"city","searchable":false},{"name":"Родос","country_name":"Греция","country_code":"GR","code":"RHO","index_strings":["RHO","Родос","Греция","GR","Rhodes","Greece"],"timezone":"Europe\/Athens","weight":436835,"coordinates":{"lat":36.401867,"lon":28.090677},"type":"city","searchable":false},{"name":"Эстония","weight":435496,"type":"country","code":"EE","searchable":true,"index_strings":["EE","Эстония","Estonia"]},{"name":"Кемерово","country_name":"Россия","country_code":"RU","code":"KEJ","index_strings":["KEJ","Кемерово","Россия","RU","Kemerovo","Russia"],"timezone":"Asia\/Novokuznetsk","weight":431622,"coordinates":{"lat":55.280567,"lon":86.11623},"type":"city","searchable":false},{"name":"Дания","weight":431388,"type":"country","code":"DK","searchable":true,"index_strings":["DK","Дания","Denmark"]},{"name":"Таллин","country_name":"Эстония","country_code":"EE","code":"TLL","index_strings":["TLL","Таллин","Эстония","EE","Tallinn","Estonia"],"timezone":"Europe\/Tallinn","weight":425992,"coordinates":{"lat":59.4388619,"lon":24.7544715},"type":"city","searchable":false},{"name":"Новокузнецк","country_name":"Россия","country_code":"RU","code":"NOZ","index_strings":["NOZ","Новокузнецк","Россия","RU","Novokuznetsk","Russia"],"timezone":"Asia\/Novokuznetsk","weight":424205,"coordinates":{"lat":53.75,"lon":87.166664},"type":"city","searchable":false},{"name":"Днепропетровск","country_name":"Украина","country_code":"UA","code":"DNK","index_strings":["DNK","Днепропетровск","Украина","UA","Dnepropetrovsk","Ukraine"],"timezone":"Europe\/Kiev","weight":424162,"coordinates":{"lat":48.36874,"lon":35.09446},"type":"city","searchable":false},{"name":"Толмачево","country_name":"Россия","city_code":"OVB","city_name":"Новосибирск","code":"OVB","country_code":"RU","index_strings":["OVB","Толмачево","Новосибирск","Россия","RU","Tolmachevo","Novosibirsk","Russia"],"timezone":"Asia\/Phnom_Penh","weight":423871,"coordinates":{"lat":55.00901,"lon":82.667},"type":"airport","searchable":true},{"name":"Нальчик","country_name":"Россия","country_code":"RU","code":"NAL","index_strings":["NAL","Нальчик","Россия","RU","Nalchik","Russia"],"timezone":"Europe\/Moscow","weight":423497,"coordinates":{"lat":43.533333,"lon":43.7},"type":"city","searchable":false},{"name":"Сочи (Адлер)","country_name":"Россия","city_code":"AER","city_name":"Сочи (Адлер)","code":"AER","country_code":"RU","index_strings":["AER","Сочи (Адлер)","Россия","RU","Sochi\/Adler International Airport","Sochi","Russia"],"timezone":"Europe\/Moscow","weight":414837,"coordinates":{"lat":43.44884,"lon":39.941105},"type":"airport","searchable":true},{"name":"Барселона","country_name":"Испания","country_code":"ES","code":"BCN","index_strings":["BCN","Барселона","Испания","ES","Barcelona","Spain"],"timezone":"Europe\/Madrid","weight":413784,"coordinates":{"lat":41.387917,"lon":2.1699187},"type":"city","searchable":true},{"name":"Эль-Прат","country_name":"Испания","city_code":"BCN","city_name":"Барселона","code":"BCN","country_code":"ES","index_strings":["BCN","Эль-Прат","Барселона","Испания","ES","El Prat De Llobregat","Barcelona","Spain"],"timezone":"Europe\/Madrid","weight":413784,"coordinates":{"lat":41.30303,"lon":2.07593},"type":"airport","searchable":true},{"name":"Гянджа","country_name":"Азербайджан","country_code":"AZ","code":"KVD","index_strings":["KVD","Гянджа","Азербайджан","AZ","Gyandzha","Azerbaijan"],"timezone":"Asia\/Baku","weight":413338,"coordinates":{"lat":40.733334,"lon":46.316666},"type":"city","searchable":false},{"name":"Львов","country_name":"Украина","country_code":"UA","code":"LWO","index_strings":["LWO","Львов","Украина","UA","Lviv","Ukraine"],"timezone":"Europe\/Kiev","weight":410887,"coordinates":{"lat":49.816418,"lon":23.955318},"type":"city","searchable":false},{"name":"Ижевск","country_name":"Россия","country_code":"RU","code":"IJK","index_strings":["IJK","Ижевск","Россия","RU","Izhevsk","Russia"],"timezone":"Europe\/Samara","weight":401627,"coordinates":{"lat":56.833332,"lon":53.466667},"type":"city","searchable":false},{"name":"Абакан","country_name":"Россия","country_code":"RU","code":"ABA","index_strings":["ABA","Абакан","Россия","RU","Abakan","Russia"],"timezone":"Asia\/Krasnoyarsk","weight":395646,"coordinates":{"lat":53.716667,"lon":91.5},"type":"city","searchable":false},{"name":"Цюрих","country_name":"Швейцария","country_code":"CH","code":"ZRH","index_strings":["ZRH","Цюрих","Швейцария","CH","Zurich","Switzerland"],"timezone":"Europe\/Zurich","weight":385137,"coordinates":{"lat":47.367347,"lon":8.5500025},"type":"city","searchable":false},{"name":"Санья","country_name":"Китай","country_code":"CN","code":"SYX","index_strings":["SYX","Санья","Китай","CN","Sanya","China"],"timezone":"Asia\/Shanghai","weight":384175,"coordinates":{"lat":18.31063,"lon":109.409706},"type":"city","searchable":false},{"name":"Магадан","country_name":"Россия","country_code":"RU","code":"GDX","index_strings":["GDX","Магадан","Россия","RU","Magadan","Russia"],"timezone":"Asia\/Magadan","weight":383014,"coordinates":{"lat":59.916668,"lon":150.71666},"type":"city","searchable":false},{"name":"Сыктывкар","country_name":"Россия","country_code":"RU","code":"SCW","index_strings":["SCW","Сыктывкар","Россия","RU","Syktyvkar","Russia"],"timezone":"Europe\/Moscow","weight":368719,"coordinates":{"lat":61.666668,"lon":50.766666},"type":"city","searchable":false},{"name":"Париж","country_name":"Франция","country_code":"FR","code":"PAR","index_strings":["PAR","Париж","Франция","FR","Paris","France"],"timezone":"Europe\/Paris","weight":364708,"coordinates":{"lat":48.856614,"lon":2.3522219},"type":"city","searchable":true},{"name":"Набережные Челны (Нижнекамск)","country_name":"Россия","country_code":"RU","code":"NBC","index_strings":["NBC","Набережные Челны (Нижнекамск)","Россия","RU","Naberevnye Chelny (Nizhnekamsk)","Russia"],"timezone":"Europe\/Moscow","weight":358842,"coordinates":{"lat":55.564125,"lon":52.10341},"type":"city","searchable":false},{"name":"Пашковский","country_name":"Россия","city_code":"KRR","city_name":"Краснодар","code":"KRR","country_code":"RU","index_strings":["KRR","Пашковский","Краснодар","Россия","RU","Pashkovsky","Krasnodar","Russia"],"timezone":"Europe\/Moscow","weight":357820,"coordinates":{"lat":45.034138,"lon":39.139004},"type":"airport","searchable":true},{"name":"Бухара","country_name":"Узбекистан","country_code":"UZ","code":"BHK","index_strings":["BHK","Бухара","Узбекистан","UZ","Bukhara","Uzbekistan"],"timezone":"Asia\/Samarkand","weight":350260,"coordinates":{"lat":39.76037,"lon":64.47479},"type":"city","searchable":false},{"name":"Мальта","weight":344312,"type":"country","code":"MT","searchable":true,"index_strings":["MT","Мальта","Malta"]},{"name":"Луа","country_name":"Мальта","country_code":"MT","code":"MLA","index_strings":["MLA","Луа","Мальта","MT","Luqa","Malta"],"timezone":"Europe\/Malta","weight":344183,"coordinates":{"lat":35.849777,"lon":14.495401},"type":"city","searchable":false},{"name":"Ургенч","country_name":"Узбекистан","country_code":"UZ","code":"UGC","index_strings":["UGC","Ургенч","Узбекистан","UZ","Urgench","Uzbekistan"],"timezone":"Asia\/Samarkand","weight":343117,"coordinates":{"lat":41.584835,"lon":60.63303},"type":"city","searchable":false},{"name":"Симферополь","country_name":"Крым","city_code":"SIP","city_name":"Симферополь","code":"SIP","country_code":"KX","index_strings":["SIP","Симферополь","Крым","KX","Simferopol","Crimea"],"timezone":"Europe\/Simferopol","weight":338652,"coordinates":{"lat":45.020657,"lon":33.99819},"type":"airport","searchable":true},{"name":"Шымкент","country_name":"Казахстан","country_code":"KZ","code":"CIT","index_strings":["CIT","Шымкент","Казахстан","KZ","Shimkent","Kazakhstan"],"timezone":"Asia\/Almaty","weight":336476,"coordinates":{"lat":42.3,"lon":69.59999999999999},"type":"city","searchable":false},{"name":"Борисполь","country_name":"Украина","city_code":"IEV","city_name":"Киев","code":"KBP","country_code":"UA","index_strings":["KBP","Борисполь","Киев","IEV","Украина","UA","Boryspil (Borispol)","Kiev","Ukraine"],"timezone":"Europe\/Kiev","weight":333239,"coordinates":{"lat":50.341244,"lon":30.895206},"type":"airport","searchable":true},{"name":"Киев","country_name":"Украина","country_code":"UA","code":"IEV","index_strings":["IEV","Киев","Украина","UA","Kiev","Ukraine"],"timezone":"Europe\/Kiev","weight":333239,"coordinates":{"lat":50.45,"lon":30.5},"type":"city","searchable":true},{"name":"Штутгарт","country_name":"Германия","country_code":"DE","code":"STR","index_strings":["STR","Штутгарт","Германия","DE","Stuttgart","Germany"],"timezone":"Europe\/Berlin","weight":327223,"coordinates":{"lat":48.7771056,"lon":9.180768799999999},"type":"city","searchable":true},{"name":"Ганновер","country_name":"Германия","country_code":"DE","code":"HAJ","index_strings":["HAJ","Ганновер","Германия","DE","Hanover","Germany"],"timezone":"Europe\/Berlin","weight":312949,"coordinates":{"lat":52.3720683,"lon":9.735686100000001},"type":"city","searchable":true},{"name":"Сейшелы","weight":311194,"type":"country","code":"SC","searchable":true,"index_strings":["SC","Сейшелы","Seychelles"]},{"name":"Пном-Пень","country_name":"Камбоджа","country_code":"KH","code":"PNH","index_strings":["PNH","Пном-Пень","Камбоджа","KH","Phnom Penh","Cambodia"],"timezone":"Asia\/Phnom_Penh","weight":304733,"coordinates":{"lat":11.546111,"lon":104.84778},"type":"city","searchable":false},{"name":"Флоренция","country_name":"Италия","country_code":"IT","code":"FLR","index_strings":["FLR","Флоренция","Италия","IT","Florence","Italy"],"timezone":"Europe\/Rome","weight":304513,"coordinates":{"lat":43.7687324,"lon":11.2569013},"type":"city","searchable":true},{"name":"Великобритания","weight":304266,"type":"country","code":"GB","searchable":true,"index_strings":["GB","Великобритания","United Kingdom"]},{"name":"Караганда","country_name":"Казахстан","country_code":"KZ","code":"KGF","index_strings":["KGF","Караганда","Казахстан","KZ","Karaganda","Kazakhstan"],"timezone":"Asia\/Almaty","weight":298629,"coordinates":{"lat":49.67526,"lon":73.32836},"type":"city","searchable":false},{"name":"Наманган","country_name":"Узбекистан","country_code":"UZ","code":"NMA","index_strings":["NMA","Наманган","Узбекистан","UZ","Namangan","Uzbekistan"],"timezone":"Asia\/Tashkent","weight":298493,"coordinates":{"lat":40.983334,"lon":71.59999999999999},"type":"city","searchable":false},{"name":"Каир","country_name":"Египет","country_code":"EG","code":"CAI","index_strings":["CAI","Каир","Египет","EG","Cairo","Egypt"],"timezone":"Africa\/Cairo","weight":295648,"coordinates":{"lat":30.120106,"lon":31.40647},"type":"city","searchable":false},{"name":"Новая Зеландия","weight":288487,"type":"country","code":"NZ","searchable":true,"index_strings":["NZ","Новая Зеландия","New Zealand"]},{"name":"Андижан","country_name":"Узбекистан","country_code":"UZ","code":"AZN","index_strings":["AZN","Андижан","Узбекистан","UZ","Andizhan","Uzbekistan"],"timezone":"Asia\/Tashkent","weight":287098,"coordinates":{"lat":40.733334,"lon":72.3},"type":"city","searchable":false},{"name":"Даламан","country_name":"Турция","country_code":"TR","code":"DLM","index_strings":["DLM","Даламан","Турция","TR","Dalaman","Turkey"],"timezone":"Europe\/Istanbul","weight":286678,"coordinates":{"lat":36.716667,"lon":28.783333},"type":"city","searchable":false},{"name":"Тунис","weight":285600,"type":"country","code":"TN","searchable":true,"index_strings":["TN","Тунис","Tunisia"]},{"name":"Палермо","country_name":"Италия","country_code":"IT","code":"PMO","index_strings":["PMO","Палермо","Италия","IT","Palermo","Italy"],"timezone":"Europe\/Rome","weight":283044,"coordinates":{"lat":38.186523,"lon":13.104779},"type":"city","searchable":false},{"name":"Куляб","country_name":"Таджикистан","country_code":"TJ","code":"TJU","index_strings":["TJU","Куляб","Таджикистан","TJ","Kulyab","Tajikistan"],"timezone":"Asia\/Dushanbe","weight":282327,"coordinates":{"lat":37.988335,"lon":69.80665999999999},"type":"city","searchable":false},{"name":"Куляб","country_name":"Таджикистан","city_code":"TJU","city_name":"Куляб","code":"TJU","country_code":"TJ","index_strings":["TJU","Куляб","Таджикистан","TJ","Kulyab","Tajikistan"],"timezone":"Asia\/Dushanbe","weight":282289,"coordinates":{"lat":37.988335,"lon":69.80665999999999},"type":"airport","searchable":true},{"name":"Кутаиси","country_name":"Грузия","country_code":"GE","code":"KUT","index_strings":["KUT","Кутаиси","Грузия","GE","Kutaisi","Georgia"],"timezone":"Asia\/Tbilisi","weight":280274,"coordinates":{"lat":42.25,"lon":42.7},"type":"city","searchable":false},{"name":"Канада","weight":279172,"type":"country","code":"CA","searchable":true,"index_strings":["CA","Канада","Canada"]},{"name":"Маэ","country_name":"Сейшелы","country_code":"SC","code":"SEZ","index_strings":["SEZ","Маэ","Сейшелы","SC","Mahe Island","Seychelles"],"timezone":"Indian\/Mahe","weight":276958,"coordinates":{"lat":-4.671275,"lon":55.51128},"type":"city","searchable":false},{"name":"Бен-Гурион","country_name":"Израиль","city_code":"TLV","city_name":"Тель-Авив","code":"TLV","country_code":"IL","index_strings":["TLV","Бен-Гурион","Тель-Авив","Израиль","IL","Ben Gurion International","Tel Aviv-Yafo","Israel"],"timezone":"Asia\/Jerusalem","weight":276722,"coordinates":{"lat":32.000454,"lon":34.870743},"type":"airport","searchable":true},{"name":"Тель-Авив","country_name":"Израиль","country_code":"IL","code":"TLV","index_strings":["TLV","Тель-Авив","Израиль","IL","Tel Aviv-Yafo","Israel"],"timezone":"Asia\/Jerusalem","weight":276722,"coordinates":{"lat":32.000454,"lon":34.870743},"type":"city","searchable":true},{"name":"Марсель","country_name":"Франция","country_code":"FR","code":"MRS","index_strings":["MRS","Марсель","Франция","FR","Marseille","France"],"timezone":"Europe\/Paris","weight":272565,"coordinates":{"lat":43.296482,"lon":5.36978},"type":"city","searchable":true},{"name":"Актау","country_name":"Казахстан","country_code":"KZ","code":"SCO","index_strings":["SCO","Актау","Казахстан","KZ","Aktau","Kazakhstan"],"timezone":"Asia\/Aqtau","weight":271540,"coordinates":{"lat":43.86667,"lon":51.1},"type":"city","searchable":false},{"name":"Туркменистан","weight":269057,"type":"country","code":"TM","searchable":true,"index_strings":["TM","Туркменистан","Turkmenistan"]},{"name":"Ирландия","weight":267172,"type":"country","code":"IE","searchable":true,"index_strings":["IE","Ирландия","Ireland"]},{"name":"Рим","country_name":"Италия","country_code":"IT","code":"ROM","index_strings":["ROM","Рим","Италия","IT","Rome","Italy"],"timezone":"Europe\/Rome","weight":266632,"coordinates":{"lat":41.8905198,"lon":12.4942486},"type":"city","searchable":true},{"name":"Харьков","country_name":"Украина","country_code":"UA","code":"HRK","index_strings":["HRK","Харьков","Украина","UA","Kharkiv","Ukraine"],"timezone":"Europe\/Kiev","weight":265736,"coordinates":{"lat":49.92078,"lon":36.281185},"type":"city","searchable":false},{"name":"Ашхабад","country_name":"Туркменистан","country_code":"TM","code":"ASB","index_strings":["ASB","Ашхабад","Туркменистан","TM","Ashgabat","Turkmenistan"],"timezone":"Asia\/Ashgabat","weight":263459,"coordinates":{"lat":37.984184,"lon":58.366978},"type":"city","searchable":false},{"name":"Катания","country_name":"Италия","country_code":"IT","code":"CTA","index_strings":["CTA","Катания","Италия","IT","Catania","Italy"],"timezone":"Europe\/Rome","weight":262099,"coordinates":{"lat":37.47066,"lon":15.065877},"type":"city","searchable":false},{"name":"Магнитогорск","country_name":"Россия","country_code":"RU","code":"MQF","index_strings":["MQF","Магнитогорск","Россия","RU","Magnitogorsk","Russia"],"timezone":"Asia\/Yekaterinburg","weight":260690,"coordinates":{"lat":53.45,"lon":59.066666},"type":"city","searchable":false},{"name":"Емельяново","country_name":"Россия","city_code":"KJA","city_name":"Красноярск","code":"KJA","country_code":"RU","index_strings":["KJA","Емельяново","Красноярск","Россия","RU","Krasnojarsk","Russia"],"timezone":"Asia\/Krasnoyarsk","weight":259365,"coordinates":{"lat":56.18113,"lon":92.48286},"type":"airport","searchable":true},{"name":"Дублин","country_name":"Ирландия","country_code":"IE","code":"DUB","index_strings":["DUB","Дублин","Ирландия","IE","Dublin","Ireland"],"timezone":"Europe\/Dublin","weight":253004,"coordinates":{"lat":53.42728,"lon":-6.24357},"type":"city","searchable":false},{"name":"Ибица","country_name":"Испания","country_code":"ES","code":"IBZ","index_strings":["IBZ","Ибица","Испания","ES","Ibiza","Spain"],"timezone":"Europe\/Madrid","weight":249676,"coordinates":{"lat":38.876595,"lon":1.367803},"type":"city","searchable":false},{"name":"Ноябрьск","country_name":"Россия","country_code":"RU","code":"NOJ","index_strings":["NOJ","Ноябрьск","Россия","RU","Nojabrxsk","Russia"],"timezone":"Asia\/Yekaterinburg","weight":247291,"coordinates":{"lat":63.17673,"lon":75.29459},"type":"city","searchable":false},{"name":"Нью-Йорк","country_name":"США","country_code":"US","code":"NYC","index_strings":["NYC","Нью-Йорк","США","US","New York","United States"],"timezone":"America\/New_York","weight":244835,"coordinates":{"lat":40.7143528,"lon":-74.00597310000001},"type":"city","searchable":true},{"name":"Чебоксары","country_name":"Россия","country_code":"RU","code":"CSY","index_strings":["CSY","Чебоксары","Россия","RU","Cheboksary","Russia"],"timezone":"Europe\/Moscow","weight":239882,"coordinates":{"lat":56.13333,"lon":47.266666},"type":"city","searchable":false},{"name":"Маврикий","weight":233072,"type":"country","code":"MU","searchable":true,"index_strings":["MU","Маврикий","Mauritius"]},{"name":"Дубровник","country_name":"Хорватия","country_code":"HR","code":"DBV","index_strings":["DBV","Дубровник","Хорватия","HR","Dubrovnik","Croatia"],"timezone":"Europe\/Zagreb","weight":224272,"coordinates":{"lat":42.56072,"lon":18.260616},"type":"city","searchable":false},{"name":"Усть-Каменогорск","country_name":"Казахстан","country_code":"KZ","code":"UKK","index_strings":["UKK","Усть-Каменогорск","Казахстан","KZ","Ust-kamenogorsk","Kazakhstan"],"timezone":"Asia\/Almaty","weight":223379,"coordinates":{"lat":50.025723,"lon":82.5056},"type":"city","searchable":false},{"name":"Прага","country_name":"Чехия","country_code":"CZ","code":"PRG","index_strings":["PRG","Прага","Чехия","CZ","Prague","Czech Republic"],"timezone":"Europe\/Prague","weight":223143,"coordinates":{"lat":50.0878114,"lon":14.4204598},"type":"city","searchable":true},{"name":"Вацлав Гавел","country_name":"Чехия","city_code":"PRG","city_name":"Прага","code":"PRG","country_code":"CZ","index_strings":["PRG","Вацлав Гавел","Прага","Чехия","CZ","Prague Vaclav Havel Airport","Prague","Czech Republic"],"timezone":"Europe\/Prague","weight":223143,"coordinates":{"lat":50.10619,"lon":14.266638},"type":"airport","searchable":true},{"name":"Перу","weight":220443,"type":"country","code":"PE","searchable":true,"index_strings":["PE","Перу","Peru"]},{"name":"Вантаа","country_name":"Финляндия","city_code":"HEL","city_name":"Хельсинки","code":"HEL","country_code":"FI","index_strings":["HEL","Вантаа","Хельсинки","Финляндия","FI","Helsinki-vantaa","Helsinki","Finland"],"timezone":"Europe\/Helsinki","weight":217934,"coordinates":{"lat":60.31795,"lon":24.96645},"type":"airport","searchable":true},{"name":"Алания","country_name":"Турция","country_code":"TR","code":"GZP","index_strings":["GZP","Алания","Турция","TR","Gazipasa","Turkey"],"timezone":"Europe\/Istanbul","weight":217747,"coordinates":{"lat":36.2993,"lon":32.3014},"type":"city","searchable":false},{"name":"Gazipasa Airport","country_name":"Turkey","city_code":"GZP","city_name":"Gazipasa","code":"GZP","country_code":"TR","index_strings":["GZP","Gazipasa Airport","Gazipasa","Turkey","TR"],"timezone":"Europe\/Istanbul","weight":217746,"coordinates":{"lat":36.2993,"lon":32.3014},"type":"airport","searchable":true},{"name":"Ханты-Мансийск","country_name":"Россия","country_code":"RU","code":"HMA","index_strings":["HMA","Ханты-Мансийск","Россия","RU","Khanty-Mansiysk","Russia"],"timezone":"Asia\/Yekaterinburg","weight":216950,"coordinates":{"lat":61.02613,"lon":69.09714},"type":"city","searchable":false},{"name":"Салехард","country_name":"Россия","country_code":"RU","code":"SLY","index_strings":["SLY","Салехард","Россия","RU","Salekhard","Russia"],"timezone":"Asia\/Yekaterinburg","weight":214651,"coordinates":{"lat":66.583336,"lon":66.59999999999999},"type":"city","searchable":false},{"name":"Корфу","country_name":"Греция","country_code":"GR","code":"CFU","index_strings":["CFU","Корфу","Греция","GR","Kerkyra","Greece"],"timezone":"Europe\/Athens","weight":212074,"coordinates":{"lat":39.60784,"lon":19.914644},"type":"city","searchable":false},{"name":"Звартноц ","country_name":"Армения","city_code":"EVN","city_name":"Ереван","code":"EVN","country_code":"AM","index_strings":["EVN","Звартноц ","Ереван","Армения","AM","Zvartnots International","Yerevan","Armenia"],"timezone":"Asia\/Yerevan","weight":210365,"coordinates":{"lat":40.15272,"lon":44.39805},"type":"airport","searchable":true},{"name":"Французская Полинезия","weight":208925,"type":"country","code":"PF","searchable":true,"index_strings":["PF","Французская Полинезия","French Polynesia"]},{"name":"Окленд","country_name":"Новая Зеландия","country_code":"NZ","code":"AKL","index_strings":["AKL","Окленд","Новая Зеландия","NZ","Auckland","New Zealand"],"timezone":"Pacific\/Auckland","weight":204179,"coordinates":{"lat":-36.8484597,"lon":174.7633315},"type":"city","searchable":false},{"name":"Мумбаи","country_name":"Индия","country_code":"IN","code":"BOM","index_strings":["бомбей","bombay","BOM","Мумбаи","Индия","IN","Mumbai","India"],"timezone":"Asia\/Kolkata","weight":204163,"coordinates":{"lat":19.095509,"lon":72.87497},"type":"city","searchable":false},{"name":"Папуа Новая Гвинея","weight":203881,"type":"country","code":"PG","searchable":true,"index_strings":["PG","Папуа Новая Гвинея","Papua New Guinea"]},{"name":"Горно-Алтайск","country_name":"Россия","country_code":"RU","code":"RGK","index_strings":["RGK","Горно-Алтайск","Россия","RU","Gorno-Altaysk","Russia"],"timezone":"Asia\/Novokuznetsk","weight":203869,"coordinates":{"lat":51.969166,"lon":85.83638999999999},"type":"city","searchable":false},{"name":"Горно-Алтайск","country_name":"Россия","city_code":"RGK","city_name":"Горно-Алтайск","code":"RGK","country_code":"RU","index_strings":["RGK","Горно-Алтайск","Россия","RU","Gorno-Altaysk","Russia"],"timezone":"Asia\/Novokuznetsk","weight":203864,"coordinates":{"lat":51.969166,"lon":85.83638999999999},"type":"airport","searchable":true},{"name":"Новый","country_name":"Россия","city_code":"KHV","city_name":"Хабаровск","code":"KHV","country_code":"RU","index_strings":["KHV","Новый","Хабаровск","Россия","RU","Novyy","Khabarovsk","Russia"],"timezone":"Asia\/Vladivostok","weight":203763,"coordinates":{"lat":48.524563,"lon":135.16861},"type":"airport","searchable":true},{"name":"Чили","weight":201584,"type":"country","code":"CL","searchable":true,"index_strings":["CL","Чили","Chile"]},{"name":"Chicago FSS","city_code":"CHI","city_name":"Chicago","state_code":"IL","coordinates":{"lat":41.8781136,"lon":-87.6297982},"type":"airport","country_name":"United States","country_code":"US","code":"CHI","index_strings":["CHI","Chicago FSS","Chicago","United States","US"],"timezone":"America\/Chicago","weight":201219,"searchable":true},{"name":"Плаисанс","country_name":"Маврикий","country_code":"MU","code":"MRU","index_strings":["MRU","Плаисанс","Маврикий","MU","Plaisance","Mauritius"],"timezone":"Indian\/Mauritius","weight":199804,"coordinates":{"lat":-20.431997,"lon":57.67663},"type":"city","searchable":false},{"name":"Сплит","country_name":"Хорватия","country_code":"HR","code":"SPU","index_strings":["SPU","Сплит","Хорватия","HR","Split","Croatia"],"timezone":"Europe\/Zagreb","weight":197293,"coordinates":{"lat":43.536526,"lon":16.29946},"type":"city","searchable":false},{"name":"Братск","country_name":"Россия","country_code":"RU","code":"BTK","index_strings":["BTK","Братск","Россия","RU","Bratsk","Russia"],"timezone":"Asia\/Irkutsk","weight":196898,"coordinates":{"lat":56.36667,"lon":101.816666},"type":"city","searchable":false},{"name":"Назрань","country_name":"Россия","country_code":"RU","code":"IGT","index_strings":["IGT","Назрань","Россия","RU","Nazran","Russia"],"timezone":"Europe\/Moscow","weight":195771,"coordinates":{"lat":43.31778,"lon":45.001667},"type":"city","searchable":false},{"name":"Магас","country_name":"Россия","city_code":"IGT","city_name":"Назрань","code":"IGT","country_code":"RU","index_strings":["IGT","Магас","Назрань","Россия","RU","Sleptsovskaya","Nazran","Russia"],"timezone":"Europe\/Moscow","weight":195760,"coordinates":{"lat":43.31778,"lon":45.001667},"type":"airport","searchable":true},{"name":"Пенза","country_name":"Россия","country_code":"RU","code":"PEZ","index_strings":["PEZ","Пенза","Россия","RU","Penza","Russia"],"timezone":"Europe\/Moscow","weight":193939,"coordinates":{"lat":53.11852,"lon":45.02305},"type":"city","searchable":false},{"name":"Владивосток","country_name":"Россия","city_code":"VVO","city_name":"Владивосток","code":"VVO","country_code":"RU","index_strings":["VVO","Владивосток","Россия","RU","Vladivostok","Russia"],"timezone":"Asia\/Vladivostok","weight":190094,"coordinates":{"lat":43.378574,"lon":132.14075},"type":"airport","searchable":true},{"name":"Никосия","country_name":"Кипр","country_code":"CY","code":"ECN","index_strings":["ECN","Никосия","Кипр","CY","Ercan","Cyprus"],"timezone":"Asia\/Nicosia","weight":189077,"coordinates":{"lat":35.15812,"lon":33.50307},"type":"city","searchable":false},{"name":"Харбин","country_name":"Китай","country_code":"CN","code":"HRB","index_strings":["HRB","Харбин","Китай","CN","Harbin","China"],"timezone":"Asia\/Shanghai","weight":188704,"coordinates":{"lat":45.620853,"lon":126.23644},"type":"city","searchable":false},{"name":"Киров","country_name":"Россия","country_code":"RU","code":"KVX","index_strings":["KVX","Киров","Россия","RU","Kirov","Russia"],"timezone":"Europe\/Volgograd","weight":188488,"coordinates":{"lat":58.5,"lon":49.35},"type":"city","searchable":false},{"name":"Курган","country_name":"Россия","country_code":"RU","code":"KRO","index_strings":["KRO","Курган","Россия","RU","Kurgan","Russia"],"timezone":"Asia\/Yekaterinburg","weight":188352,"coordinates":{"lat":55.433334,"lon":65.3},"type":"city","searchable":false},{"name":"Ленкорань","country_name":"Азербайджан","city_code":"LLK","city_name":"Ленкорань","code":"LLK","country_code":"AZ","index_strings":["LLK","Ленкорань","Азербайджан","AZ","Lankaran","Azerbaijan"],"timezone":"Asia\/Baku","weight":186895,"coordinates":{"lat":38.74203,"lon":48.824093},"type":"airport","searchable":true},{"name":"Ленкорань","country_name":"Азербайджан","country_code":"AZ","code":"LLK","index_strings":["LLK","Ленкорань","Азербайджан","AZ","Lankaran","Azerbaijan"],"timezone":"Asia\/Baku","weight":186894,"coordinates":{"lat":38.74203,"lon":48.824093},"type":"city","searchable":false},{"name":"Эйлат","country_name":"Израиль","country_code":"IL","code":"ETH","index_strings":["ETH","Эйлат","Израиль","IL","Eilat","Israel"],"timezone":"Asia\/Jerusalem","weight":186812,"coordinates":{"lat":29.555616,"lon":34.95357},"type":"city","searchable":false},{"name":"Надым","country_name":"Россия","country_code":"RU","code":"NYM","index_strings":["NYM","Надым","Россия","RU","Nadym","Russia"],"timezone":"Asia\/Yekaterinburg","weight":186594,"coordinates":{"lat":65.48333,"lon":72.71666999999999},"type":"city","searchable":false},{"name":"Непал","weight":186558,"type":"country","code":"NP","searchable":true,"index_strings":["NP","Непал","Nepal"]},{"name":"Урумчи","country_name":"Китай","country_code":"CN","code":"URC","index_strings":["URC","Урумчи","Китай","CN","Urumqi","China"],"timezone":"Asia\/Shanghai","weight":186359,"coordinates":{"lat":43.90126,"lon":87.47515},"type":"city","searchable":false},{"name":"Варадеро","country_name":"Куба","country_code":"CU","code":"VRA","index_strings":["VRA","Варадеро","Куба","CU","Varadero","Cuba"],"timezone":"America\/Havana","weight":185352,"coordinates":{"lat":23.039896,"lon":-81.43694000000001},"type":"city","searchable":false},{"name":"Милан","country_name":"Италия","country_code":"IT","code":"MIL","index_strings":["MIL","Милан","Италия","IT","Milan","Italy"],"timezone":"Europe\/Rome","weight":184789,"coordinates":{"lat":45.463681,"lon":9.1881714},"type":"city","searchable":true},{"name":"Ростов-на-Дону","country_name":"Россия","city_code":"ROV","city_name":"Ростов-на-Дону","code":"ROV","country_code":"RU","index_strings":["ROV","Ростов-на-Дону","Россия","RU","Rostov","Russia"],"timezone":"Europe\/Moscow","weight":182053,"coordinates":{"lat":47.25,"lon":39.75},"type":"airport","searchable":true},{"name":"ЮАР","weight":181115,"type":"country","code":"ZA","searchable":true,"index_strings":["ZA","ЮАР","South Africa"]},{"name":"Катманду","country_name":"Непал","country_code":"NP","code":"KTM","index_strings":["KTM","Катманду","Непал","NP","Kathmandu","Nepal"],"timezone":"Asia\/Kathmandu","weight":179018,"coordinates":{"lat":27.699905,"lon":85.35657},"type":"city","searchable":false},{"name":"Витязево","country_name":"Россия","city_code":"AAQ","city_name":"Анапа","code":"AAQ","country_code":"RU","index_strings":["AAQ","Витязево","Анапа","Россия","RU","Anapa","Russia"],"timezone":"Europe\/Moscow","weight":176965,"coordinates":{"lat":44.9,"lon":37.316666},"type":"airport","searchable":true},{"name":"Лима","country_name":"Перу","country_code":"PE","code":"LIM","index_strings":["LIM","Лима","Перу","PE","Lima","Peru"],"timezone":"America\/Lima","weight":175905,"coordinates":{"lat":-12.019421,"lon":-77.10766599999999},"type":"city","searchable":false},{"name":"Лас-Пальмас","country_name":"Испания","country_code":"ES","code":"LPA","index_strings":["LPA","Лас-Пальмас","Испания","ES","Gran Canaria","Spain"],"timezone":"Atlantic\/Canary","weight":173561,"coordinates":{"lat":27.938944,"lon":-15.389351},"type":"city","searchable":false},{"name":"Краби","country_name":"Таиланд","country_code":"TH","code":"KBV","index_strings":["KBV","Краби","Таиланд","TH","Krabi","Thailand"],"timezone":"Asia\/Bangkok","weight":171477,"coordinates":{"lat":8.097281000000001,"lon":98.98062},"type":"city","searchable":false},{"name":"Мирный","country_name":"Россия","country_code":"RU","code":"MJZ","index_strings":["MJZ","Мирный","Россия","RU","Mirnyj","Russia"],"timezone":"Asia\/Yakutsk","weight":170017,"coordinates":{"lat":62.533333,"lon":114.03333},"type":"city","searchable":false},{"name":"Загреб","country_name":"Хорватия","country_code":"HR","code":"ZAG","index_strings":["ZAG","Загреб","Хорватия","HR","Zagreb","Croatia"],"timezone":"Europe\/Zagreb","weight":169993,"coordinates":{"lat":45.733242,"lon":16.06152},"type":"city","searchable":false},{"name":"Тунис","country_name":"Тунис","country_code":"TN","code":"TUN","index_strings":["TUN","Тунис","TN","Tunis","Tunisia"],"timezone":"Africa\/Tunis","weight":168600,"coordinates":{"lat":36.847622,"lon":10.21709},"type":"city","searchable":false},{"name":"Иркутск","country_name":"Россия","city_code":"IKT","city_name":"Иркутск","code":"IKT","country_code":"RU","index_strings":["IKT","Иркутск","Россия","RU","Irkutsk","Russia"],"timezone":"Asia\/Irkutsk","weight":168106,"coordinates":{"lat":52.273308,"lon":104.35607},"type":"airport","searchable":true},{"name":"Генуя","country_name":"Италия","country_code":"IT","code":"GOA","index_strings":["GOA","Генуя","Италия","IT","Genova","Italy"],"timezone":"Europe\/Rome","weight":167888,"coordinates":{"lat":44.415066,"lon":8.850809999999999},"type":"city","searchable":false},{"name":"Словения","weight":166545,"type":"country","code":"SI","searchable":true,"index_strings":["SI","Словения","Slovenia"]},{"name":"Пиза","country_name":"Италия","country_code":"IT","code":"PSA","index_strings":["PSA","Пиза","Италия","IT","Pisa","Italy"],"timezone":"Europe\/Rome","weight":166315,"coordinates":{"lat":43.69871,"lon":10.399915},"type":"city","searchable":false},{"name":"Храброво","country_name":"Россия","city_code":"KGD","city_name":"Калининград","code":"KGD","country_code":"RU","index_strings":["KGD","Храброво","Калининград","Россия","RU","Khrabrovo","Kaliningrad","Russia"],"timezone":"Europe\/Kaliningrad","weight":165953,"coordinates":{"lat":54.882656,"lon":20.586645},"type":"airport","searchable":true},{"name":"Орск","country_name":"Россия","country_code":"RU","code":"OSW","index_strings":["OSW","Орск","Россия","RU","Orsk","Russia"],"timezone":"Asia\/Yekaterinburg","weight":164398,"coordinates":{"lat":51.2,"lon":58.566666},"type":"city","searchable":false},{"name":"Курган-Тюбе","country_name":"Таджикистан","country_code":"TJ","code":"KQT","index_strings":["KQT","Курган-Тюбе","Таджикистан","TJ","Qurghonteppa","Tajikistan"],"timezone":"Asia\/Dushanbe","weight":163362,"coordinates":{"lat":37.85961,"lon":68.86117},"type":"city","searchable":false},{"name":"Курган-Тюбе","country_name":"Таджикистан","city_code":"KQT","city_name":"Курган-Тюбе","code":"KQT","country_code":"TJ","index_strings":["KQT","Курган-Тюбе","Таджикистан","TJ","Kurgan Tube","Qurghonteppa","Tajikistan"],"timezone":"Asia\/Dushanbe","weight":163353,"coordinates":{"lat":37.85961,"lon":68.86117},"type":"airport","searchable":true},{"name":"Аэропорт имени Ататюрка","country_name":"Турция","city_code":"IST","city_name":"Стамбул","code":"IST","country_code":"TR","index_strings":["IST","Аэропорт имени Ататюрка","Стамбул","Турция","TR","Ataturk","Istanbul","Turkey"],"timezone":"Europe\/Istanbul","weight":161766,"coordinates":{"lat":40.976665,"lon":28.815277},"type":"airport","searchable":true},{"name":"Стамбул","country_name":"Турция","country_code":"TR","code":"IST","index_strings":["IST","Стамбул","Турция","TR","Istanbul","Turkey"],"timezone":"Europe\/Istanbul","weight":161766,"coordinates":{"lat":40.976665,"lon":28.815277},"type":"city","searchable":true},{"name":"Габала","country_name":"Азербайджан","country_code":"AZ","code":"GBB","index_strings":["GBB","Габала","Азербайджан","AZ","Gabala","Azerbaijan"],"timezone":"Asia\/Baku","weight":161026,"coordinates":{"lat":40.4936,"lon":47.4245},"type":"city","searchable":false},{"name":"Габала","country_name":"Азербайджан","city_code":"GBB","city_name":"Габала","code":"GBB","country_code":"AZ","index_strings":["GBB","Габала","Азербайджан","AZ","Gabala","Azerbaijan"],"timezone":"Asia\/Baku","weight":161025,"coordinates":{"lat":40.4936,"lon":47.4245},"type":"airport","searchable":true},{"name":"Мадагаскар","weight":159396,"type":"country","code":"MG","searchable":true,"index_strings":["MG","Мадагаскар","Madagascar"]},{"name":"Курумоч","country_name":"Россия","city_code":"KUF","city_name":"Самара","code":"KUF","country_code":"RU","index_strings":["KUF","Курумоч","Самара","Россия","RU","Kurumoch","Samara","Russia"],"timezone":"Europe\/Samara","weight":158519,"coordinates":{"lat":53.50782,"lon":50.14742},"type":"airport","searchable":true},{"name":"Краков","country_name":"Польша","country_code":"PL","code":"KRK","index_strings":["KRK","Краков","Польша","PL","Krakow","Poland"],"timezone":"Europe\/Warsaw","weight":158171,"coordinates":{"lat":50.075493,"lon":19.793743},"type":"city","searchable":false},{"name":"Любляна","country_name":"Словения","country_code":"SI","code":"LJU","index_strings":["LJU","Любляна","Словения","SI","Ljubljana","Slovenia"],"timezone":"Europe\/Ljubljana","weight":157897,"coordinates":{"lat":46.23102,"lon":14.454972},"type":"city","searchable":false},{"name":"Берлин","country_name":"Германия","country_code":"DE","code":"BER","index_strings":["BER","Берлин","Германия","DE","Berlin","Germany"],"timezone":"Europe\/Berlin","weight":154839,"coordinates":{"lat":52.5234051,"lon":13.4113999},"type":"city","searchable":true},{"name":"Минеральные Воды","country_name":"Россия","city_code":"MRV","city_name":"Минеральные Воды","code":"MRV","country_code":"RU","index_strings":["MRV","Минеральные Воды","Россия","RU","Mineralnye Vodyj","Mineralnye Vody","Russia"],"timezone":"Europe\/Moscow","weight":154285,"coordinates":{"lat":44.218105,"lon":43.085815},"type":"airport","searchable":true},{"name":"Ямайка","weight":153970,"type":"country","code":"JM","searchable":true,"index_strings":["JM","Ямайка","Jamaica"]},{"name":"Бора Бора","country_name":"Французская Полинезия","country_code":"PF","code":"BOB","index_strings":["BOB","Бора Бора","Французская Полинезия","PF","Bora Bora","French Polynesia"],"timezone":"Pacific\/Tahiti","weight":153466,"coordinates":{"lat":-16.446207,"lon":-151.75447},"type":"city","searchable":false},{"name":"Уфа","country_name":"Россия","city_code":"UFA","city_name":"Уфа","code":"UFA","country_code":"RU","index_strings":["UFA","Уфа","Россия","RU","Ufa International Airport","Russia"],"timezone":"Asia\/Yekaterinburg","weight":153048,"coordinates":{"lat":54.565403,"lon":55.884544},"type":"airport","searchable":true},{"name":"Карловы Вары","country_name":"Чехия","country_code":"CZ","code":"KLV","index_strings":["KLV","Карловы Вары","Чехия","CZ","Karlovy Vary","Czech Republic"],"timezone":"Europe\/Prague","weight":151007,"coordinates":{"lat":50.2322052,"lon":12.8712765},"type":"city","searchable":false},{"name":"Коста Рика","weight":150693,"type":"country","code":"CR","searchable":true,"index_strings":["CR","Коста Рика","Costa Rica"]},{"name":"Запорожье","country_name":"Украина","country_code":"UA","code":"OZH","index_strings":["OZH","Запорожье","Украина","UA","Zaporozhye","Ukraine"],"timezone":"Europe\/Zaporozhye","weight":147772,"coordinates":{"lat":47.8675,"lon":35.315834},"type":"city","searchable":false},{"name":"Гюмри","country_name":"Армения","country_code":"AM","code":"LWN","index_strings":["LWN","Гюмри","Армения","AM","Gyoumri","Armenia"],"timezone":"Asia\/Yerevan","weight":145602,"coordinates":{"lat":40.716667,"lon":43.833332},"type":"city","searchable":false},{"name":"Актюбинск","country_name":"Казахстан","country_code":"KZ","code":"AKX","index_strings":["AKX","Актюбинск","Казахстан","KZ","Aktyubinsk","Kazakhstan"],"timezone":"Asia\/Aqtobe","weight":145189,"coordinates":{"lat":50.249336,"lon":57.211403},"type":"city","searchable":false},{"name":"Иордания","weight":144853,"type":"country","code":"JO","searchable":true,"index_strings":["JO","Иордания","Jordan"]},{"name":"Омск-Центральный","country_name":"Россия","city_code":"OMS","city_name":"Омск","code":"OMS","country_code":"RU","index_strings":["OMS","Омск-Центральный","Омск","Россия","RU","Omsk","Russia"],"timezone":"Asia\/Omsk","weight":143827,"coordinates":{"lat":54.957455,"lon":73.3167},"type":"airport","searchable":true},{"name":"Себу","country_name":"Филиппины","country_code":"PH","code":"CEB","index_strings":["CEB","Себу","Филиппины","PH","Cebu","Philippines"],"timezone":"Asia\/Manila","weight":142803,"coordinates":{"lat":10.313333,"lon":123.98278},"type":"city","searchable":false},{"name":"Пхукет","country_name":"Таиланд","city_code":"HKT","city_name":"Пхукет","code":"HKT","country_code":"TH","index_strings":["HKT","Пхукет","Таиланд","TH","Phuket International","Phuket","Thailand"],"timezone":"Asia\/Bangkok","weight":136397,"coordinates":{"lat":8.107619,"lon":98.30643499999999},"type":"airport","searchable":true},{"name":"Нерюнгри","country_name":"Россия","country_code":"RU","code":"NER","index_strings":["NER","Нерюнгри","Россия","RU","Neryungri","Russia"],"timezone":"Asia\/Yakutsk","weight":135958,"coordinates":{"lat":56.65,"lon":124.6},"type":"city","searchable":false},{"name":"Словакия","weight":135910,"type":"country","code":"SK","searchable":true,"index_strings":["SK","Словакия","Slovakia"]},{"name":"Новороссийск","country_name":"Россия","country_code":"RU","code":"NOI","index_strings":["NOI","Новороссийск","Россия","RU","Novorossijsk","Russia"],"timezone":"Europe\/Moscow","weight":133055,"coordinates":{"lat":44.716667,"lon":37.766666},"type":"city","searchable":false},{"name":"Лондон","country_name":"Великобритания","country_code":"GB","code":"LON","index_strings":["LON","Лондон","Великобритания","GB","London","United Kingdom"],"timezone":"Europe\/London","weight":132983,"coordinates":{"lat":51.51,"lon":0.06},"type":"city","searchable":true},{"name":"Пула","country_name":"Хорватия","country_code":"HR","code":"PUY","index_strings":["PUY","Пула","Хорватия","HR","Pula","Croatia"],"timezone":"Europe\/Zagreb","weight":132717,"coordinates":{"lat":44.891666,"lon":13.923611},"type":"city","searchable":false},{"name":"Порту","country_name":"Португалия","country_code":"PT","code":"OPO","index_strings":["OPO","Порту","Португалия","PT","Porto","Portugal"],"timezone":"Europe\/Lisbon","weight":129374,"coordinates":{"lat":41.149968,"lon":-8.610242599999999},"type":"city","searchable":false},{"name":"Атырау","country_name":"Казахстан","country_code":"KZ","code":"GUW","index_strings":["GUW","Атырау","Казахстан","KZ","Atyrau","Kazakhstan"],"timezone":"Asia\/Aqtau","weight":129293,"coordinates":{"lat":47.122814,"lon":51.829556},"type":"city","searchable":false},{"name":"Курск","country_name":"Россия","country_code":"RU","code":"URS","index_strings":["URS","Курск","Россия","RU","Kursk","Russia"],"timezone":"Europe\/Moscow","weight":127997,"coordinates":{"lat":51.75,"lon":36.266666},"type":"city","searchable":false},{"name":"Нукус","country_name":"Узбекистан","country_code":"UZ","code":"NCU","index_strings":["NCU","Нукус","Узбекистан","UZ","Nukus","Uzbekistan"],"timezone":"Asia\/Samarkand","weight":127773,"coordinates":{"lat":42.483334,"lon":59.63333},"type":"city","searchable":false},{"name":"Бразилия","weight":127029,"type":"country","code":"BR","searchable":true,"index_strings":["BR","Бразилия","Brazil"]},{"name":"Гонолулу","country_name":"США","country_code":"US","code":"HNL","index_strings":["HNL","Гонолулу","США","US","Honolulu","United States"],"timezone":"Pacific\/Honolulu","weight":126824,"coordinates":{"lat":21.3069444,"lon":-157.8583333},"type":"city","searchable":false},{"name":"Санторини","country_name":"Греция","country_code":"GR","code":"JTR","index_strings":["thira","тира","JTR","Санторини","Греция","GR","Santorini","Greece"],"timezone":"Europe\/Athens","weight":125673,"coordinates":{"lat":36.4,"lon":25.483334},"type":"city","searchable":false},{"name":"Амстердам","country_name":"Нидерланды","country_code":"NL","code":"AMS","index_strings":["AMS","Амстердам","Нидерланды","NL","Amsterdam","Netherlands"],"timezone":"Europe\/Amsterdam","weight":125455,"coordinates":{"lat":52.3730556,"lon":4.8922222},"type":"city","searchable":false},{"name":"Схипхол","country_name":"Нидерланды","city_code":"AMS","city_name":"Амстердам","code":"AMS","country_code":"NL","index_strings":["AMS","Схипхол","Амстердам","Нидерланды","NL","Schiphol","Amsterdam","Netherlands"],"timezone":"Europe\/Amsterdam","weight":125455,"coordinates":{"lat":52.30907,"lon":4.763385},"type":"airport","searchable":true},{"name":"Фуншал","country_name":"Португалия","country_code":"PT","code":"FNC","index_strings":["FNC","Фуншал","Португалия","PT","Funchal","Portugal"],"timezone":"Atlantic\/Madeira","weight":124815,"coordinates":{"lat":32.693123,"lon":-16.775635},"type":"city","searchable":false},{"name":"Вена","country_name":"Австрия","country_code":"AT","code":"VIE","index_strings":["VIE","Вена","Австрия","AT","Vienna","Austria"],"timezone":"Europe\/Vienna","weight":122344,"coordinates":{"lat":48.2081743,"lon":16.3738189},"type":"city","searchable":true},{"name":"Швехат","country_name":"Австрия","city_code":"VIE","city_name":"Вена","code":"VIE","country_code":"AT","index_strings":["VIE","Швехат","Вена","Австрия","AT","Vienna International","Vienna","Austria"],"timezone":"Europe\/Vienna","weight":122344,"coordinates":{"lat":48.11972,"lon":16.563583},"type":"airport","searchable":true},{"name":"Танзания","weight":120470,"type":"country","code":"TZ","searchable":true,"index_strings":["TZ","Танзания","Tanzania"]},{"name":"Кальяри","country_name":"Италия","country_code":"IT","code":"CAG","index_strings":["CAG","Кальяри","Италия","IT","Cagliari","Italy"],"timezone":"Europe\/Rome","weight":119910,"coordinates":{"lat":39.254333,"lon":9.060673},"type":"city","searchable":false},{"name":"Венесуэла","weight":119658,"type":"country","code":"VE","searchable":true,"index_strings":["VE","Венесуэла","Venezuela"]},{"name":"Инсбрук","country_name":"Австрия","country_code":"AT","code":"INN","index_strings":["INN","Инсбрук","Австрия","AT","Innsbruck","Austria"],"timezone":"Europe\/Vienna","weight":119354,"coordinates":{"lat":47.25745,"lon":11.351467},"type":"city","searchable":false},{"name":"Сан-Хосе","country_name":"Коста Рика","country_code":"CR","code":"SJO","index_strings":["SJO","Сан-Хосе","Коста Рика","CR","San Jose","Costa Rica"],"timezone":"America\/Costa_Rica","weight":119118,"coordinates":{"lat":9.998238000000001,"lon":-84.20408},"type":"city","searchable":false},{"name":"Петрозаводск","country_name":"Россия","country_code":"RU","code":"PES","index_strings":["PES","Петрозаводск","Россия","RU","Petrozavodsk","Russia"],"timezone":"Europe\/Moscow","weight":118875,"coordinates":{"lat":61.683334,"lon":34.333332},"type":"city","searchable":false},{"name":"Эквадор","weight":118079,"type":"country","code":"EC","searchable":true,"index_strings":["EC","Эквадор","Ecuador"]},{"name":"Колумбия","weight":116254,"type":"country","code":"CO","searchable":true,"index_strings":["CO","Колумбия","Colombia"]},{"name":"Аэропорт Мюнхен","country_name":"Германия","city_code":"MUC","city_name":"Мюнхен","code":"MUC","country_code":"DE","index_strings":["MUC","Аэропорт Мюнхен","Мюнхен","Германия","DE","Franz Josef Strauss","Munich","Germany"],"timezone":"Europe\/Berlin","weight":115833,"coordinates":{"lat":48.353004,"lon":11.790143},"type":"airport","searchable":true},{"name":"Мюнхен","country_name":"Германия","country_code":"DE","code":"MUC","index_strings":["MUC","Мюнхен","Германия","DE","Munich","Germany"],"timezone":"Europe\/Berlin","weight":115833,"coordinates":{"lat":48.1391265,"lon":11.5801863},"type":"city","searchable":true},{"name":"Навои","country_name":"Узбекистан","country_code":"UZ","code":"NVI","index_strings":["NVI","Навои","Узбекистан","UZ","Navoi","Uzbekistan"],"timezone":"Asia\/Samarkand","weight":114863,"coordinates":{"lat":40.115,"lon":65.159164},"type":"city","searchable":false},{"name":"Южная Корея","weight":114526,"type":"country","code":"KR","searchable":true,"index_strings":["KR","Южная Корея","South Korea"]},{"name":"Алматы","country_name":"Казахстан","city_code":"ALA","city_name":"Алматы","code":"ALA","country_code":"KZ","index_strings":["ALA","Алматы","Казахстан","KZ","Almaty","Kazakhstan"],"timezone":"Asia\/Almaty","weight":114439,"coordinates":{"lat":43.346653,"lon":77.01145},"type":"airport","searchable":true},{"name":"Мадрид","country_name":"Испания","country_code":"ES","code":"MAD","index_strings":["MAD","Мадрид","Испания","ES","Madrid","Spain"],"timezone":"Europe\/Madrid","weight":113504,"coordinates":{"lat":40.4166909,"lon":-3.7003454},"type":"city","searchable":true},{"name":"Барахас","country_name":"Испания","city_code":"MAD","city_name":"Мадрид","code":"MAD","country_code":"ES","index_strings":["MAD","Барахас","Мадрид","Испания","ES","Barajas","Madrid","Spain"],"timezone":"Europe\/Madrid","weight":113504,"coordinates":{"lat":40.46515,"lon":-3.570209},"type":"airport","searchable":true},{"name":"Бари","country_name":"Италия","country_code":"IT","code":"BRI","index_strings":["BRI","Бари","Италия","IT","Bari","Italy"],"timezone":"Europe\/Rome","weight":112174,"coordinates":{"lat":41.1259998,"lon":16.8683784},"type":"city","searchable":false},{"name":"Уральск","country_name":"Казахстан","country_code":"KZ","code":"URA","index_strings":["URA","Уральск","Казахстан","KZ","Uralsk","Kazakhstan"],"timezone":"Asia\/Oral","weight":112116,"coordinates":{"lat":51.15371,"lon":51.538563},"type":"city","searchable":false},{"name":"Карши","country_name":"Узбекистан","country_code":"UZ","code":"KSQ","index_strings":["KSQ","Карши","Узбекистан","UZ","Karshi","Uzbekistan"],"timezone":"Asia\/Samarkand","weight":110813,"coordinates":{"lat":38.80981,"lon":65.77531},"type":"city","searchable":false},{"name":"Тиват","country_name":"Черногория","city_code":"TIV","city_name":"Тиват","code":"TIV","country_code":"ME","index_strings":["TIV","Тиват","Черногория","ME","Tivat","Montenegro"],"timezone":"Europe\/Podgorica","weight":110335,"coordinates":{"lat":42.40361,"lon":18.725555},"type":"airport","searchable":true},{"name":"Костанай","country_name":"Казахстан","country_code":"KZ","code":"KSN","index_strings":["KSN","Костанай","Казахстан","KZ","Kostanay","Kazakhstan"],"timezone":"Asia\/Almaty","weight":109996,"coordinates":{"lat":53.2,"lon":63.55},"type":"city","searchable":false},{"name":"Бугульма","country_name":"Россия","country_code":"RU","code":"UUA","index_strings":["UUA","Бугульма","Россия","RU","Bugulma","Russia"],"timezone":"Europe\/Moscow","weight":109983,"coordinates":{"lat":54.61667,"lon":52.816666},"type":"city","searchable":false},{"name":"Нгурах-Рай","country_name":"Индонезия","city_code":"DPS","city_name":"Денпасар Бали","code":"DPS","country_code":"ID","index_strings":["DPS","Нгурах-Рай","Денпасар Бали","Индонезия","ID","Ngurah Rai International","Denpasar Bali","Indonesia"],"timezone":"Asia\/Makassar","weight":109762,"coordinates":{"lat":-8.74446,"lon":115.16331},"type":"airport","searchable":true},{"name":"Баландино","country_name":"Россия","city_code":"CEK","city_name":"Челябинск","code":"CEK","country_code":"RU","index_strings":["CEK","Баландино","Челябинск","Россия","RU","Chelyabinsk","Russia"],"timezone":"Asia\/Yekaterinburg","weight":109512,"coordinates":{"lat":55.297504,"lon":61.51235},"type":"airport","searchable":true},{"name":"Ухта","country_name":"Россия","country_code":"RU","code":"UCT","index_strings":["UCT","Ухта","Россия","RU","Ukhta","Russia"],"timezone":"Europe\/Moscow","weight":109455,"coordinates":{"lat":63.566666,"lon":53.8},"type":"city","searchable":false},{"name":"Усинск","country_name":"Россия","country_code":"RU","code":"USK","index_strings":["USK","Усинск","Россия","RU","Usinsk","Russia"],"timezone":"Europe\/Moscow","weight":109336,"coordinates":{"lat":65.95,"lon":57.4},"type":"city","searchable":false},{"name":"Анадырь","country_name":"Россия","country_code":"RU","code":"DYR","index_strings":["DYR","Анадырь","Россия","RU","Anadyr","Russia"],"timezone":"Asia\/Anadyr","weight":108526,"coordinates":{"lat":64.73333,"lon":177.75},"type":"city","searchable":false},{"name":"Комсомольск-на-Амуре","country_name":"Россия","country_code":"RU","code":"KXK","index_strings":["KXK","Комсомольск-на-Амуре","Россия","RU","Komsomolsk Na Amure","Russia"],"timezone":"Asia\/Vladivostok","weight":108402,"coordinates":{"lat":50.4,"lon":136.95},"type":"city","searchable":false},{"name":"Саранск","country_name":"Россия","country_code":"RU","code":"SKX","index_strings":["SKX","Саранск","Россия","RU","Saransk","Russia"],"timezone":"Europe\/Moscow","weight":108368,"coordinates":{"lat":54.166668,"lon":45.166668},"type":"city","searchable":false},{"name":"Бодрум","country_name":"Турция","country_code":"TR","code":"BJV","index_strings":["BJV","Бодрум","Турция","TR","Bodrum","Turkey"],"timezone":"Europe\/Istanbul","weight":107782,"coordinates":{"lat":37.25,"lon":27.66},"type":"city","searchable":true},{"name":"Братислава","country_name":"Словакия","country_code":"SK","code":"BTS","index_strings":["BTS","Братислава","Словакия","SK","Bratislava","Slovakia"],"timezone":"Europe\/Bratislava","weight":107551,"coordinates":{"lat":48.17,"lon":17.21},"type":"city","searchable":false},{"name":"Павлодар","country_name":"Казахстан","country_code":"KZ","code":"PWQ","index_strings":["PWQ","Павлодар","Казахстан","KZ","Pavlodar","Kazakhstan"],"timezone":"Asia\/Almaty","weight":105187,"coordinates":{"lat":52.183334,"lon":77.066666},"type":"city","searchable":false},{"name":"Сургут","country_name":"Россия","city_code":"SGC","city_name":"Сургут","code":"SGC","country_code":"RU","index_strings":["SGC","Сургут","Россия","RU","Surgut","Russia"],"timezone":"Asia\/Yekaterinburg","weight":104725,"coordinates":{"lat":61.339916,"lon":73.40953},"type":"airport","searchable":true},{"name":"Ливан","weight":104706,"type":"country","code":"LB","searchable":true,"index_strings":["LB","Ливан","Lebanon"]},{"name":"Бейрут","country_name":"Ливан","country_code":"LB","code":"BEY","index_strings":["BEY","Бейрут","Ливан","LB","Beirut","Lebanon"],"timezone":"Asia\/Beirut","weight":104374,"coordinates":{"lat":33.826073,"lon":35.49308},"type":"city","searchable":false},{"name":"Кения","weight":104101,"type":"country","code":"KE","searchable":true,"index_strings":["KE","Кения","Kenya"]},{"name":"Термез","country_name":"Узбекистан","country_code":"UZ","code":"TMJ","index_strings":["TMJ","Термез","Узбекистан","UZ","Termez","Uzbekistan"],"timezone":"Asia\/Samarkand","weight":103050,"coordinates":{"lat":37.280502,"lon":67.31895400000001},"type":"city","searchable":false},{"name":"Кызыл","country_name":"Россия","country_code":"RU","code":"KYZ","index_strings":["KYZ","Кызыл","Россия","RU","Kyzyl","Russia"],"timezone":"Asia\/Krasnoyarsk","weight":101392,"coordinates":{"lat":51.7,"lon":94.46666999999999},"type":"city","searchable":false},{"name":"Агадир","country_name":"Марокко","country_code":"MA","code":"AGA","index_strings":["AGA","Агадир","Марокко","MA","Agadir","Morocco"],"timezone":"Africa\/Casablanca","weight":100238,"coordinates":{"lat":30.378326,"lon":-9.555895},"type":"city","searchable":false},{"name":"Тайвань","weight":100082,"type":"country","code":"TW","searchable":true,"index_strings":["TW","Тайвань","Taiwan"]},{"name":"Шарджа","country_name":"ОАЭ","country_code":"AE","code":"SHJ","index_strings":["SHJ","Шарджа","ОАЭ","AE","Sharjah","United Arab Emirates"],"timezone":"Asia\/Dubai","weight":99847,"coordinates":{"lat":25.320873,"lon":55.52029},"type":"city","searchable":false},{"name":"Марракеш","country_name":"Марокко","country_code":"MA","code":"RAK","index_strings":["RAK","Марракеш","Марокко","MA","Marrakech","Morocco"],"timezone":"Africa\/Casablanca","weight":99505,"coordinates":{"lat":31.601875,"lon":-8.026902},"type":"city","searchable":false},{"name":"Кейптаун","country_name":"ЮАР","country_code":"ZA","code":"CPT","index_strings":["CPT","Кейптаун","ЮАР","ZA","Cape Town","South Africa"],"timezone":"Africa\/Johannesburg","weight":99394,"coordinates":{"lat":-33.968906,"lon":18.596489},"type":"city","searchable":false},{"name":"Антананариву","country_name":"Мадагаскар","country_code":"MG","code":"TNR","index_strings":["TNR","Антананариву","Мадагаскар","MG","Antananarivo","Madagascar"],"timezone":"Indian\/Antananarivo","weight":99357,"coordinates":{"lat":-18.799631,"lon":47.47503},"type":"city","searchable":false},{"name":"Пекин","country_name":"Китай","country_code":"CN","code":"BJS","index_strings":["BJS","Пекин","Китай","CN","Beijing","China"],"timezone":"Asia\/Shanghai","weight":99283,"coordinates":{"lat":39.904214,"lon":116.407413},"type":"city","searchable":true},{"name":"Фиджи","weight":98292,"type":"country","code":"FJ","searchable":true,"index_strings":["FJ","Фиджи","Fiji"]},{"name":"Иран","weight":98195,"type":"country","code":"IR","searchable":true,"index_strings":["IR","Иран","Iran"]},{"name":"Манчестер","country_name":"Великобритания","country_code":"GB","code":"MAN","index_strings":["MAN","Манчестер","Великобритания","GB","Manchester","United Kingdom"],"timezone":"Europe\/London","weight":95347,"coordinates":{"lat":53.4807125,"lon":-2.2343765},"type":"city","searchable":false},{"name":"Казань","country_name":"Россия","city_code":"KZN","city_name":"Казань","code":"KZN","country_code":"RU","index_strings":["KZN","Казань","Россия","RU","Kazan","Russia"],"timezone":"Europe\/Moscow","weight":94884,"coordinates":{"lat":55.60844,"lon":49.29824},"type":"airport","searchable":true},{"name":"Одесса","country_name":"Украина","city_code":"ODS","city_name":"Одесса","code":"ODS","country_code":"UA","index_strings":["ODS","Одесса","Украина","UA","Odessa International","Odessa","Ukraine"],"timezone":"Europe\/Kiev","weight":94396,"coordinates":{"lat":46.44101,"lon":30.676718},"type":"airport","searchable":true},{"name":"Большое Савино","country_name":"Россия","city_code":"PEE","city_name":"Пермь","code":"PEE","country_code":"RU","index_strings":["PEE","Большое Савино","Пермь","Россия","RU","Bolshoye Savino","Perm","Russia"],"timezone":"Asia\/Yekaterinburg","weight":94109,"coordinates":{"lat":57.920025,"lon":56.01918},"type":"airport","searchable":true},{"name":"Закинтос","country_name":"Греция","country_code":"GR","code":"ZTH","index_strings":["ZTH","Закинтос","Греция","GR","Zakinthos","Greece"],"timezone":"Europe\/Athens","weight":93444,"coordinates":{"lat":37.755833,"lon":20.888332},"type":"city","searchable":false},{"name":"Сием-Рип","country_name":"Камбоджа","country_code":"KH","code":"REP","index_strings":["REP","Сием-Рип","Камбоджа","KH","Siem Reap","Cambodia"],"timezone":"Asia\/Phnom_Penh","weight":92993,"coordinates":{"lat":13.408436,"lon":103.815926},"type":"city","searchable":false},{"name":"Орландо","country_name":"США","country_code":"US","code":"ORL","index_strings":["ORL","Орландо","США","US","Orlando","United States"],"timezone":"America\/New_York","weight":91747,"coordinates":{"lat":28.533611,"lon":-81.386667},"type":"city","searchable":true},{"name":"Ярославль","country_name":"Россия","country_code":"RU","code":"IAR","index_strings":["IAR","Ярославль","Россия","RU","Yaroslavl","Russia"],"timezone":"Europe\/Moscow","weight":91729,"coordinates":{"lat":57.61667,"lon":39.88333},"type":"city","searchable":false},{"name":"Мурманск","country_name":"Россия","city_code":"MMK","city_name":"Мурманск","code":"MMK","country_code":"RU","index_strings":["MMK","Мурманск","Россия","RU","Murmansk","Russia"],"timezone":"Europe\/Moscow","weight":91225,"coordinates":{"lat":68.785095,"lon":32.759155},"type":"airport","searchable":true},{"name":"Анталия","country_name":"Турция","city_code":"AYT","city_name":"Анталия","code":"AYT","country_code":"TR","index_strings":["AYT","Анталия","Турция","TR","Antalya","Turkey"],"timezone":"Europe\/Istanbul","weight":90518,"coordinates":{"lat":36.89928,"lon":30.80135},"type":"airport","searchable":true},{"name":"Албания","weight":89880,"type":"country","code":"AL","searchable":true,"index_strings":["AL","Албания","Albania"]},{"name":"Тирана","country_name":"Албания","country_code":"AL","code":"TIA","index_strings":["TIA","Тирана","Албания","AL","Tirana","Albania"],"timezone":"Europe\/Tirane","weight":89879,"coordinates":{"lat":41.419132,"lon":19.71328},"type":"city","searchable":false},{"name":"Иваново","country_name":"Россия","country_code":"RU","code":"IWA","index_strings":["IWA","Иваново","Россия","RU","Ivanova","Russia"],"timezone":"Europe\/Moscow","weight":89261,"coordinates":{"lat":56.942955,"lon":40.944546},"type":"city","searchable":false},{"name":"Япония","weight":88880,"type":"country","code":"JP","searchable":true,"index_strings":["JP","Япония","Japan"]},{"name":"Южный","country_name":"Узбекистан","city_code":"TAS","city_name":"Ташкент","code":"TAS","country_code":"UZ","index_strings":["TAS","Южный","Ташкент","Узбекистан","UZ","Tashkent International","Tashkent","Uzbekistan"],"timezone":"Asia\/Tashkent","weight":87021,"coordinates":{"lat":41.262714,"lon":69.26618999999999},"type":"airport","searchable":true},{"name":"Липецк","country_name":"Россия","country_code":"RU","code":"LPK","index_strings":["LPK","Липецк","Россия","RU","Lipetsk","Russia"],"timezone":"Europe\/Moscow","weight":86693,"coordinates":{"lat":52.61667,"lon":39.6},"type":"city","searchable":false},{"name":"Ивано-Франковск","country_name":"Украина","country_code":"UA","code":"IFO","index_strings":["IFO","Ивано-Франковск","Украина","UA","Ivano-Frankovsk","Ukraine"],"timezone":"Europe\/Kiev","weight":86513,"coordinates":{"lat":48.887535,"lon":24.707565},"type":"city","searchable":false},{"name":"Дюссельдорф","country_name":"Германия","city_code":"DUS","city_name":"Дюссельдорф","code":"DUS","country_code":"DE","index_strings":["DUS","Дюссельдорф","Германия","DE","Düsseldorf International Airport","Dusseldorf","Germany"],"timezone":"Europe\/Berlin","weight":85947,"coordinates":{"lat":51.278328,"lon":6.76558},"type":"airport","searchable":true},{"name":"Дюссельдорф","country_name":"Германия","country_code":"DE","code":"DUS","index_strings":["DUS","Дюссельдорф","Германия","DE","Dusseldorf","Germany"],"timezone":"Europe\/Berlin","weight":85947,"coordinates":{"lat":51.2249429,"lon":6.7756524},"type":"city","searchable":true},{"name":"Кито","country_name":"Эквадор","country_code":"EC","code":"UIO","index_strings":["UIO","Кито","Эквадор","EC","Quito","Ecuador"],"timezone":"America\/Guayaquil","weight":85109,"coordinates":{"lat":-0.145528,"lon":-78.49053000000001},"type":"city","searchable":false},{"name":"Ларнака","country_name":"Кипр","city_code":"LCA","city_name":"Ларнака","code":"LCA","country_code":"CY","index_strings":["LCA","Ларнака","Кипр","CY","Larnaca","Cyprus"],"timezone":"Asia\/Nicosia","weight":84905,"coordinates":{"lat":34.880867,"lon":33.62599},"type":"airport","searchable":true},{"name":"Далянь","country_name":"Китай","country_code":"CN","code":"DLC","index_strings":["DLC","Далянь","Китай","CN","Dalian","China"],"timezone":"Asia\/Shanghai","weight":84757,"coordinates":{"lat":38.96102,"lon":121.53999},"type":"city","searchable":false},{"name":"Национальный","country_name":"Беларусь","city_code":"MSQ","city_name":"Минск","code":"MSQ","country_code":"BY","index_strings":["MSQ","Национальный","Минск","Беларусь","BY","Minsk National 2","Minsk","Belarus"],"timezone":"Europe\/Minsk","weight":84396,"coordinates":{"lat":53.889725,"lon":28.032442},"type":"airport","searchable":true},{"name":"Минск","country_name":"Беларусь","country_code":"BY","code":"MSQ","index_strings":["MSQ","Минск","Беларусь","BY","Minsk","Belarus"],"timezone":"Europe\/Minsk","weight":84396,"coordinates":{"lat":53.9,"lon":27.5666667},"type":"city","searchable":true},{"name":"Тируванантапурам","country_name":"Индия","country_code":"IN","code":"TRV","index_strings":["TRV","Тируванантапурам","Индия","IN","Thiruvananthapuram","India"],"timezone":"Asia\/Kolkata","weight":83896,"coordinates":{"lat":8.476126000000001,"lon":76.91907},"type":"city","searchable":false},{"name":"Саудовская Аравия","weight":83441,"type":"country","code":"SA","searchable":true,"index_strings":["SA","Саудовская Аравия","Saudi Arabia"]},{"name":"Геленджик","country_name":"Россия","city_code":"GDZ","city_name":"Геленджик","code":"GDZ","country_code":"RU","index_strings":["GDZ","Геленджик","Россия","RU","Gelendzik","Russia"],"timezone":"Europe\/Moscow","weight":83428,"coordinates":{"lat":44.566666,"lon":38.016666},"type":"airport","searchable":true},{"name":"Баку","country_name":"Азербайджан","country_code":"AZ","code":"BAK","index_strings":["BAK","Баку","Азербайджан","AZ","Baku","Azerbaijan"],"timezone":"Asia\/Baku","weight":83177,"coordinates":{"lat":40.4349504,"lon":49.8676232},"type":"city","searchable":false},{"name":"Череповец","country_name":"Россия","country_code":"RU","code":"CEE","index_strings":["CEE","Череповец","Россия","RU","Cherepovets","Russia"],"timezone":"Europe\/Moscow","weight":82620,"coordinates":{"lat":59.283333,"lon":38.066666},"type":"city","searchable":false},{"name":"Нюрнберг","country_name":"Германия","country_code":"DE","code":"NUE","index_strings":["NUE","Нюрнберг","Германия","DE","Nuremberg","Germany"],"timezone":"Europe\/Berlin","weight":82468,"coordinates":{"lat":49.45052,"lon":11.08048},"type":"city","searchable":false},