[{"name":"Россия","weight":110607302,"type":"country","code":"RU","searchable":true,"index_strings":["ru","россия","russia"]},{"name":"Симферополь (Крым)","country_name":"Крым","country_code":"KX","code":"SIP","index_strings":["симферополь","sip","симферополь (крым)","крым","kx","simferopol","crimea","simferopol international airport"],"timezone":"Europe\/Simferopol","weight":21767222,"coordinates":{"lat":45.020657,"lon":33.99819},"type":"city","searchable":true},{"name":"Санкт-Петербург","country_name":"Россия","country_code":"RU","code":"LED","index_strings":["sankt petersburg","st petersburg","leningrad","ленинград","питер","спб","пулково","led","санкт-петербург","россия","ru","saint petersburg","russia","pulkovo airport"],"timezone":"Europe\/Moscow","weight":15580561,"coordinates":{"lat":59.939039,"lon":30.315785},"type":"city","searchable":true},{"name":"Крым","weight":14571041,"type":"country","code":"KX","searchable":false,"index_strings":["kx","крым","crimea"]},{"name":"Таиланд","weight":14391785,"type":"country","code":"TH","searchable":true,"index_strings":["th","таиланд","thailand"]},{"name":"Сочи (Адлер)","country_name":"Россия","country_code":"RU","code":"AER","index_strings":["sochi","сочи","адлер","aer","сочи (адлер)","россия","ru","adler\/sochi","russia","sochi international airport"],"timezone":"Europe\/Moscow","weight":11856611,"coordinates":{"lat":43.44884,"lon":39.941105},"type":"city","searchable":true},{"name":"Испания","weight":11213297,"type":"country","code":"ES","searchable":true,"index_strings":["es","испания","spain"]},{"name":"Турция","weight":9948730,"type":"country","code":"TR","searchable":true,"index_strings":["tr","турция","turkey"]},{"name":"Украина","weight":8554620,"type":"country","code":"UA","searchable":true,"index_strings":["ua","украина","ukraine"]},{"name":"Германия","weight":8198201,"type":"country","code":"DE","searchable":true,"index_strings":["de","германия","germany"]},{"name":"Москва","country_name":"Россия","country_code":"RU","code":"MOW","index_strings":["нерезиновая","понаехавск","нерезиновск","defaultcity","mow","москва","россия","ru","moscow","russia"],"timezone":"Europe\/Moscow","weight":7305318,"coordinates":{"lat":55.755786,"lon":37.617633},"type":"city","searchable":true},{"name":"Узбекистан","weight":6564656,"type":"country","code":"UZ","searchable":true,"index_strings":["uz","узбекистан","uzbekistan"]},{"name":"Краснодар","country_name":"Россия","country_code":"RU","code":"KRR","index_strings":["пашковский","krr","краснодар","россия","ru","krasnodar","russia","krasnodar international airport"],"timezone":"Europe\/Moscow","weight":5883632,"coordinates":{"lat":45.034138,"lon":39.139004},"type":"city","searchable":true},{"name":"Чехия","weight":4985573,"type":"country","code":"CZ","searchable":true,"index_strings":["cz","чехия","czech republic"]},{"name":"Италия","weight":4779083,"type":"country","code":"IT","searchable":true,"index_strings":["it","италия","italy"]},{"name":"Казахстан","weight":4630156,"type":"country","code":"KZ","searchable":true,"index_strings":["kz","казахстан","kazakhstan"]},{"name":"Новосибирск","country_name":"Россия","country_code":"RU","code":"OVB","index_strings":["толмачёво","ovb","новосибирск","россия","ru","novosibirsk","russia","novosibirsk tolmachevo airport"],"timezone":"Asia\/Phnom_Penh","weight":4310494,"coordinates":{"lat":55.00901,"lon":82.667},"type":"city","searchable":true},{"name":"Пхукет","country_name":"Таиланд","country_code":"TH","code":"HKT","index_strings":["пхукет","hkt","таиланд","th","phuket","thailand","phuket international airport"],"timezone":"Asia\/Bangkok","weight":4301070,"coordinates":{"lat":8.107619,"lon":98.30643499999999},"type":"city","searchable":true},{"name":"США","weight":4155181,"type":"country","code":"US","searchable":true,"index_strings":["us","сша","united states"]},{"name":"Минеральные Воды","country_name":"Россия","country_code":"RU","code":"MRV","index_strings":["минеральные воды","mrv","россия","ru","mineralnye vody","russia","mineralnye vody airport"],"timezone":"Europe\/Moscow","weight":4116682,"coordinates":{"lat":44.218105,"lon":43.085815},"type":"city","searchable":true},{"name":"Армения","weight":3982552,"type":"country","code":"AM","searchable":true,"index_strings":["am","армения","armenia"]},{"name":"Киргизия","weight":3942752,"type":"country","code":"KG","searchable":true,"index_strings":["kg","киргизия","kyrgyzstan"]},{"name":"Ереван","country_name":"Армения","country_code":"AM","code":"EVN","index_strings":["звартноц","evn","ереван","армения","am","yerevan","armenia","zvartnots international airport"],"timezone":"Asia\/Yerevan","weight":3836769,"coordinates":{"lat":40.15272,"lon":44.39805},"type":"city","searchable":true},{"name":"Израиль","weight":3749476,"type":"country","code":"IL","searchable":true,"index_strings":["il","израиль","israel"]},{"name":"Анапа","country_name":"Россия","country_code":"RU","code":"AAQ","index_strings":["анапа","aaq","россия","ru","anapa","russia","anapa airport"],"timezone":"Europe\/Moscow","weight":3677277,"coordinates":{"lat":44.9,"lon":37.316666},"type":"city","searchable":true},{"name":"Ташкент","country_name":"Узбекистан","country_code":"UZ","code":"TAS","index_strings":["ташкент","tas","узбекистан","uz","tashkent","uzbekistan","yuzhny airport"],"timezone":"Asia\/Tashkent","weight":3532722,"coordinates":{"lat":41.262714,"lon":69.26618999999999},"type":"city","searchable":true},{"name":"Греция","weight":3527383,"type":"country","code":"GR","searchable":true,"index_strings":["gr","греция","greece"]},{"name":"Екатеринбург","country_name":"Россия","country_code":"RU","code":"SVX","index_strings":["кольцово","svx","екатеринбург","россия","ru","yekaterinburg","russia","koltsovo international airport"],"timezone":"Asia\/Yekaterinburg","weight":3473359,"coordinates":{"lat":56.750336,"lon":60.804314},"type":"city","searchable":true},{"name":"Таджикистан","weight":3413204,"type":"country","code":"TJ","searchable":true,"index_strings":["tj","таджикистан","tajikistan"]},{"name":"Анталья","country_name":"Турция","country_code":"TR","code":"AYT","index_strings":["анталья","ayt","турция","tr","antalya","turkey","antalya airport"],"timezone":"Europe\/Istanbul","weight":3362622,"coordinates":{"lat":36.89928,"lon":30.80135},"type":"city","searchable":true},{"name":"Черногория","weight":3149027,"type":"country","code":"ME","searchable":true,"index_strings":["me","черногория","montenegro"]},{"name":"Болгария","weight":3062759,"type":"country","code":"BG","searchable":true,"index_strings":["bg","болгария","bulgaria"]},{"name":"Грузия","weight":2989700,"type":"country","code":"GE","searchable":true,"index_strings":["ge","грузия","georgia"]},{"name":"Индия","weight":2876256,"type":"country","code":"IN","searchable":true,"index_strings":["in","индия","india"]},{"name":"Вьетнам","weight":2835624,"type":"country","code":"VN","searchable":true,"index_strings":["vn","вьетнам","vietnam"]},{"name":"Ростов-на-Дону","country_name":"Россия","country_code":"RU","code":"ROV","index_strings":["ростов-на-дону","rov","россия","ru","rostov","russia","rostov airport"],"timezone":"Europe\/Moscow","weight":2615639,"coordinates":{"lat":47.25,"lon":39.75},"type":"city","searchable":true},{"name":"Египет","weight":2556834,"type":"country","code":"EG","searchable":true,"index_strings":["eg","египет","egypt"]},{"name":"Уфа","country_name":"Россия","country_code":"RU","code":"UFA","index_strings":["уфа","ufa","россия","ru","russia","ufa international airport"],"timezone":"Asia\/Yekaterinburg","weight":2540112,"coordinates":{"lat":54.565403,"lon":55.884544},"type":"city","searchable":true},{"name":"Калининград","country_name":"Россия","country_code":"RU","code":"KGD","index_strings":["храброво","kgd","калининград","россия","ru","kaliningrad","russia","khrabrovo airport"],"timezone":"Europe\/Kaliningrad","weight":2519948,"coordinates":{"lat":54.882656,"lon":20.586645},"type":"city","searchable":true},{"name":"Владивосток","country_name":"Россия","country_code":"RU","code":"VVO","index_strings":["кневичи","vvo","владивосток","россия","ru","vladivostok","russia","vladivostok international airport"],"timezone":"Asia\/Vladivostok","weight":2511405,"coordinates":{"lat":43.378574,"lon":132.14075},"type":"city","searchable":true},{"name":"Пулково","country_name":"Россия","city_code":"LED","city_name":"Санкт-Петербург","code":"LED","country_code":"RU","index_strings":["led","пулково","санкт-петербург","россия","ru","pulkovo airport","saint petersburg","russia"],"timezone":"Europe\/Moscow","weight":2457865,"coordinates":{"lat":59.806084,"lon":30.3083},"type":"airport","searchable":false},{"name":"Китай","weight":2454208,"type":"country","code":"CN","searchable":true,"index_strings":["cn","китай","china"]},{"name":"Кипр","weight":2449084,"type":"country","code":"CY","searchable":true,"index_strings":["cy","кипр","cyprus"]},{"name":"Тиват","country_name":"Черногория","country_code":"ME","code":"TIV","index_strings":["тиват","tiv","черногория","me","tivat","montenegro","tivat airport"],"timezone":"Europe\/Podgorica","weight":2398118,"coordinates":{"lat":42.40361,"lon":18.725555},"type":"city","searchable":true},{"name":"ОАЭ","weight":2375376,"type":"country","code":"AE","searchable":true,"index_strings":["ae","оаэ","united arab emirates"]},{"name":"Бишкек","country_name":"Киргизия","country_code":"KG","code":"FRU","index_strings":["манас","fru","бишкек","киргизия","kg","bishkek","kyrgyzstan","manas international airport"],"timezone":"Asia\/Bishkek","weight":2299627,"coordinates":{"lat":43.05358,"lon":74.46944999999999},"type":"city","searchable":true},{"name":"Молдавия","weight":2278637,"type":"country","code":"MD","searchable":true,"index_strings":["md","молдавия","moldova"]},{"name":"Кишинев","country_name":"Молдавия","country_code":"MD","code":"KIV","index_strings":["кишинёв","kiv","кишинев","молдавия","md","chisinau","moldova","chisinau international airport"],"timezone":"Europe\/Chisinau","weight":2275610,"coordinates":{"lat":46.935444,"lon":28.934967},"type":"city","searchable":true},{"name":"Красноярск","country_name":"Россия","country_code":"RU","code":"KJA","index_strings":["емельяново","kja","красноярск","россия","ru","krasnojarsk","russia","yemelyanovo airport"],"timezone":"Asia\/Krasnoyarsk","weight":2066765,"coordinates":{"lat":56.18113,"lon":92.48286},"type":"city","searchable":true},{"name":"Беларусь","weight":2019531,"type":"country","code":"BY","searchable":true,"index_strings":["by","беларусь","belarus"]},{"name":"Тбилиси","country_name":"Грузия","country_code":"GE","code":"TBS","index_strings":["шота руставели","tbs","тбилиси","грузия","ge","tbilisi","georgia","tbilisi international airport"],"timezone":"Asia\/Tbilisi","weight":1999474,"coordinates":{"lat":41.674065,"lon":44.958958},"type":"city","searchable":true},{"name":"Самара","country_name":"Россия","country_code":"RU","code":"KUF","index_strings":["курумоч","kuf","самара","россия","ru","samara","russia","kurumoch international airport"],"timezone":"Europe\/Samara","weight":1961561,"coordinates":{"lat":53.50782,"lon":50.14742},"type":"city","searchable":true},{"name":"Индонезия","weight":1960036,"type":"country","code":"ID","searchable":true,"index_strings":["id","индонезия","indonesia"]},{"name":"Австрия","weight":1953030,"type":"country","code":"AT","searchable":true,"index_strings":["at","австрия","austria"]},{"name":"Иркутск","country_name":"Россия","country_code":"RU","code":"IKT","index_strings":["иркутск","ikt","россия","ru","irkutsk","russia","irkutsk international airport"],"timezone":"Asia\/Irkutsk","weight":1951342,"coordinates":{"lat":52.273308,"lon":104.35607},"type":"city","searchable":true},{"name":"Нидерланды","weight":1928830,"type":"country","code":"NL","searchable":true,"index_strings":["nl","нидерланды","netherlands"]},{"name":"Казань","country_name":"Россия","country_code":"RU","code":"KZN","index_strings":["казань","kzn","россия","ru","kazan","russia","kazan international airport"],"timezone":"Europe\/Moscow","weight":1844624,"coordinates":{"lat":55.60844,"lon":49.29824},"type":"city","searchable":true},{"name":"Франция","weight":1837920,"type":"country","code":"FR","searchable":true,"index_strings":["fr","франция","france"]},{"name":"Денпасар Бали","country_name":"Индонезия","country_code":"ID","code":"DPS","index_strings":["бали","bali","нгура-раи","dps","денпасар бали","индонезия","id","denpasar","indonesia","ngurah rai international airport"],"timezone":"Asia\/Makassar","weight":1834237,"coordinates":{"lat":-8.74446,"lon":115.16331},"type":"city","searchable":true},{"name":"Бургас","country_name":"Болгария","country_code":"BG","code":"BOJ","index_strings":["бургас","boj","болгария","bg","bourgas","bulgaria","bourgas airport"],"timezone":"Europe\/Sofia","weight":1749425,"coordinates":{"lat":42.416668,"lon":27.283333},"type":"city","searchable":true},{"name":"Хабаровск","country_name":"Россия","country_code":"RU","code":"KHV","index_strings":["хабаровск","khv","россия","ru","khabarovsk","russia","khabarovsk airport"],"timezone":"Asia\/Vladivostok","weight":1745030,"coordinates":{"lat":48.524563,"lon":135.16861},"type":"city","searchable":true},{"name":"Ларнака","country_name":"Кипр","country_code":"CY","code":"LCA","index_strings":["ларнака","lca","кипр","cy","larnaca","cyprus","larnaca international airport"],"timezone":"Asia\/Nicosia","weight":1722730,"coordinates":{"lat":34.880867,"lon":33.62599},"type":"city","searchable":true},{"name":"Махачкала","country_name":"Россия","country_code":"RU","code":"MCX","index_strings":["уйташ","mcx","махачкала","россия","ru","makhachkala","russia","makhachkala airport"],"timezone":"Europe\/Moscow","weight":1693284,"coordinates":{"lat":42.82095,"lon":47.65611},"type":"city","searchable":true},{"name":"Душанбе","country_name":"Таджикистан","country_code":"TJ","code":"DYU","index_strings":["душанбе","dyu","таджикистан","tj","dushanbe","tajikistan","dushanbe airport"],"timezone":"Asia\/Dushanbe","weight":1647944,"coordinates":{"lat":38.54894,"lon":68.81728},"type":"city","searchable":true},{"name":"Ош","country_name":"Киргизия","country_code":"KG","code":"OSS","index_strings":["ош","oss","киргизия","kg","osh","kyrgyzstan","osh airport"],"timezone":"Asia\/Bishkek","weight":1642931,"coordinates":{"lat":40.60769,"lon":72.78648},"type":"city","searchable":true},{"name":"Омск","country_name":"Россия","country_code":"RU","code":"OMS","index_strings":["омск","oms","россия","ru","omsk","russia","omsk airport"],"timezone":"Asia\/Omsk","weight":1634604,"coordinates":{"lat":54.957455,"lon":73.3167},"type":"city","searchable":true},{"name":"Алматы","country_name":"Казахстан","country_code":"KZ","code":"ALA","index_strings":["алматы","ala","казахстан","kz","almaty","kazakhstan","almaty airport"],"timezone":"Asia\/Almaty","weight":1592039,"coordinates":{"lat":43.255058,"lon":76.912628},"type":"city","searchable":true},{"name":"Гоа","country_name":"Индия","country_code":"IN","code":"GOI","index_strings":["даболим","goi","гоа","индия","in","goa","india","dabolim airport"],"timezone":"Asia\/Kolkata","weight":1564342,"coordinates":{"lat":15.384534,"lon":73.83983000000001},"type":"city","searchable":true},{"name":"Португалия","weight":1526771,"type":"country","code":"PT","searchable":true,"index_strings":["pt","португалия","portugal"]},{"name":"Челябинск","country_name":"Россия","country_code":"RU","code":"CEK","index_strings":["баландино","cek","челябинск","россия","ru","chelyabinsk","russia","chelyabinsk international airport"],"timezone":"Asia\/Yekaterinburg","weight":1489455,"coordinates":{"lat":55.297504,"lon":61.51235},"type":"city","searchable":true},{"name":"Хошимин","country_name":"Вьетнам","country_code":"VN","code":"SGN","index_strings":["хошимин","sgn","вьетнам","vn","ho chi minh city","vietnam","tan son nhat international airport"],"timezone":"Asia\/Ho_Chi_Minh","weight":1455428,"coordinates":{"lat":10.813045,"lon":106.662476},"type":"city","searchable":true},{"name":"Шри-Ланка","weight":1339594,"type":"country","code":"LK","searchable":true,"index_strings":["lk","шри-ланка","sri lanka"]},{"name":"Худжанд","country_name":"Таджикистан","country_code":"TJ","code":"LBD","index_strings":["худжанд","lbd","таджикистан","tj","khujand","tajikistan","khujand airport"],"timezone":"Asia\/Dushanbe","weight":1320346,"coordinates":{"lat":40.219887,"lon":69.6965},"type":"city","searchable":true},{"name":"Гонконг","weight":1252471,"type":"country","code":"HK","searchable":false,"index_strings":["hk","гонконг","hong kong"]},{"name":"Геленджик","country_name":"Россия","country_code":"RU","code":"GDZ","index_strings":["геленджик","gdz","россия","ru","gelendzik","russia","gelendzik airport"],"timezone":"Europe\/Moscow","weight":1243074,"coordinates":{"lat":44.566666,"lon":38.016666},"type":"city","searchable":true},{"name":"Венгрия","weight":1188796,"type":"country","code":"HU","searchable":true,"index_strings":["hu","венгрия","hungary"]},{"name":"Будапешт","country_name":"Венгрия","country_code":"HU","code":"BUD","index_strings":["ференц лист","bud","будапешт","венгрия","hu","budapest","hungary","budapest ferenc liszt international airport"],"timezone":"Europe\/Budapest","weight":1170479,"coordinates":{"lat":47.4984056,"lon":19.0407578},"type":"city","searchable":true},{"name":"Тюмень","country_name":"Россия","country_code":"RU","code":"TJM","index_strings":["рощино","tjm","тюмень","россия","ru","tyumen","russia","roshchino international airport"],"timezone":"Asia\/Yekaterinburg","weight":1158918,"coordinates":{"lat":57.181828,"lon":65.35024},"type":"city","searchable":true},{"name":"Лиссабон","country_name":"Португалия","country_code":"PT","code":"LIS","index_strings":["лиссабон","lis","португалия","pt","lisbon","portugal","lisbon portela airport"],"timezone":"Europe\/Lisbon","weight":1145947,"coordinates":{"lat":38.706932,"lon":-9.1356321},"type":"city","searchable":true},{"name":"Сургут","country_name":"Россия","country_code":"RU","code":"SGC","index_strings":["сургут","sgc","россия","ru","surgut","russia","surgut airport"],"timezone":"Asia\/Yekaterinburg","weight":1132747,"coordinates":{"lat":61.339916,"lon":73.40953},"type":"city","searchable":true},{"name":"Пермь","country_name":"Россия","country_code":"RU","code":"PEE","index_strings":["большое савино","pee","пермь","россия","ru","perm","russia","perm international airport"],"timezone":"Asia\/Yekaterinburg","weight":1104184,"coordinates":{"lat":57.920025,"lon":56.01918},"type":"city","searchable":true},{"name":"Хургада","country_name":"Египет","country_code":"EG","code":"HRG","index_strings":["хургада","hrg","египет","eg","hurghada","egypt","hurghada international airport"],"timezone":"Africa\/Cairo","weight":1095631,"coordinates":{"lat":27.189156,"lon":33.8055},"type":"city","searchable":true},{"name":"Шарм-эль-Шейх","country_name":"Египет","country_code":"EG","code":"SSH","index_strings":["офира","ssh","шарм-эль-шейх","египет","eg","sharm el sheikh","egypt","sharm el sheikh airport"],"timezone":"Africa\/Cairo","weight":1076316,"coordinates":{"lat":27.979357,"lon":34.385254},"type":"city","searchable":true},{"name":"Одесса","country_name":"Украина","country_code":"UA","code":"ODS","index_strings":["одесса","ods","украина","ua","odessa","ukraine","odessa international airport"],"timezone":"Europe\/Kiev","weight":1051741,"coordinates":{"lat":46.44101,"lon":30.676718},"type":"city","searchable":true},{"name":"Филиппины","weight":1041259,"type":"country","code":"PH","searchable":true,"index_strings":["ph","филиппины","philippines"]},{"name":"Самуи","country_name":"Таиланд","country_code":"TH","code":"USM","index_strings":["самуи","usm","таиланд","th","koh samui","thailand","koh samui airport"],"timezone":"Asia\/Bangkok","weight":1024100,"coordinates":{"lat":9.555315,"lon":100.0628},"type":"city","searchable":true},{"name":"Волгоград","country_name":"Россия","country_code":"RU","code":"VOG","index_strings":["гумрак","vog","волгоград","россия","ru","volgograd","russia","volgograd international airport"],"timezone":"Europe\/Volgograd","weight":1010793,"coordinates":{"lat":48.792,"lon":44.354805},"type":"city","searchable":true},{"name":"Петропавловск-Камчатский","country_name":"Россия","country_code":"RU","code":"PKC","index_strings":["елизово","pkc","петропавловск-камчатский","россия","ru","petropavlovsk-kamchatsky","russia","petropavlovsk-kamchatsky airport"],"timezone":"Asia\/Kamchatka","weight":999221,"coordinates":{"lat":53.016666,"lon":158.65},"type":"city","searchable":true},{"name":"Астана","country_name":"Казахстан","country_code":"KZ","code":"TSE","index_strings":["астана","tse","казахстан","kz","astana","kazakhstan","astana international airport"],"timezone":"Asia\/Almaty","weight":978326,"coordinates":{"lat":51.02781,"lon":71.46120000000001},"type":"city","searchable":true},{"name":"Новый Уренгой","country_name":"Россия","country_code":"RU","code":"NUX","index_strings":["новый уренгой","nux","россия","ru","novyj urengoj","russia","novy urengoy airport"],"timezone":"Asia\/Yekaterinburg","weight":965159,"coordinates":{"lat":66.07335,"lon":76.522835},"type":"city","searchable":true},{"name":"Куба","weight":951409,"type":"country","code":"CU","searchable":true,"index_strings":["cu","куба","cuba"]},{"name":"Сингапур","weight":942116,"type":"country","code":"SG","searchable":true,"index_strings":["sg","сингапур","singapore"]},{"name":"Сингапур","country_name":"Сингапур","country_code":"SG","code":"SIN","index_strings":["чанги","sin","сингапур","sg","singapore","changi international airport"],"timezone":"Asia\/Singapore","weight":942069,"coordinates":{"lat":1.2894365,"lon":103.8499802},"type":"city","searchable":true},{"name":"Швейцария","weight":937109,"type":"country","code":"CH","searchable":true,"index_strings":["ch","швейцария","switzerland"]},{"name":"Польша","weight":908189,"type":"country","code":"PL","searchable":true,"index_strings":["pl","польша","poland"]},{"name":"Латвия","weight":897247,"type":"country","code":"LV","searchable":true,"index_strings":["lv","латвия","latvia"]},{"name":"Рига","country_name":"Латвия","country_code":"LV","code":"RIX","index_strings":["рига","rix","латвия","lv","riga","latvia","riga international airport"],"timezone":"Europe\/Riga","weight":896129,"coordinates":{"lat":56.92208,"lon":23.979807},"type":"city","searchable":true},{"name":"Римини","country_name":"Италия","country_code":"IT","code":"RMI","index_strings":["римини","rmi","италия","it","rimini","italy","miramare airport"],"timezone":"Europe\/Rome","weight":883398,"coordinates":{"lat":44.022953,"lon":12.619594},"type":"city","searchable":true},{"name":"Южно-Сахалинск","country_name":"Россия","country_code":"RU","code":"UUS","index_strings":["южно-сахалинск","uus","россия","ru","yuzhno-sakhalinsk","russia","yuzhno-sakhalinsk airport"],"timezone":"Asia\/Srednekolymsk","weight":869437,"coordinates":{"lat":46.966667,"lon":142.75},"type":"city","searchable":true},{"name":"Малайзия","weight":866781,"type":"country","code":"MY","searchable":true,"index_strings":["my","малайзия","malaysia"]},{"name":"Ницца","country_name":"Франция","country_code":"FR","code":"NCE","index_strings":["кот д'азур","nce","ницца","франция","fr","nice","france","cote d'azur airport"],"timezone":"Europe\/Paris","weight":841412,"coordinates":{"lat":43.66049,"lon":7.205232},"type":"city","searchable":true},{"name":"Азербайджан","weight":838169,"type":"country","code":"AZ","searchable":true,"index_strings":["az","азербайджан","azerbaijan"]},{"name":"Австралия","weight":837608,"type":"country","code":"AU","searchable":true,"index_strings":["au","австралия","australia"]},{"name":"Доминиканская Республика","weight":828305,"type":"country","code":"DO","searchable":true,"index_strings":["do","доминиканская республика","dominican republic"]},{"name":"Мальдивы","weight":826065,"type":"country","code":"MV","searchable":true,"index_strings":["mv","мальдивы","maldives"]},{"name":"Мексика","weight":802577,"type":"country","code":"MX","searchable":true,"index_strings":["mx","мексика","mexico"]},{"name":"Самарканд","country_name":"Узбекистан","country_code":"UZ","code":"SKD","index_strings":["самарканд","skd","узбекистан","uz","samarkand","uzbekistan","samarkand airport"],"timezone":"Asia\/Samarkand","weight":798918,"coordinates":{"lat":39.696217,"lon":66.99084999999999},"type":"city","searchable":true},{"name":"Барнаул","country_name":"Россия","country_code":"RU","code":"BAX","index_strings":["барнаул","bax","россия","ru","barnaul","russia","barnaul airport"],"timezone":"Asia\/Novokuznetsk","weight":797575,"coordinates":{"lat":53.361088,"lon":83.547646},"type":"city","searchable":true},{"name":"Мале","country_name":"Мальдивы","country_code":"MV","code":"MLE","index_strings":["мале","mle","мальдивы","mv","male","maldives","male international airport"],"timezone":"Indian\/Maldives","weight":793504,"coordinates":{"lat":4.201389,"lon":73.524445},"type":"city","searchable":true},{"name":"Владикавказ","country_name":"Россия","country_code":"RU","code":"OGZ","index_strings":["беслан","ogz","владикавказ","россия","ru","vladikavkaz","russia","vladikavkaz airport"],"timezone":"Europe\/Moscow","weight":769402,"coordinates":{"lat":43.2,"lon":44.6},"type":"city","searchable":true},{"name":"Дели","country_name":"Индия","country_code":"IN","code":"DEL","index_strings":["индира ганди","del","дели","индия","in","delhi","india","indira gandhi international airport"],"timezone":"Asia\/Kolkata","weight":767016,"coordinates":{"lat":28.556555,"lon":77.10079},"type":"city","searchable":true},{"name":"Мурманск","country_name":"Россия","country_code":"RU","code":"MMK","index_strings":["мурманск","mmk","россия","ru","murmansk","russia","murmansk airport"],"timezone":"Europe\/Moscow","weight":764497,"coordinates":{"lat":68.785095,"lon":32.759155},"type":"city","searchable":true},{"name":"Хорватия","weight":762450,"type":"country","code":"HR","searchable":true,"index_strings":["hr","хорватия","croatia"]},{"name":"Финляндия","weight":759123,"type":"country","code":"FI","searchable":true,"index_strings":["fi","финляндия","finland"]},{"name":"Нижний Новгород","country_name":"Россия","country_code":"RU","code":"GOJ","index_strings":["стригино","goj","нижний новгород","россия","ru","nizhniy novgorod","russia","nizhny novgorod international airport"],"timezone":"Europe\/Moscow","weight":753987,"coordinates":{"lat":56.218613,"lon":43.789764},"type":"city","searchable":true},{"name":"Подгорица","country_name":"Черногория","country_code":"ME","code":"TGD","index_strings":["подгорица","tgd","черногория","me","podgorica","montenegro","podgorica airport"],"timezone":"Europe\/Podgorica","weight":750632,"coordinates":{"lat":42.368023,"lon":19.246023},"type":"city","searchable":true},{"name":"Варна","country_name":"Болгария","country_code":"BG","code":"VAR","index_strings":["варна","var","болгария","bg","varna","bulgaria","varna airport"],"timezone":"Europe\/Sofia","weight":744539,"coordinates":{"lat":43.23726,"lon":27.829096},"type":"city","searchable":true},{"name":"Гавана","country_name":"Куба","country_code":"CU","code":"HAV","index_strings":["хосе марти","hav","гавана","куба","cu","havana","cuba","jose marti international airport"],"timezone":"America\/Havana","weight":721693,"coordinates":{"lat":22.99845,"lon":-82.40818},"type":"city","searchable":true},{"name":"Ставрополь","country_name":"Россия","country_code":"RU","code":"STW","index_strings":["ставрополь","stw","россия","ru","stavropol","russia","stavropol airport"],"timezone":"Europe\/Moscow","weight":691579,"coordinates":{"lat":45.333332,"lon":42.00833},"type":"city","searchable":true},{"name":"Якутск","country_name":"Россия","country_code":"RU","code":"YKS","index_strings":["якутск","yks","россия","ru","yakutsk","russia","yakutsk airport"],"timezone":"Asia\/Yakutsk","weight":682575,"coordinates":{"lat":62.085606,"lon":129.75006},"type":"city","searchable":true},{"name":"Нижневартовск","country_name":"Россия","country_code":"RU","code":"NJC","index_strings":["нижневартовск","njc","россия","ru","nizhnevartovsk","russia","nizhnevartovsk airport"],"timezone":"Asia\/Yekaterinburg","weight":676897,"coordinates":{"lat":60.9476,"lon":76.49145},"type":"city","searchable":true},{"name":"Салоники","country_name":"Греция","country_code":"GR","code":"SKG","index_strings":["салоники","skg","греция","gr","thessaloniki","greece","thessaloniki international airport"],"timezone":"Europe\/Athens","weight":672119,"coordinates":{"lat":40.520832,"lon":22.972221},"type":"city","searchable":true},{"name":"Норильск","country_name":"Россия","country_code":"RU","code":"NSK","index_strings":["норильск","nsk","россия","ru","noril'sk","russia","noril'sk airport"],"timezone":"Asia\/Krasnoyarsk","weight":668998,"coordinates":{"lat":69.32312,"lon":87.339806},"type":"city","searchable":true},{"name":"Манила","country_name":"Филиппины","country_code":"PH","code":"MNL","index_strings":["ниной акино","mnl","манила","филиппины","ph","manila","philippines","ninoy aquino international airport"],"timezone":"Asia\/Manila","weight":666752,"coordinates":{"lat":14.5995124,"lon":120.9842195},"type":"city","searchable":true},{"name":"Астрахань","country_name":"Россия","country_code":"RU","code":"ASF","index_strings":["астрахань","asf","россия","ru","astrakhan","russia","astrakhan airport"],"timezone":"Europe\/Samara","weight":651890,"coordinates":{"lat":46.2877,"lon":47.999977},"type":"city","searchable":true},{"name":"Ираклион (Крит)","country_name":"Греция","country_code":"GR","code":"HER","index_strings":["н.казантзакис","her","ираклион (крит)","греция","gr","heraklion","greece","heraklion airport"],"timezone":"Europe\/Athens","weight":651507,"coordinates":{"lat":35.33663,"lon":25.174192},"type":"city","searchable":true},{"name":"Бельгия","weight":647308,"type":"country","code":"BE","searchable":true,"index_strings":["be","бельгия","belgium"]},{"name":"Томск","country_name":"Россия","country_code":"RU","code":"TOF","index_strings":["богашёво","tof","томск","россия","ru","tomsk","russia","tomsk airport"],"timezone":"Asia\/Novokuznetsk","weight":643595,"coordinates":{"lat":56.5,"lon":84.96666999999999},"type":"city","searchable":true},{"name":"Сербия","weight":641806,"type":"country","code":"RS","searchable":true,"index_strings":["rs","сербия","serbia"]},{"name":"Пунта-Кана","country_name":"Доминиканская Республика","country_code":"DO","code":"PUJ","index_strings":["пунта-кана","puj","доминиканская республика","do","punta cana","dominican republic","punta cana international airport"],"timezone":"America\/Santo_Domingo","weight":633969,"coordinates":{"lat":18.562477,"lon":-68.364},"type":"city","searchable":true},{"name":"Белград","country_name":"Сербия","country_code":"RS","code":"BEG","index_strings":["белград","beg","сербия","rs","belgrade","serbia","belgrad nikola tesla airport"],"timezone":"Europe\/Belgrade","weight":623807,"coordinates":{"lat":44.802416,"lon":20.465601},"type":"city","searchable":true},{"name":"Хельсинки","country_name":"Финляндия","country_code":"FI","code":"HEL","index_strings":["helsinki","хельсинки","вантаа","hel","финляндия","fi","finland","helsinki-vantaa airport"],"timezone":"Europe\/Helsinki","weight":621641,"coordinates":{"lat":60.2943605,"lon":25.0402427},"type":"city","searchable":true},{"name":"Оренбург","country_name":"Россия","country_code":"RU","code":"REN","index_strings":["оренбург","ren","россия","ru","orenburg","russia","orenburg airport"],"timezone":"Asia\/Yekaterinburg","weight":615572,"coordinates":{"lat":51.79105,"lon":55.4567},"type":"city","searchable":true},{"name":"Батуми","country_name":"Грузия","country_code":"GE","code":"BUS","index_strings":["батуми","bus","грузия","ge","batumi","georgia","batumi airport"],"timezone":"Asia\/Tbilisi","weight":615244,"coordinates":{"lat":41.610832,"lon":41.600555},"type":"city","searchable":true},{"name":"Литва","weight":614727,"type":"country","code":"LT","searchable":true,"index_strings":["lt","литва","lithuania"]},{"name":"Саратов","country_name":"Россия","country_code":"RU","code":"RTW","index_strings":["саратов","rtw","россия","ru","saratov","russia","saratov airport"],"timezone":"Europe\/Samara","weight":612056,"coordinates":{"lat":51.566666,"lon":46.066666},"type":"city","searchable":true},{"name":"Улан-Удэ","country_name":"Россия","country_code":"RU","code":"UUD","index_strings":["байкал","uud","улан-удэ","россия","ru","ulan-ude","russia","ulan-ude airport"],"timezone":"Asia\/Irkutsk","weight":598961,"coordinates":{"lat":51.833332,"lon":107.5},"type":"city","searchable":true},{"name":"Пальма-де-Мальйорка","country_name":"Испания","country_code":"ES","code":"PMI","index_strings":["пальма-де-мальйорка","pmi","испания","es","palma mallorca","spain","palma de mallorca airport"],"timezone":"Europe\/Madrid","weight":594841,"coordinates":{"lat":39.547653,"lon":2.730388},"type":"city","searchable":true},{"name":"Гуанчжоу","country_name":"Китай","country_code":"CN","code":"CAN","index_strings":["байюн","can","гуанчжоу","китай","cn","guangzhou","china","guangzhou baiyun international airport"],"timezone":"Asia\/Shanghai","weight":591226,"coordinates":{"lat":23.387861,"lon":113.29734},"type":"city","searchable":true},{"name":"Вильнюс","country_name":"Литва","country_code":"LT","code":"VNO","index_strings":["вильнюс","vno","литва","lt","vilnius","lithuania","vilnius international airport"],"timezone":"Europe\/Vilnius","weight":556747,"coordinates":{"lat":54.643078,"lon":25.279606},"type":"city","searchable":true},{"name":"Благовещенск","country_name":"Россия","country_code":"RU","code":"BQS","index_strings":["благовещенск","bqs","россия","ru","blagoveschensk","russia","blagoveschensk airport"],"timezone":"Asia\/Yakutsk","weight":553929,"coordinates":{"lat":50.416668,"lon":127.4},"type":"city","searchable":true},{"name":"Белгород","country_name":"Россия","country_code":"RU","code":"EGO","index_strings":["белгород","ego","россия","ru","belgorod","russia","belgorod airport"],"timezone":"Europe\/Moscow","weight":542443,"coordinates":{"lat":50.63333,"lon":36.65},"type":"city","searchable":true},{"name":"Грозный","country_name":"Россия","country_code":"RU","code":"GRV","index_strings":["грозный","grv","россия","ru","groznyy","russia","groznyy airport"],"timezone":"Europe\/Moscow","weight":536777,"coordinates":{"lat":43.333332,"lon":45.75},"type":"city","searchable":true},{"name":"София","country_name":"Болгария","country_code":"BG","code":"SOF","index_strings":["софия","sof","болгария","bg","sofia","bulgaria","sofia airport"],"timezone":"Europe\/Sofia","weight":523397,"coordinates":{"lat":42.688343,"lon":23.41443},"type":"city","searchable":true},{"name":"Паттайя","country_name":"Таиланд","country_code":"TH","code":"UTP","index_strings":["утапао","utp","паттайя","таиланд","th","utapao","thailand","utapao airport"],"timezone":"Asia\/Bangkok","weight":517573,"coordinates":{"lat":12.683333,"lon":101.01667},"type":"city","searchable":true},{"name":"Воронеж","country_name":"Россия","country_code":"RU","code":"VOZ","index_strings":["чертовицкое","voz","воронеж","россия","ru","voronezh","russia","voronezh airport"],"timezone":"Europe\/Moscow","weight":509850,"coordinates":{"lat":51.812355,"lon":39.226997},"type":"city","searchable":true},{"name":"Женева","country_name":"Швейцария","country_code":"CH","code":"GVA","index_strings":["женева","gva","швейцария","ch","geneva","switzerland","geneve airport"],"timezone":"Europe\/Zurich","weight":503178,"coordinates":{"lat":46.1983922,"lon":6.1422961},"type":"city","searchable":true},{"name":"Фергана","country_name":"Узбекистан","country_code":"UZ","code":"FEG","index_strings":["фергана","feg","узбекистан","uz","fergana","uzbekistan","fergana airport"],"timezone":"Asia\/Tashkent","weight":497004,"coordinates":{"lat":40.350277,"lon":71.73361},"type":"city","searchable":true},{"name":"Пафос","country_name":"Кипр","country_code":"CY","code":"PFO","index_strings":["пафос","pfo","кипр","cy","paphos","cyprus","paphos international airport"],"timezone":"Asia\/Nicosia","weight":496340,"coordinates":{"lat":34.71155,"lon":32.489105},"type":"city","searchable":true},{"name":"Кольцово","country_name":"Россия","city_code":"SVX","city_name":"Екатеринбург","code":"SVX","country_code":"RU","index_strings":["svx","кольцово","екатеринбург","россия","ru","koltsovo international airport","yekaterinburg","russia"],"timezone":"Asia\/Yekaterinburg","weight":493708,"coordinates":{"lat":56.750336,"lon":60.804314},"type":"airport","searchable":false},{"name":"Канкун","country_name":"Мексика","country_code":"MX","code":"CUN","index_strings":["канкун","cun","мексика","mx","cancun","mexico","cancun international airport"],"timezone":"America\/Cancun","weight":493678,"coordinates":{"lat":21.040457,"lon":-86.87443500000001},"type":"city","searchable":true},{"name":"Ханой","country_name":"Вьетнам","country_code":"VN","code":"HAN","index_strings":["нойбей","han","ханой","вьетнам","vn","hanoi","vietnam","noi bai international airport"],"timezone":"Asia\/Ho_Chi_Minh","weight":480914,"coordinates":{"lat":21.214184,"lon":105.802826},"type":"city","searchable":true},{"name":"Норвегия","weight":480572,"type":"country","code":"NO","searchable":true,"index_strings":["no","норвегия","norway"]},{"name":"Марокко","weight":477747,"type":"country","code":"MA","searchable":true,"index_strings":["ma","марокко","morocco"]},{"name":"Архангельск","country_name":"Россия","country_code":"RU","code":"ARH","index_strings":["талаги","arh","архангельск","россия","ru","arkhangelsk","russia","talagi airport"],"timezone":"Europe\/Moscow","weight":477142,"coordinates":{"lat":64.594795,"lon":40.711903},"type":"city","searchable":true},{"name":"Камбоджа","weight":475886,"type":"country","code":"KH","searchable":true,"index_strings":["kh","камбоджа","cambodia"]},{"name":"Суварнабхуми","country_name":"Таиланд","city_code":"BKK","city_name":"Бангкок","code":"BKK","country_code":"TH","index_strings":["bkk","суварнабхуми","бангкок","таиланд","th","suvarnabhumi airport","bangkok","thailand"],"timezone":"Asia\/Bangkok","weight":463244,"coordinates":{"lat":13.693062,"lon":100.752045},"type":"airport","searchable":true},{"name":"Бангкок","country_name":"Таиланд","country_code":"TH","code":"BKK","index_strings":["bkk","бангкок","таиланд","th","bangkok","thailand"],"timezone":"Asia\/Bangkok","weight":463244,"coordinates":{"lat":13.7234186,"lon":100.4762319},"type":"city","searchable":true},{"name":"Чита","country_name":"Россия","country_code":"RU","code":"HTA","index_strings":["кадала","hta","чита","россия","ru","chita","russia","chita airport"],"timezone":"Asia\/Chita","weight":440081,"coordinates":{"lat":52.033333,"lon":113.3},"type":"city","searchable":true},{"name":"Родос","country_name":"Греция","country_code":"GR","code":"RHO","index_strings":["родос","rho","греция","gr","rhodes","greece","rhodes airport"],"timezone":"Europe\/Athens","weight":436835,"coordinates":{"lat":36.401867,"lon":28.090677},"type":"city","searchable":true},{"name":"Эстония","weight":435496,"type":"country","code":"EE","searchable":true,"index_strings":["ee","эстония","estonia"]},{"name":"Кемерово","country_name":"Россия","country_code":"RU","code":"KEJ","index_strings":["кемерово","kej","россия","ru","kemerovo","russia","kemerovo airport"],"timezone":"Asia\/Novokuznetsk","weight":431622,"coordinates":{"lat":55.280567,"lon":86.11623},"type":"city","searchable":true},{"name":"Дания","weight":431388,"type":"country","code":"DK","searchable":true,"index_strings":["dk","дания","denmark"]},{"name":"Таллин","country_name":"Эстония","country_code":"EE","code":"TLL","index_strings":["юлемисте","tll","таллин","эстония","ee","tallinn","estonia","tallinn airport"],"timezone":"Europe\/Tallinn","weight":425992,"coordinates":{"lat":59.4388619,"lon":24.7544715},"type":"city","searchable":true},{"name":"Новокузнецк","country_name":"Россия","country_code":"RU","code":"NOZ","index_strings":["спиченково","noz","новокузнецк","россия","ru","novokuznetsk","russia","novokuznetsk airport"],"timezone":"Asia\/Novokuznetsk","weight":424205,"coordinates":{"lat":53.75,"lon":87.166664},"type":"city","searchable":true},{"name":"Днепр","country_name":"Украина","country_code":"UA","code":"DNK","index_strings":["днепропетровск","dnk","днепр","украина","ua","dnepropetrovsk","ukraine","dnepropetrovsk international airport"],"timezone":"Europe\/Kiev","weight":424162,"coordinates":{"lat":48.36874,"lon":35.09446},"type":"city","searchable":true},{"name":"Толмачево","country_name":"Россия","city_code":"OVB","city_name":"Новосибирск","code":"OVB","country_code":"RU","index_strings":["ovb","толмачево","новосибирск","россия","ru","novosibirsk tolmachevo airport","novosibirsk","russia"],"timezone":"Asia\/Phnom_Penh","weight":423871,"coordinates":{"lat":55.00901,"lon":82.667},"type":"airport","searchable":false},{"name":"Нальчик","country_name":"Россия","country_code":"RU","code":"NAL","index_strings":["нальчик","nal","россия","ru","nalchik","russia","nalchik airport"],"timezone":"Europe\/Moscow","weight":423497,"coordinates":{"lat":43.533333,"lon":43.7},"type":"city","searchable":true},{"name":"Адлер","country_name":"Россия","city_code":"AER","city_name":"Сочи (Адлер)","code":"AER","country_code":"RU","index_strings":["aer","адлер","сочи (адлер)","россия","ru","sochi international airport","adler\/sochi","russia"],"timezone":"Europe\/Moscow","weight":414837,"coordinates":{"lat":43.44884,"lon":39.941105},"type":"airport","searchable":false},{"name":"Барселона","country_name":"Испания","country_code":"ES","code":"BCN","index_strings":["эль-прат","bcn","барселона","испания","es","barcelona","spain","barcelona-el prat airport"],"timezone":"Europe\/Madrid","weight":413784,"coordinates":{"lat":41.387917,"lon":2.1699187},"type":"city","searchable":true},{"name":"Эль-Прат","country_name":"Испания","city_code":"BCN","city_name":"Барселона","code":"BCN","country_code":"ES","index_strings":["bcn","эль-прат","барселона","испания","es","barcelona-el prat airport","barcelona","spain"],"timezone":"Europe\/Madrid","weight":413784,"coordinates":{"lat":41.30303,"lon":2.07593},"type":"airport","searchable":false},{"name":"Гянджа","country_name":"Азербайджан","country_code":"AZ","code":"KVD","index_strings":["гянджа","kvd","азербайджан","az","gyandzha","azerbaijan","gyandzha airport"],"timezone":"Asia\/Baku","weight":413338,"coordinates":{"lat":40.733334,"lon":46.316666},"type":"city","searchable":true},{"name":"Львов","country_name":"Украина","country_code":"UA","code":"LWO","index_strings":["львов","lwo","украина","ua","lviv","ukraine","lviv international airport"],"timezone":"Europe\/Kiev","weight":410887,"coordinates":{"lat":49.816418,"lon":23.955318},"type":"city","searchable":true},{"name":"Ижевск","country_name":"Россия","country_code":"RU","code":"IJK","index_strings":["ижевск","ijk","россия","ru","izhevsk","russia","izhevsk airport"],"timezone":"Europe\/Samara","weight":401627,"coordinates":{"lat":56.833332,"lon":53.466667},"type":"city","searchable":true},{"name":"Абакан","country_name":"Россия","country_code":"RU","code":"ABA","index_strings":["абакан","aba","россия","ru","abakan","russia","abakan airport"],"timezone":"Asia\/Krasnoyarsk","weight":395646,"coordinates":{"lat":53.716667,"lon":91.5},"type":"city","searchable":true},{"name":"Цюрих","country_name":"Швейцария","country_code":"CH","code":"ZRH","index_strings":["цюрих","zrh","швейцария","ch","zurich","switzerland","zurich airport"],"timezone":"Europe\/Zurich","weight":385137,"coordinates":{"lat":47.367347,"lon":8.5500025},"type":"city","searchable":true},{"name":"Санья","country_name":"Китай","country_code":"CN","code":"SYX","index_strings":["санья","syx","китай","cn","sanya","china","sanya phoenix international airport"],"timezone":"Asia\/Shanghai","weight":384175,"coordinates":{"lat":18.31063,"lon":109.409706},"type":"city","searchable":true},{"name":"Магадан","country_name":"Россия","country_code":"RU","code":"GDX","index_strings":["сокол","gdx","магадан","россия","ru","magadan","russia","magadan airport"],"timezone":"Asia\/Magadan","weight":383014,"coordinates":{"lat":59.916668,"lon":150.71666},"type":"city","searchable":true},{"name":"Сыктывкар","country_name":"Россия","country_code":"RU","code":"SCW","index_strings":["сыктывкар","scw","россия","ru","syktyvkar","russia","syktyvkar airport"],"timezone":"Europe\/Moscow","weight":368719,"coordinates":{"lat":61.666668,"lon":50.766666},"type":"city","searchable":true},{"name":"Париж","country_name":"Франция","country_code":"FR","code":"PAR","index_strings":["par","париж","франция","fr","paris","france"],"timezone":"Europe\/Paris","weight":364708,"coordinates":{"lat":48.856614,"lon":2.3522219},"type":"city","searchable":true},{"name":"Нижнекамск","country_name":"Россия","country_code":"RU","code":"NBC","index_strings":["бегишево","nbc","нижнекамск","россия","ru","naberezhnye chelny","russia","begishevo airport"],"timezone":"Europe\/Moscow","weight":358842,"coordinates":{"lat":55.564125,"lon":52.10341},"type":"city","searchable":true},{"name":"Пашковский","country_name":"Россия","city_code":"KRR","city_name":"Краснодар","code":"KRR","country_code":"RU","index_strings":["krr","пашковский","краснодар","россия","ru","krasnodar international airport","krasnodar","russia"],"timezone":"Europe\/Moscow","weight":357820,"coordinates":{"lat":45.034138,"lon":39.139004},"type":"airport","searchable":false},{"name":"Бухара","country_name":"Узбекистан","country_code":"UZ","code":"BHK","index_strings":["бухара","bhk","узбекистан","uz","bukhara","uzbekistan","bukhara airport"],"timezone":"Asia\/Samarkand","weight":350260,"coordinates":{"lat":39.76037,"lon":64.47479},"type":"city","searchable":true},{"name":"Мальта","weight":344312,"type":"country","code":"MT","searchable":true,"index_strings":["mt","мальта","malta"]},{"name":"Мальта","country_name":"Мальта","country_code":"MT","code":"MLA","index_strings":["мальта","mla","mt","malta","malta international airport"],"timezone":"Europe\/Malta","weight":344183,"coordinates":{"lat":35.849777,"lon":14.495401},"type":"city","searchable":true},{"name":"Ургенч","country_name":"Узбекистан","country_code":"UZ","code":"UGC","index_strings":["ургенч","ugc","узбекистан","uz","urgench","uzbekistan","urgench airport"],"timezone":"Asia\/Samarkand","weight":343117,"coordinates":{"lat":41.584835,"lon":60.63303},"type":"city","searchable":true},{"name":"Симферополь","country_name":"Крым","city_code":"SIP","city_name":"Симферополь (Крым)","code":"SIP","country_code":"KX","index_strings":["sip","симферополь","симферополь (крым)","крым","kx","simferopol international airport","simferopol","crimea"],"timezone":"Europe\/Simferopol","weight":338652,"coordinates":{"lat":45.020657,"lon":33.99819},"type":"airport","searchable":false},{"name":"Шымкент","country_name":"Казахстан","country_code":"KZ","code":"CIT","index_strings":["шымкент","cit","казахстан","kz","shymkent","kazakhstan","shymkent airport"],"timezone":"Asia\/Almaty","weight":336476,"coordinates":{"lat":42.3,"lon":69.59999999999999},"type":"city","searchable":true},{"name":"Киев","country_name":"Украина","country_code":"UA","code":"IEV","index_strings":["iev","киев","украина","ua","kiev","ukraine"],"timezone":"Europe\/Kiev","weight":333239,"coordinates":{"lat":50.45,"lon":30.5},"type":"city","searchable":true},{"name":"Борисполь","country_name":"Украина","city_code":"IEV","city_name":"Киев","code":"KBP","country_code":"UA","index_strings":["kbp","борисполь","киев","iev","украина","ua","boryspil international airport","kiev","ukraine"],"timezone":"Europe\/Kiev","weight":333239,"coordinates":{"lat":50.341244,"lon":30.895206},"type":"airport","searchable":true},{"name":"Штутгарт","country_name":"Германия","country_code":"DE","code":"STR","index_strings":["штутгарт","str","германия","de","stuttgart","germany","stuttgart airport"],"timezone":"Europe\/Berlin","weight":327223,"coordinates":{"lat":48.7771056,"lon":9.180768799999999},"type":"city","searchable":true},{"name":"Ганновер","country_name":"Германия","country_code":"DE","code":"HAJ","index_strings":["ганновер","haj","германия","de","hanover","germany","hannover airport"],"timezone":"Europe\/Berlin","weight":312949,"coordinates":{"lat":52.3720683,"lon":9.735686100000001},"type":"city","searchable":true},{"name":"Сейшелы","weight":311194,"type":"country","code":"SC","searchable":true,"index_strings":["sc","сейшелы","seychelles"]},{"name":"Пномпень","country_name":"Камбоджа","country_code":"KH","code":"PNH","index_strings":["покэнтонг","pnh","пномпень","камбоджа","kh","phnom penh","cambodia","phnom penh international airport"],"timezone":"Asia\/Phnom_Penh","weight":304733,"coordinates":{"lat":11.546111,"lon":104.84778},"type":"city","searchable":true},{"name":"Флоренция","country_name":"Италия","country_code":"IT","code":"FLR","index_strings":["перетола","flr","флоренция","италия","it","florence","italy","firenze-peretola airport"],"timezone":"Europe\/Rome","weight":304513,"coordinates":{"lat":43.7687324,"lon":11.2569013},"type":"city","searchable":true},{"name":"Великобритания","weight":304266,"type":"country","code":"GB","searchable":true,"index_strings":["gb","великобритания","united kingdom"]},{"name":"Караганда","country_name":"Казахстан","country_code":"KZ","code":"KGF","index_strings":["сары-арка","kgf","караганда","казахстан","kz","karaganda","kazakhstan","karaganda airport"],"timezone":"Asia\/Almaty","weight":298629,"coordinates":{"lat":49.67526,"lon":73.32836},"type":"city","searchable":true},{"name":"Наманган","country_name":"Узбекистан","country_code":"UZ","code":"NMA","index_strings":["наманган","nma","узбекистан","uz","namangan","uzbekistan","namangan airport"],"timezone":"Asia\/Tashkent","weight":298493,"coordinates":{"lat":40.983334,"lon":71.59999999999999},"type":"city","searchable":true},{"name":"Каир","country_name":"Египет","country_code":"EG","code":"CAI","index_strings":["каир","cai","египет","eg","cairo","egypt","cairo international airport"],"timezone":"Africa\/Cairo","weight":295648,"coordinates":{"lat":30.120106,"lon":31.40647},"type":"city","searchable":true},{"name":"Новая Зеландия","weight":288487,"type":"country","code":"NZ","searchable":true,"index_strings":["nz","новая зеландия","new zealand"]},{"name":"Андижан","country_name":"Узбекистан","country_code":"UZ","code":"AZN","index_strings":["андижан","azn","узбекистан","uz","andizhan","uzbekistan","andizhan airport"],"timezone":"Asia\/Tashkent","weight":287098,"coordinates":{"lat":40.733334,"lon":72.3},"type":"city","searchable":true},{"name":"Даламан","country_name":"Турция","country_code":"TR","code":"DLM","index_strings":["даламан","dlm","турция","tr","dalaman","turkey","dalaman airport"],"timezone":"Europe\/Istanbul","weight":286678,"coordinates":{"lat":36.716667,"lon":28.783333},"type":"city","searchable":true},{"name":"Тунис","weight":285600,"type":"country","code":"TN","searchable":true,"index_strings":["tn","тунис","tunisia"]},{"name":"Палермо","country_name":"Италия","country_code":"IT","code":"PMO","index_strings":["пунта-рейзи","pmo","палермо","италия","it","palermo","italy","falcone-borsellino airport"],"timezone":"Europe\/Rome","weight":283044,"coordinates":{"lat":38.186523,"lon":13.104779},"type":"city","searchable":true},{"name":"Куляб","country_name":"Таджикистан","country_code":"TJ","code":"TJU","index_strings":["куляб","tju","таджикистан","tj","kulyab","tajikistan","kulyab airport"],"timezone":"Asia\/Dushanbe","weight":282327,"coordinates":{"lat":37.988335,"lon":69.80665999999999},"type":"city","searchable":true},{"name":"Куляб","country_name":"Таджикистан","city_code":"TJU","city_name":"Куляб","code":"TJU","country_code":"TJ","index_strings":["tju","куляб","таджикистан","tj","kulyab airport","kulyab","tajikistan"],"timezone":"Asia\/Dushanbe","weight":282289,"coordinates":{"lat":37.988335,"lon":69.80665999999999},"type":"airport","searchable":false},{"name":"Кутаиси","country_name":"Грузия","country_code":"GE","code":"KUT","index_strings":["кутаиси","kut","грузия","ge","kutaisi","georgia","kutaisi international airport"],"timezone":"Asia\/Tbilisi","weight":280274,"coordinates":{"lat":42.25,"lon":42.7},"type":"city","searchable":true},{"name":"Канада","weight":279172,"type":"country","code":"CA","searchable":true,"index_strings":["ca","канада","canada"]},{"name":"Маэ","country_name":"Сейшелы","country_code":"SC","code":"SEZ","index_strings":["маэ","sez","сейшелы","sc","mahe island","seychelles","seychelles international airport"],"timezone":"Indian\/Mahe","weight":276958,"coordinates":{"lat":-4.671275,"lon":55.51128},"type":"city","searchable":true},{"name":"Бен Гурион","country_name":"Израиль","city_code":"TLV","city_name":"Тель-Авив","code":"TLV","country_code":"IL","index_strings":["tlv","бен гурион","тель-авив","израиль","il","ben gurion international airport","tel aviv-yafo","israel"],"timezone":"Asia\/Jerusalem","weight":276722,"coordinates":{"lat":32.000454,"lon":34.870743},"type":"airport","searchable":true},{"name":"Тель-Авив","country_name":"Израиль","country_code":"IL","code":"TLV","index_strings":["tlv","тель-авив","израиль","il","tel aviv-yafo","israel"],"timezone":"Asia\/Jerusalem","weight":276722,"coordinates":{"lat":32.000454,"lon":34.870743},"type":"city","searchable":true},{"name":"Марсель","country_name":"Франция","country_code":"FR","code":"MRS","index_strings":["марсель","mrs","франция","fr","marseille","france","marseille provence airport"],"timezone":"Europe\/Paris","weight":272565,"coordinates":{"lat":43.296482,"lon":5.36978},"type":"city","searchable":true},{"name":"Актау","country_name":"Казахстан","country_code":"KZ","code":"SCO","index_strings":["актау","sco","казахстан","kz","aktau","kazakhstan","aktau international airport"],"timezone":"Asia\/Aqtau","weight":271540,"coordinates":{"lat":43.86667,"lon":51.1},"type":"city","searchable":true},{"name":"Туркменистан","weight":269057,"type":"country","code":"TM","searchable":true,"index_strings":["tm","туркменистан","turkmenistan"]},{"name":"Ирландия","weight":267172,"type":"country","code":"IE","searchable":true,"index_strings":["ie","ирландия","ireland"]},{"name":"Рим","country_name":"Италия","country_code":"IT","code":"ROM","index_strings":["rom","рим","италия","it","rome","italy"],"timezone":"Europe\/Rome","weight":266632,"coordinates":{"lat":41.8905198,"lon":12.4942486},"type":"city","searchable":true},{"name":"Харьков","country_name":"Украина","country_code":"UA","code":"HRK","index_strings":["харьков","hrk","украина","ua","kharkov","ukraine","kharkov airport"],"timezone":"Europe\/Kiev","weight":265736,"coordinates":{"lat":49.92078,"lon":36.281185},"type":"city","searchable":true},{"name":"Ашхабад","country_name":"Туркменистан","country_code":"TM","code":"ASB","index_strings":["ашхабад","asb","туркменистан","tm","ashgabat","turkmenistan","ashgabat airport"],"timezone":"Asia\/Ashgabat","weight":263459,"coordinates":{"lat":37.984184,"lon":58.366978},"type":"city","searchable":true},{"name":"Катания","country_name":"Италия","country_code":"IT","code":"CTA","index_strings":["фонтанаросса","cta","катания","италия","it","catania","italy","catania-fontanarossa airport"],"timezone":"Europe\/Rome","weight":262099,"coordinates":{"lat":37.47066,"lon":15.065877},"type":"city","searchable":true},{"name":"Магнитогорск","country_name":"Россия","country_code":"RU","code":"MQF","index_strings":["магнитогорск","mqf","россия","ru","magnitogorsk","russia","magnitogorsk airport"],"timezone":"Asia\/Yekaterinburg","weight":260690,"coordinates":{"lat":53.45,"lon":59.066666},"type":"city","searchable":true},{"name":"Емельяново","country_name":"Россия","city_code":"KJA","city_name":"Красноярск","code":"KJA","country_code":"RU","index_strings":["kja","емельяново","красноярск","россия","ru","yemelyanovo airport","krasnojarsk","russia"],"timezone":"Asia\/Krasnoyarsk","weight":259365,"coordinates":{"lat":56.18113,"lon":92.48286},"type":"airport","searchable":false},{"name":"Дублин","country_name":"Ирландия","country_code":"IE","code":"DUB","index_strings":["дублин","dub","ирландия","ie","dublin","ireland","dublin airport"],"timezone":"Europe\/Dublin","weight":253004,"coordinates":{"lat":53.42728,"lon":-6.24357},"type":"city","searchable":true},{"name":"Ибица","country_name":"Испания","country_code":"ES","code":"IBZ","index_strings":["ибица","ibz","испания","es","ibiza","spain","ibiza airport"],"timezone":"Europe\/Madrid","weight":249676,"coordinates":{"lat":38.876595,"lon":1.367803},"type":"city","searchable":true},{"name":"Ноябрьск","country_name":"Россия","country_code":"RU","code":"NOJ","index_strings":["ноябрьск","noj","россия","ru","nojabrxsk","russia","nojabrxsk airport"],"timezone":"Asia\/Yekaterinburg","weight":247291,"coordinates":{"lat":63.17673,"lon":75.29459},"type":"city","searchable":true},{"name":"Нью-Йорк","country_name":"США","country_code":"US","code":"NYC","index_strings":["nyc","нью-йорк","сша","us","new york","united states"],"timezone":"America\/New_York","weight":244835,"coordinates":{"lat":40.7143528,"lon":-74.00597310000001},"type":"city","searchable":true},{"name":"Чебоксары","country_name":"Россия","country_code":"RU","code":"CSY","index_strings":["чебоксары","csy","россия","ru","cheboksary","russia","cheboksary airport"],"timezone":"Europe\/Moscow","weight":239882,"coordinates":{"lat":56.13333,"lon":47.266666},"type":"city","searchable":true},{"name":"Маврикий","weight":233072,"type":"country","code":"MU","searchable":true,"index_strings":["mu","маврикий","mauritius"]},{"name":"Дубровник","country_name":"Хорватия","country_code":"HR","code":"DBV","index_strings":["дубровник","dbv","хорватия","hr","dubrovnik","croatia","dubrovnik airport"],"timezone":"Europe\/Zagreb","weight":224272,"coordinates":{"lat":42.56072,"lon":18.260616},"type":"city","searchable":true},{"name":"Усть-Каменогорск","country_name":"Казахстан","country_code":"KZ","code":"UKK","index_strings":["усть-каменогорск","ukk","казахстан","kz","ust-kamenogorsk","kazakhstan","ust-kamenogorsk airport"],"timezone":"Asia\/Almaty","weight":223379,"coordinates":{"lat":50.025723,"lon":82.5056},"type":"city","searchable":true},{"name":"Вацлав Гавел","country_name":"Чехия","city_code":"PRG","city_name":"Прага","code":"PRG","country_code":"CZ","index_strings":["prg","вацлав гавел","прага","чехия","cz","vaclav havel airport prague","prague","czech republic"],"timezone":"Europe\/Prague","weight":223143,"coordinates":{"lat":50.10619,"lon":14.266638},"type":"airport","searchable":false},{"name":"Прага","country_name":"Чехия","country_code":"CZ","code":"PRG","index_strings":["вацлав гавел","prg","прага","чехия","cz","prague","czech republic","vaclav havel airport prague"],"timezone":"Europe\/Prague","weight":223143,"coordinates":{"lat":50.0878114,"lon":14.4204598},"type":"city","searchable":true},{"name":"Перу","weight":220443,"type":"country","code":"PE","searchable":true,"index_strings":["pe","перу","peru"]},{"name":"Вантаа","country_name":"Финляндия","city_code":"HEL","city_name":"Хельсинки","code":"HEL","country_code":"FI","index_strings":["hel","вантаа","хельсинки","финляндия","fi","helsinki-vantaa airport","helsinki","finland"],"timezone":"Europe\/Helsinki","weight":217934,"coordinates":{"lat":60.31795,"lon":24.96645},"type":"airport","searchable":false},{"name":"Алания","country_name":"Турция","country_code":"TR","code":"GZP","index_strings":["газипаша","gzp","алания","турция","tr","gazipasa","turkey","gazipasa airport"],"timezone":"Europe\/Istanbul","weight":217747,"coordinates":{"lat":36.2993,"lon":32.3014},"type":"city","searchable":true},{"name":"Газипаша","country_name":"Турция","city_code":"GZP","city_name":"Алания","code":"GZP","country_code":"TR","index_strings":["gzp","газипаша","алания","турция","tr","gazipasa airport","gazipasa","turkey"],"timezone":"Europe\/Istanbul","weight":217746,"coordinates":{"lat":36.2993,"lon":32.3014},"type":"airport","searchable":false},{"name":"Ханты-Мансийск","country_name":"Россия","country_code":"RU","code":"HMA","index_strings":["ханты-мансийск","hma","россия","ru","khanty-mansiysk","russia","khanty-mansiysk airport"],"timezone":"Asia\/Yekaterinburg","weight":216950,"coordinates":{"lat":61.02613,"lon":69.09714},"type":"city","searchable":true},{"name":"Салехард","country_name":"Россия","country_code":"RU","code":"SLY","index_strings":["салехард","sly","россия","ru","salekhard","russia","salekhard airport"],"timezone":"Asia\/Yekaterinburg","weight":214651,"coordinates":{"lat":66.583336,"lon":66.59999999999999},"type":"city","searchable":true},{"name":"Корфу","country_name":"Греция","country_code":"GR","code":"CFU","index_strings":["иоанис каподистриас","cfu","корфу","греция","gr","kerkyra","greece","ioannis kapodistrias airport"],"timezone":"Europe\/Athens","weight":212074,"coordinates":{"lat":39.60784,"lon":19.914644},"type":"city","searchable":true},{"name":"Звартноц","country_name":"Армения","city_code":"EVN","city_name":"Ереван","code":"EVN","country_code":"AM","index_strings":["evn","звартноц","ереван","армения","am","zvartnots international airport","yerevan","armenia"],"timezone":"Asia\/Yerevan","weight":210365,"coordinates":{"lat":40.15272,"lon":44.39805},"type":"airport","searchable":false},{"name":"Французская Полинезия","weight":208925,"type":"country","code":"PF","searchable":true,"index_strings":["pf","французская полинезия","french polynesia"]},{"name":"Окленд","country_name":"Новая Зеландия","country_code":"NZ","code":"AKL","index_strings":["окленд","akl","новая зеландия","nz","auckland","new zealand","auckland airport"],"timezone":"Pacific\/Auckland","weight":204179,"coordinates":{"lat":-36.8484597,"lon":174.7633315},"type":"city","searchable":true},{"name":"Мумбаи","country_name":"Индия","country_code":"IN","code":"BOM","index_strings":["бомбей","bombay","мумбаи","bom","индия","in","mumbai","india","chhatrapati shivaji international airport"],"timezone":"Asia\/Kolkata","weight":204163,"coordinates":{"lat":19.095509,"lon":72.87497},"type":"city","searchable":true},{"name":"Папуа Новая Гвинея","weight":203881,"type":"country","code":"PG","searchable":true,"index_strings":["pg","папуа новая гвинея","papua new guinea"]},{"name":"Горно-Алтайск","country_name":"Россия","country_code":"RU","code":"RGK","index_strings":["горно-алтайск","rgk","россия","ru","gorno-altaysk","russia","gorno-altaysk airport"],"timezone":"Asia\/Novokuznetsk","weight":203869,"coordinates":{"lat":51.969166,"lon":85.83638999999999},"type":"city","searchable":true},{"name":"Горно-Алтайск","country_name":"Россия","city_code":"RGK","city_name":"Горно-Алтайск","code":"RGK","country_code":"RU","index_strings":["rgk","горно-алтайск","россия","ru","gorno-altaysk airport","gorno-altaysk","russia"],"timezone":"Asia\/Novokuznetsk","weight":203864,"coordinates":{"lat":51.969166,"lon":85.83638999999999},"type":"airport","searchable":false},{"name":"Хабаровск","country_name":"Россия","city_code":"KHV","city_name":"Хабаровск","code":"KHV","country_code":"RU","index_strings":["khv","хабаровск","россия","ru","khabarovsk airport","khabarovsk","russia"],"timezone":"Asia\/Vladivostok","weight":203763,"coordinates":{"lat":48.524563,"lon":135.16861},"type":"airport","searchable":false},{"name":"Чили","weight":201584,"type":"country","code":"CL","searchable":true,"index_strings":["cl","чили","chile"]},{"name":"Маврикий","country_name":"Маврикий","country_code":"MU","code":"MRU","index_strings":["сивусагур рамгулам ","mru","маврикий","mu","mauritius","sir seewoosagur ramgoolam international airport"],"timezone":"Indian\/Mauritius","weight":199804,"coordinates":{"lat":-20.431997,"lon":57.67663},"type":"city","searchable":true},{"name":"Сплит","country_name":"Хорватия","country_code":"HR","code":"SPU","index_strings":["сплит","spu","хорватия","hr","split","croatia","split airport"],"timezone":"Europe\/Zagreb","weight":197293,"coordinates":{"lat":43.536526,"lon":16.29946},"type":"city","searchable":true},{"name":"Братск","country_name":"Россия","country_code":"RU","code":"BTK","index_strings":["братск","btk","россия","ru","bratsk","russia","bratsk airport"],"timezone":"Asia\/Irkutsk","weight":196898,"coordinates":{"lat":56.36667,"lon":101.816666},"type":"city","searchable":true},{"name":"Назрань","country_name":"Россия","country_code":"RU","code":"IGT","index_strings":["магас","igt","назрань","россия","ru","ordzhonikidzevskaya","russia","magas airport"],"timezone":"Europe\/Moscow","weight":195771,"coordinates":{"lat":43.31778,"lon":45.001667},"type":"city","searchable":true},{"name":"Магас","country_name":"Россия","city_code":"IGT","city_name":"Назрань","code":"IGT","country_code":"RU","index_strings":["igt","магас","назрань","россия","ru","magas airport","ordzhonikidzevskaya","russia"],"timezone":"Europe\/Moscow","weight":195760,"coordinates":{"lat":43.31778,"lon":45.001667},"type":"airport","searchable":false},{"name":"Пенза","country_name":"Россия","country_code":"RU","code":"PEZ","index_strings":["терновка","pez","пенза","россия","ru","penza","russia","penza airport"],"timezone":"Europe\/Moscow","weight":193939,"coordinates":{"lat":53.11852,"lon":45.02305},"type":"city","searchable":true},{"name":"Кневичи","country_name":"Россия","city_code":"VVO","city_name":"Владивосток","code":"VVO","country_code":"RU","index_strings":["vvo","кневичи","владивосток","россия","ru","vladivostok international airport","vladivostok","russia"],"timezone":"Asia\/Vladivostok","weight":190094,"coordinates":{"lat":43.378574,"lon":132.14075},"type":"airport","searchable":false},{"name":"Никосия","country_name":"Кипр","country_code":"CY","code":"ECN","index_strings":["эрджан","ecn","никосия","кипр","cy","ercan","cyprus","ercan airport"],"timezone":"Asia\/Nicosia","weight":189077,"coordinates":{"lat":35.15812,"lon":33.50307},"type":"city","searchable":true},{"name":"Харбин","country_name":"Китай","country_code":"CN","code":"HRB","index_strings":["харбин","hrb","китай","cn","harbin","china","harbin taiping international airport"],"timezone":"Asia\/Shanghai","weight":188704,"coordinates":{"lat":45.620853,"lon":126.23644},"type":"city","searchable":true},{"name":"Киров","country_name":"Россия","country_code":"RU","code":"KVX","index_strings":["победилово","kvx","киров","россия","ru","kirov","russia","kirov airport"],"timezone":"Europe\/Volgograd","weight":188488,"coordinates":{"lat":58.5,"lon":49.35},"type":"city","searchable":true},{"name":"Курган","country_name":"Россия","country_code":"RU","code":"KRO","index_strings":["курган","kro","россия","ru","kurgan","russia","kurgan airport"],"timezone":"Asia\/Yekaterinburg","weight":188352,"coordinates":{"lat":55.433334,"lon":65.3},"type":"city","searchable":true},{"name":"Ленкорань","country_name":"Азербайджан","city_code":"LLK","city_name":"Ленкорань","code":"LLK","country_code":"AZ","index_strings":["llk","ленкорань","азербайджан","az","lankaran international airport","lankaran","azerbaijan"],"timezone":"Asia\/Baku","weight":186895,"coordinates":{"lat":38.74203,"lon":48.824093},"type":"airport","searchable":false},{"name":"Ленкорань","country_name":"Азербайджан","country_code":"AZ","code":"LLK","index_strings":["ленкорань","llk","азербайджан","az","lankaran","azerbaijan","lankaran international airport"],"timezone":"Asia\/Baku","weight":186894,"coordinates":{"lat":38.74203,"lon":48.824093},"type":"city","searchable":true},{"name":"Эйлат","country_name":"Израиль","country_code":"IL","code":"ETH","index_strings":["эйлат","eth","израиль","il","elat","israel","eilat airport"],"timezone":"Asia\/Jerusalem","weight":186812,"coordinates":{"lat":29.555616,"lon":34.95357},"type":"city","searchable":true},{"name":"Надым","country_name":"Россия","country_code":"RU","code":"NYM","index_strings":["надым","nym","россия","ru","nadym","russia","nadym airport"],"timezone":"Asia\/Yekaterinburg","weight":186594,"coordinates":{"lat":65.48333,"lon":72.71666999999999},"type":"city","searchable":true},{"name":"Непал","weight":186558,"type":"country","code":"NP","searchable":true,"index_strings":["np","непал","nepal"]},{"name":"Урумчи","country_name":"Китай","country_code":"CN","code":"URC","index_strings":["урумчи","urc","китай","cn","urumqi","china","urumqi diwopu international airport"],"timezone":"Asia\/Shanghai","weight":186359,"coordinates":{"lat":43.90126,"lon":87.47515},"type":"city","searchable":true},{"name":"Варадеро","country_name":"Куба","country_code":"CU","code":"VRA","index_strings":["варадеро","vra","куба","cu","varadero","cuba","juan gualberto gomez airport"],"timezone":"America\/Havana","weight":185352,"coordinates":{"lat":23.039896,"lon":-81.43694000000001},"type":"city","searchable":true},{"name":"Милан","country_name":"Италия","country_code":"IT","code":"MIL","index_strings":["mil","милан","италия","it","milan","italy"],"timezone":"Europe\/Rome","weight":184789,"coordinates":{"lat":45.463681,"lon":9.1881714},"type":"city","searchable":true},{"name":"Ростов-на-Дону","country_name":"Россия","city_code":"ROV","city_name":"Ростов-на-Дону","code":"ROV","country_code":"RU","index_strings":["rov","ростов-на-дону","россия","ru","rostov airport","rostov","russia"],"timezone":"Europe\/Moscow","weight":182053,"coordinates":{"lat":47.25,"lon":39.75},"type":"airport","searchable":false},{"name":"ЮАР","weight":181115,"type":"country","code":"ZA","searchable":true,"index_strings":["za","юар","south africa"]},{"name":"Катманду","country_name":"Непал","country_code":"NP","code":"KTM","index_strings":["катманду","ktm","непал","np","kathmandu","nepal","tribhuvan international airport"],"timezone":"Asia\/Kathmandu","weight":179018,"coordinates":{"lat":27.699905,"lon":85.35657},"type":"city","searchable":true},{"name":"Анапа","country_name":"Россия","city_code":"AAQ","city_name":"Анапа","code":"AAQ","country_code":"RU","index_strings":["aaq","анапа","россия","ru","anapa airport","anapa","russia"],"timezone":"Europe\/Moscow","weight":176965,"coordinates":{"lat":44.9,"lon":37.316666},"type":"airport","searchable":false},{"name":"Лима","country_name":"Перу","country_code":"PE","code":"LIM","index_strings":["хорхе чавес","lim","лима","перу","pe","lima","peru","jorge chavez international airport"],"timezone":"America\/Lima","weight":175905,"coordinates":{"lat":-12.019421,"lon":-77.10766599999999},"type":"city","searchable":true},{"name":"Лас-Пальмас","country_name":"Испания","country_code":"ES","code":"LPA","index_strings":["гран-канария","lpa","лас-пальмас","испания","es","las palmas","spain","gran canaria airport"],"timezone":"Atlantic\/Canary","weight":173561,"coordinates":{"lat":27.938944,"lon":-15.389351},"type":"city","searchable":true},{"name":"Краби","country_name":"Таиланд","country_code":"TH","code":"KBV","index_strings":["краби","kbv","таиланд","th","krabi","thailand","krabi airport"],"timezone":"Asia\/Bangkok","weight":171477,"coordinates":{"lat":8.097281000000001,"lon":98.98062},"type":"city","searchable":true},{"name":"Мирный","country_name":"Россия","country_code":"RU","code":"MJZ","index_strings":["мирный","mjz","россия","ru","mirnyj","russia","mirnyj airport"],"timezone":"Asia\/Yakutsk","weight":170017,"coordinates":{"lat":62.533333,"lon":114.03333},"type":"city","searchable":true},{"name":"Загреб","country_name":"Хорватия","country_code":"HR","code":"ZAG","index_strings":["загреб","zag","хорватия","hr","zagreb","croatia","zagreb international airport"],"timezone":"Europe\/Zagreb","weight":169993,"coordinates":{"lat":45.733242,"lon":16.06152},"type":"city","searchable":true},{"name":"Тунис","country_name":"Тунис","country_code":"TN","code":"TUN","index_strings":["карфаген","tun","тунис","tn","tunis","tunisia","tunis-carthage international airport"],"timezone":"Africa\/Tunis","weight":168600,"coordinates":{"lat":36.847622,"lon":10.21709},"type":"city","searchable":true},{"name":"Иркутск","country_name":"Россия","city_code":"IKT","city_name":"Иркутск","code":"IKT","country_code":"RU","index_strings":["ikt","иркутск","россия","ru","irkutsk international airport","irkutsk","russia"],"timezone":"Asia\/Irkutsk","weight":168106,"coordinates":{"lat":52.273308,"lon":104.35607},"type":"airport","searchable":false},{"name":"Генуя","country_name":"Италия","country_code":"IT","code":"GOA","index_strings":["генуя","goa","италия","it","genoa","italy","genoa cristoforo colombo airport"],"timezone":"Europe\/Rome","weight":167888,"coordinates":{"lat":44.415066,"lon":8.850809999999999},"type":"city","searchable":true},{"name":"Словения","weight":166545,"type":"country","code":"SI","searchable":true,"index_strings":["si","словения","slovenia"]},{"name":"Пиза","country_name":"Италия","country_code":"IT","code":"PSA","index_strings":["пиза","psa","италия","it","pisa","italy","pisa international airport"],"timezone":"Europe\/Rome","weight":166315,"coordinates":{"lat":43.69871,"lon":10.399915},"type":"city","searchable":true},{"name":"Храброво","country_name":"Россия","city_code":"KGD","city_name":"Калининград","code":"KGD","country_code":"RU","index_strings":["kgd","храброво","калининград","россия","ru","khrabrovo airport","kaliningrad","russia"],"timezone":"Europe\/Kaliningrad","weight":165953,"coordinates":{"lat":54.882656,"lon":20.586645},"type":"airport","searchable":false},{"name":"Орск","country_name":"Россия","country_code":"RU","code":"OSW","index_strings":["орск","osw","россия","ru","orsk","russia","orsk airport"],"timezone":"Asia\/Yekaterinburg","weight":164398,"coordinates":{"lat":51.2,"lon":58.566666},"type":"city","searchable":true},{"name":"Курган-Тюбе","country_name":"Таджикистан","country_code":"TJ","code":"KQT","index_strings":["курган-тюбе","kqt","таджикистан","tj","kurgon-tyube","tajikistan","qurghonteppa international airport"],"timezone":"Asia\/Dushanbe","weight":163362,"coordinates":{"lat":37.85961,"lon":68.86117},"type":"city","searchable":true},{"name":"Курган-Тюбе","country_name":"Таджикистан","city_code":"KQT","city_name":"Курган-Тюбе","code":"KQT","country_code":"TJ","index_strings":["kqt","курган-тюбе","таджикистан","tj","qurghonteppa international airport","kurgon-tyube","tajikistan"],"timezone":"Asia\/Dushanbe","weight":163353,"coordinates":{"lat":37.85961,"lon":68.86117},"type":"airport","searchable":false},{"name":"Ататюрк","country_name":"Турция","city_code":"IST","city_name":"Стамбул","code":"IST","country_code":"TR","index_strings":["ist","ататюрк","стамбул","турция","tr","istanbul ataturk airport","istanbul","turkey"],"timezone":"Europe\/Istanbul","weight":161766,"coordinates":{"lat":40.976665,"lon":28.815277},"type":"airport","searchable":true},{"name":"Стамбул","country_name":"Турция","country_code":"TR","code":"IST","index_strings":["ist","стамбул","турция","tr","istanbul","turkey"],"timezone":"Europe\/Istanbul","weight":161766,"coordinates":{"lat":40.976665,"lon":28.815277},"type":"city","searchable":true},{"name":"Габала","country_name":"Азербайджан","country_code":"AZ","code":"GBB","index_strings":["габала","gbb","азербайджан","az","gabala","azerbaijan","gabala international airport"],"timezone":"Asia\/Baku","weight":161026,"coordinates":{"lat":40.4936,"lon":47.4245},"type":"city","searchable":true},{"name":"Габала","country_name":"Азербайджан","city_code":"GBB","city_name":"Габала","code":"GBB","country_code":"AZ","index_strings":["gbb","габала","азербайджан","az","gabala international airport","gabala","azerbaijan"],"timezone":"Asia\/Baku","weight":161025,"coordinates":{"lat":40.4936,"lon":47.4245},"type":"airport","searchable":false},{"name":"Мадагаскар","weight":159396,"type":"country","code":"MG","searchable":true,"index_strings":["mg","мадагаскар","madagascar"]},{"name":"Курумоч","country_name":"Россия","city_code":"KUF","city_name":"Самара","code":"KUF","country_code":"RU","index_strings":["kuf","курумоч","самара","россия","ru","kurumoch international airport","samara","russia"],"timezone":"Europe\/Samara","weight":158519,"coordinates":{"lat":53.50782,"lon":50.14742},"type":"airport","searchable":false},{"name":"Краков","country_name":"Польша","country_code":"PL","code":"KRK","index_strings":["краков","krk","польша","pl","krakow","poland","j. paul ii international airport krakow-balice"],"timezone":"Europe\/Warsaw","weight":158171,"coordinates":{"lat":50.075493,"lon":19.793743},"type":"city","searchable":true},{"name":"Любляна","country_name":"Словения","country_code":"SI","code":"LJU","index_strings":["любляна","lju","словения","si","ljubljana","slovenia","ljubljana joze pucnik airport"],"timezone":"Europe\/Ljubljana","weight":157897,"coordinates":{"lat":46.23102,"lon":14.454972},"type":"city","searchable":true},{"name":"Берлин","country_name":"Германия","country_code":"DE","code":"BER","index_strings":["ber","берлин","германия","de","berlin","germany"],"timezone":"Europe\/Berlin","weight":154839,"coordinates":{"lat":52.5234051,"lon":13.4113999},"type":"city","searchable":true},{"name":"Минеральные Воды","country_name":"Россия","city_code":"MRV","city_name":"Минеральные Воды","code":"MRV","country_code":"RU","index_strings":["mrv","минеральные воды","россия","ru","mineralnye vody airport","mineralnye vody","russia"],"timezone":"Europe\/Moscow","weight":154285,"coordinates":{"lat":44.218105,"lon":43.085815},"type":"airport","searchable":false},{"name":"Ямайка","weight":153970,"type":"country","code":"JM","searchable":true,"index_strings":["jm","ямайка","jamaica"]},{"name":"Бора-Бора","country_name":"Французская Полинезия","country_code":"PF","code":"BOB","index_strings":["моту-муту","bob","бора-бора","французская полинезия","pf","bora bora","french polynesia","motu mute airport"],"timezone":"Pacific\/Tahiti","weight":153466,"coordinates":{"lat":-16.446207,"lon":-151.75447},"type":"city","searchable":true},{"name":"Уфа","country_name":"Россия","city_code":"UFA","city_name":"Уфа","code":"UFA","country_code":"RU","index_strings":["ufa","уфа","россия","ru","ufa international airport","russia"],"timezone":"Asia\/Yekaterinburg","weight":153048,"coordinates":{"lat":54.565403,"lon":55.884544},"type":"airport","searchable":false},{"name":"Карловы Вары","country_name":"Чехия","country_code":"CZ","code":"KLV","index_strings":["карловы вары","klv","чехия","cz","karlovy vary","czech republic","karlovy vary airport"],"timezone":"Europe\/Prague","weight":151007,"coordinates":{"lat":50.2322052,"lon":12.8712765},"type":"city","searchable":true},{"name":"Коста Рика","weight":150693,"type":"country","code":"CR","searchable":true,"index_strings":["cr","коста рика","costa rica"]},{"name":"Запорожье","country_name":"Украина","country_code":"UA","code":"OZH","index_strings":["запорожье","ozh","украина","ua","zaporozhye","ukraine","zaporozhye airport"],"timezone":"Europe\/Zaporozhye","weight":147772,"coordinates":{"lat":47.8675,"lon":35.315834},"type":"city","searchable":true},{"name":"Гюмри","country_name":"Армения","country_code":"AM","code":"LWN","index_strings":["гюмри","lwn","армения","am","gyoumri","armenia","leninakan airport"],"timezone":"Asia\/Yerevan","weight":145602,"coordinates":{"lat":40.716667,"lon":43.833332},"type":"city","searchable":true},{"name":"Актюбинск","country_name":"Казахстан","country_code":"KZ","code":"AKX","index_strings":["актобе","akx","актюбинск","казахстан","kz","aktyubinsk","kazakhstan","aktyubinsk airport"],"timezone":"Asia\/Aqtobe","weight":145189,"coordinates":{"lat":50.249336,"lon":57.211403},"type":"city","searchable":true},{"name":"Иордания","weight":144853,"type":"country","code":"JO","searchable":true,"index_strings":["jo","иордания","jordan"]},{"name":"Омск","country_name":"Россия","city_code":"OMS","city_name":"Омск","code":"OMS","country_code":"RU","index_strings":["oms","омск","россия","ru","omsk airport","omsk","russia"],"timezone":"Asia\/Omsk","weight":143827,"coordinates":{"lat":54.957455,"lon":73.3167},"type":"airport","searchable":false},{"name":"Себу","country_name":"Филиппины","country_code":"PH","code":"CEB","index_strings":["себу-мактан","ceb","себу","филиппины","ph","cebu city","philippines","mactan-cebu international airport"],"timezone":"Asia\/Manila","weight":142803,"coordinates":{"lat":10.313333,"lon":123.98278},"type":"city","searchable":true},{"name":"Пхукет","country_name":"Таиланд","city_code":"HKT","city_name":"Пхукет","code":"HKT","country_code":"TH","index_strings":["hkt","пхукет","таиланд","th","phuket international airport","phuket","thailand"],"timezone":"Asia\/Bangkok","weight":136397,"coordinates":{"lat":8.107619,"lon":98.30643499999999},"type":"airport","searchable":false},{"name":"Нерюнгри","country_name":"Россия","country_code":"RU","code":"NER","index_strings":["чульман","ner","нерюнгри","россия","ru","neryungri","russia","neryungri airport"],"timezone":"Asia\/Yakutsk","weight":135958,"coordinates":{"lat":56.65,"lon":124.6},"type":"city","searchable":true},{"name":"Словакия","weight":135910,"type":"country","code":"SK","searchable":true,"index_strings":["sk","словакия","slovakia"]},{"name":"Лондон","country_name":"Великобритания","country_code":"GB","code":"LON","index_strings":["lon","лондон","великобритания","gb","london","united kingdom"],"timezone":"Europe\/London","weight":132983,"coordinates":{"lat":51.51,"lon":0.06},"type":"city","searchable":true},{"name":"Пула","country_name":"Хорватия","country_code":"HR","code":"PUY","index_strings":["пула","puy","хорватия","hr","pula","croatia","pula airport"],"timezone":"Europe\/Zagreb","weight":132717,"coordinates":{"lat":44.891666,"lon":13.923611},"type":"city","searchable":true},{"name":"Порту","country_name":"Португалия","country_code":"PT","code":"OPO","index_strings":["порту","opo","португалия","pt","porto","portugal","porto airport"],"timezone":"Europe\/Lisbon","weight":129374,"coordinates":{"lat":41.149968,"lon":-8.610242599999999},"type":"city","searchable":true},{"name":"Атырау","country_name":"Казахстан","country_code":"KZ","code":"GUW","index_strings":["атырау","guw","казахстан","kz","atyrau","kazakhstan","atyrau airport"],"timezone":"Asia\/Aqtau","weight":129293,"coordinates":{"lat":47.122814,"lon":51.829556},"type":"city","searchable":true},{"name":"Курск","country_name":"Россия","country_code":"RU","code":"URS","index_strings":["восточный","urs","курск","россия","ru","kursk","russia","kursk vostochny airport"],"timezone":"Europe\/Moscow","weight":127997,"coordinates":{"lat":51.75,"lon":36.266666},"type":"city","searchable":true},{"name":"Нукус","country_name":"Узбекистан","country_code":"UZ","code":"NCU","index_strings":["нукус","ncu","узбекистан","uz","nukus","uzbekistan","nukus airport"],"timezone":"Asia\/Samarkand","weight":127773,"coordinates":{"lat":42.483334,"lon":59.63333},"type":"city","searchable":true},{"name":"Бразилия","weight":127029,"type":"country","code":"BR","searchable":true,"index_strings":["br","бразилия","brazil"]},{"name":"Гонолулу","country_name":"США","country_code":"US","code":"HNL","index_strings":["гонолулу","hnl","сша","us","honolulu","united states","honolulu international airport"],"timezone":"Pacific\/Honolulu","weight":126824,"coordinates":{"lat":21.3069444,"lon":-157.8583333},"type":"city","searchable":true},{"name":"Санторини","country_name":"Греция","country_code":"GR","code":"JTR","index_strings":["thira","тира","санторини","jtr","греция","gr","greece","santorini international airport"],"timezone":"Europe\/Athens","weight":125673,"coordinates":{"lat":36.4,"lon":25.483334},"type":"city","searchable":true},{"name":"Амстердам","country_name":"Нидерланды","country_code":"NL","code":"AMS","index_strings":["схипхол","ams","амстердам","нидерланды","nl","amsterdam","netherlands","amsterdam airport schiphol"],"timezone":"Europe\/Amsterdam","weight":125455,"coordinates":{"lat":52.3730556,"lon":4.8922222},"type":"city","searchable":true},{"name":"Схипхол","country_name":"Нидерланды","city_code":"AMS","city_name":"Амстердам","code":"AMS","country_code":"NL","index_strings":["ams","схипхол","амстердам","нидерланды","nl","amsterdam airport schiphol","amsterdam","netherlands"],"timezone":"Europe\/Amsterdam","weight":125455,"coordinates":{"lat":52.30907,"lon":4.763385},"type":"airport","searchable":false},{"name":"Фуншал","country_name":"Португалия","country_code":"PT","code":"FNC","index_strings":["мадейра","fnc","фуншал","португалия","pt","funchal","portugal","madeira airport"],"timezone":"Atlantic\/Madeira","weight":124815,"coordinates":{"lat":32.693123,"lon":-16.775635},"type":"city","searchable":true},{"name":"Швехат","country_name":"Австрия","city_code":"VIE","city_name":"Вена","code":"VIE","country_code":"AT","index_strings":["vie","швехат","вена","австрия","at","vienna international airport","vienna","austria"],"timezone":"Europe\/Vienna","weight":122344,"coordinates":{"lat":48.11972,"lon":16.563583},"type":"airport","searchable":false},{"name":"Вена","country_name":"Австрия","country_code":"AT","code":"VIE","index_strings":["швехат","vie","вена","австрия","at","vienna","austria","vienna international airport"],"timezone":"Europe\/Vienna","weight":122344,"coordinates":{"lat":48.2081743,"lon":16.3738189},"type":"city","searchable":true},{"name":"Танзания","weight":120470,"type":"country","code":"TZ","searchable":true,"index_strings":["tz","танзания","tanzania"]},{"name":"Кальяри","country_name":"Италия","country_code":"IT","code":"CAG","index_strings":["элмас","cag","кальяри","италия","it","cagliari","italy","cagliari elmas airport"],"timezone":"Europe\/Rome","weight":119910,"coordinates":{"lat":39.254333,"lon":9.060673},"type":"city","searchable":true},{"name":"Венесуэла","weight":119658,"type":"country","code":"VE","searchable":true,"index_strings":["ve","венесуэла","venezuela"]},{"name":"Инсбрук","country_name":"Австрия","country_code":"AT","code":"INN","index_strings":["инсбрук","inn","австрия","at","innsbruck","austria","innsbruck airport"],"timezone":"Europe\/Vienna","weight":119354,"coordinates":{"lat":47.25745,"lon":11.351467},"type":"city","searchable":true},{"name":"Сан-Хосе","country_name":"Коста Рика","country_code":"CR","code":"SJO","index_strings":["хуан сантамария","sjo","сан-хосе","коста рика","cr","san jose","costa rica","juan santamaria international airport"],"timezone":"America\/Costa_Rica","weight":119118,"coordinates":{"lat":9.998238000000001,"lon":-84.20408},"type":"city","searchable":true},{"name":"Петрозаводск","country_name":"Россия","country_code":"RU","code":"PES","index_strings":["бесовец","pes","петрозаводск","россия","ru","petrozavodsk","russia","petrozavodsk airport"],"timezone":"Europe\/Moscow","weight":118875,"coordinates":{"lat":61.683334,"lon":34.333332},"type":"city","searchable":true},{"name":"Эквадор","weight":118079,"type":"country","code":"EC","searchable":true,"index_strings":["ec","эквадор","ecuador"]},{"name":"Колумбия","weight":116254,"type":"country","code":"CO","searchable":true,"index_strings":["co","колумбия","colombia"]},{"name":"Мюнхен","country_name":"Германия","country_code":"DE","code":"MUC","index_strings":["muc","мюнхен","германия","de","munich","germany"],"timezone":"Europe\/Berlin","weight":115833,"coordinates":{"lat":48.1391265,"lon":11.5801863},"type":"city","searchable":true},{"name":"Франц Йозеф Штраус","country_name":"Германия","city_code":"MUC","city_name":"Мюнхен","code":"MUC","country_code":"DE","index_strings":["muc","франц йозеф штраус","мюнхен","германия","de","franz josef strauss airport","munich","germany"],"timezone":"Europe\/Berlin","weight":115833,"coordinates":{"lat":48.353004,"lon":11.790143},"type":"airport","searchable":true},{"name":"Навои","country_name":"Узбекистан","country_code":"UZ","code":"NVI","index_strings":["навои","nvi","узбекистан","uz","navoi","uzbekistan","navoi airport"],"timezone":"Asia\/Samarkand","weight":114863,"coordinates":{"lat":40.115,"lon":65.159164},"type":"city","searchable":true},{"name":"Южная Корея","weight":114526,"type":"country","code":"KR","searchable":true,"index_strings":["kr","южная корея","south korea"]},{"name":"Алматы","country_name":"Казахстан","city_code":"ALA","city_name":"Алматы","code":"ALA","country_code":"KZ","index_strings":["ala","алматы","казахстан","kz","almaty airport","almaty","kazakhstan"],"timezone":"Asia\/Almaty","weight":114439,"coordinates":{"lat":43.346653,"lon":77.01145},"type":"airport","searchable":false},{"name":"Барахас","country_name":"Испания","city_code":"MAD","city_name":"Мадрид","code":"MAD","country_code":"ES","index_strings":["mad","барахас","мадрид","испания","es","adolfo suarez madrid-barajas airport","madrid","spain"],"timezone":"Europe\/Madrid","weight":113504,"coordinates":{"lat":40.46515,"lon":-3.570209},"type":"airport","searchable":true},{"name":"Мадрид","country_name":"Испания","country_code":"ES","code":"MAD","index_strings":["mad","мадрид","испания","es","madrid","spain"],"timezone":"Europe\/Madrid","weight":113504,"coordinates":{"lat":40.4166909,"lon":-3.7003454},"type":"city","searchable":true},{"name":"Бари","country_name":"Италия","country_code":"IT","code":"BRI","index_strings":["бари","bri","италия","it","bari","italy","palese airport"],"timezone":"Europe\/Rome","weight":112174,"coordinates":{"lat":41.1259998,"lon":16.8683784},"type":"city","searchable":true},{"name":"Уральск","country_name":"Казахстан","country_code":"KZ","code":"URA","index_strings":["уральск","ura","казахстан","kz","uralsk","kazakhstan","uralsk airport"],"timezone":"Asia\/Oral","weight":112116,"coordinates":{"lat":51.15371,"lon":51.538563},"type":"city","searchable":true},{"name":"Карши","country_name":"Узбекистан","country_code":"UZ","code":"KSQ","index_strings":["карши","ksq","узбекистан","uz","karshi","uzbekistan","karshi airport"],"timezone":"Asia\/Samarkand","weight":110813,"coordinates":{"lat":38.80981,"lon":65.77531},"type":"city","searchable":true},{"name":"Тиват","country_name":"Черногория","city_code":"TIV","city_name":"Тиват","code":"TIV","country_code":"ME","index_strings":["tiv","тиват","черногория","me","tivat airport","tivat","montenegro"],"timezone":"Europe\/Podgorica","weight":110335,"coordinates":{"lat":42.40361,"lon":18.725555},"type":"airport","searchable":false},{"name":"Костанай","country_name":"Казахстан","country_code":"KZ","code":"KSN","index_strings":["наримановка","ksn","костанай","казахстан","kz","kostanay","kazakhstan","kostanay airport"],"timezone":"Asia\/Almaty","weight":109996,"coordinates":{"lat":53.2,"lon":63.55},"type":"city","searchable":true},{"name":"Бугульма","country_name":"Россия","country_code":"RU","code":"UUA","index_strings":["бугульма","uua","россия","ru","bugulma","russia","bugulma airport"],"timezone":"Europe\/Moscow","weight":109983,"coordinates":{"lat":54.61667,"lon":52.816666},"type":"city","searchable":true},{"name":"Нгура-Раи","country_name":"Индонезия","city_code":"DPS","city_name":"Денпасар Бали","code":"DPS","country_code":"ID","index_strings":["dps","нгура-раи","денпасар бали","индонезия","id","ngurah rai international airport","denpasar","indonesia"],"timezone":"Asia\/Makassar","weight":109762,"coordinates":{"lat":-8.74446,"lon":115.16331},"type":"airport","searchable":false},{"name":"Баландино","country_name":"Россия","city_code":"CEK","city_name":"Челябинск","code":"CEK","country_code":"RU","index_strings":["cek","баландино","челябинск","россия","ru","chelyabinsk international airport","chelyabinsk","russia"],"timezone":"Asia\/Yekaterinburg","weight":109512,"coordinates":{"lat":55.297504,"lon":61.51235},"type":"airport","searchable":false},{"name":"Ухта","country_name":"Россия","country_code":"RU","code":"UCT","index_strings":["ухта","uct","россия","ru","ukhta","russia","ukhta airport"],"timezone":"Europe\/Moscow","weight":109455,"coordinates":{"lat":63.566666,"lon":53.8},"type":"city","searchable":true},{"name":"Усинск","country_name":"Россия","country_code":"RU","code":"USK","index_strings":["усинск","usk","россия","ru","usinsk","russia","usinsk airport"],"timezone":"Europe\/Moscow","weight":109336,"coordinates":{"lat":65.95,"lon":57.4},"type":"city","searchable":true},{"name":"Анадырь","country_name":"Россия","country_code":"RU","code":"DYR","index_strings":["угольный","dyr","анадырь","россия","ru","anadyr","russia","anadyr airport"],"timezone":"Asia\/Anadyr","weight":108526,"coordinates":{"lat":64.73333,"lon":177.75},"type":"city","searchable":true},{"name":"Комсомольск-на-Амуре","country_name":"Россия","country_code":"RU","code":"KXK","index_strings":["комсомольск-на-амуре","kxk","россия","ru","komsomolsk na amure","russia","khurba airport"],"timezone":"Asia\/Vladivostok","weight":108402,"coordinates":{"lat":50.4,"lon":136.95},"type":"city","searchable":true},{"name":"Саранск","country_name":"Россия","country_code":"RU","code":"SKX","index_strings":["саранск","skx","россия","ru","saransk","russia","saransk airport"],"timezone":"Europe\/Moscow","weight":108368,"coordinates":{"lat":54.166668,"lon":45.166668},"type":"city","searchable":true},{"name":"Бодрум","country_name":"Турция","country_code":"TR","code":"BJV","index_strings":["милас","bjv","бодрум","турция","tr","bodrum","turkey","milas-bodrum airport"],"timezone":"Europe\/Istanbul","weight":107782,"coordinates":{"lat":37.25,"lon":27.66},"type":"city","searchable":true},{"name":"Братислава","country_name":"Словакия","country_code":"SK","code":"BTS","index_strings":["м. р. штефаник","bts","братислава","словакия","sk","bratislava","slovakia","bratislava airport"],"timezone":"Europe\/Bratislava","weight":107551,"coordinates":{"lat":48.17,"lon":17.21},"type":"city","searchable":true},{"name":"Павлодар","country_name":"Казахстан","country_code":"KZ","code":"PWQ","index_strings":["павлодар","pwq","казахстан","kz","pavlodar","kazakhstan","pavlodar airport"],"timezone":"Asia\/Almaty","weight":105187,"coordinates":{"lat":52.183334,"lon":77.066666},"type":"city","searchable":true},{"name":"Сургут","country_name":"Россия","city_code":"SGC","city_name":"Сургут","code":"SGC","country_code":"RU","index_strings":["sgc","сургут","россия","ru","surgut airport","surgut","russia"],"timezone":"Asia\/Yekaterinburg","weight":104725,"coordinates":{"lat":61.339916,"lon":73.40953},"type":"airport","searchable":false},{"name":"Ливан","weight":104706,"type":"country","code":"LB","searchable":true,"index_strings":["lb","ливан","lebanon"]},{"name":"Бейрут","country_name":"Ливан","country_code":"LB","code":"BEY","index_strings":["бейрут","bey","ливан","lb","beirut","lebanon","beirut-rafic hariri international airport"],"timezone":"Asia\/Beirut","weight":104374,"coordinates":{"lat":33.826073,"lon":35.49308},"type":"city","searchable":true},{"name":"Кения","weight":104101,"type":"country","code":"KE","searchable":true,"index_strings":["ke","кения","kenya"]},{"name":"Термез","country_name":"Узбекистан","country_code":"UZ","code":"TMJ","index_strings":["термез","tmj","узбекистан","uz","termez","uzbekistan","termez airport"],"timezone":"Asia\/Samarkand","weight":103050,"coordinates":{"lat":37.280502,"lon":67.31895400000001},"type":"city","searchable":true},{"name":"Кызыл","country_name":"Россия","country_code":"RU","code":"KYZ","index_strings":["кызыл","kyz","россия","ru","kyzyl","russia","kyzyl airport"],"timezone":"Asia\/Krasnoyarsk","weight":101392,"coordinates":{"lat":51.7,"lon":94.46666999999999},"type":"city","searchable":true},{"name":"Агадир","country_name":"Марокко","country_code":"MA","code":"AGA","index_strings":["алмассира","aga","агадир","марокко","ma","agadir","morocco","agadir al massira airport"],"timezone":"Africa\/Casablanca","weight":100238,"coordinates":{"lat":30.378326,"lon":-9.555895},"type":"city","searchable":true},{"name":"Тайвань","weight":100082,"type":"country","code":"TW","searchable":true,"index_strings":["tw","тайвань","taiwan"]},{"name":"Шарджа","country_name":"ОАЭ","country_code":"AE","code":"SHJ","index_strings":["шарджа","shj","оаэ","ae","sharjah","united arab emirates","sharjah international airport"],"timezone":"Asia\/Dubai","weight":99847,"coordinates":{"lat":25.320873,"lon":55.52029},"type":"city","searchable":true},{"name":"Марракеш","country_name":"Марокко","country_code":"MA","code":"RAK","index_strings":["марракеш","rak","марокко","ma","marrakech","morocco","menara airport"],"timezone":"Africa\/Casablanca","weight":99505,"coordinates":{"lat":31.601875,"lon":-8.026902},"type":"city","searchable":true},{"name":"Кейптаун","country_name":"ЮАР","country_code":"ZA","code":"CPT","index_strings":["кейптаун","cpt","юар","za","cape town","south africa","cape town international airport"],"timezone":"Africa\/Johannesburg","weight":99394,"coordinates":{"lat":-33.968906,"lon":18.596489},"type":"city","searchable":true},{"name":"Антананариву","country_name":"Мадагаскар","country_code":"MG","code":"TNR","index_strings":["антананариву","tnr","мадагаскар","mg","antananarivo","madagascar","antananarivo airport"],"timezone":"Indian\/Antananarivo","weight":99357,"coordinates":{"lat":-18.799631,"lon":47.47503},"type":"city","searchable":true},{"name":"Пекин","country_name":"Китай","country_code":"CN","code":"BJS","index_strings":["bjs","пекин","китай","cn","beijing","china"],"timezone":"Asia\/Shanghai","weight":99283,"coordinates":{"lat":39.904214,"lon":116.407413},"type":"city","searchable":true},{"name":"Фиджи","weight":98292,"type":"country","code":"FJ","searchable":true,"index_strings":["fj","фиджи","fiji"]},{"name":"Иран","weight":98195,"type":"country","code":"IR","searchable":true,"index_strings":["ir","иран","iran"]},{"name":"Манчестер","country_name":"Великобритания","country_code":"GB","code":"MAN","index_strings":["манчестер","man","великобритания","gb","manchester","united kingdom","manchester airport"],"timezone":"Europe\/London","weight":95347,"coordinates":{"lat":53.4807125,"lon":-2.2343765},"type":"city","searchable":true},{"name":"Казань","country_name":"Россия","city_code":"KZN","city_name":"Казань","code":"KZN","country_code":"RU","index_strings":["kzn","казань","россия","ru","kazan international airport","kazan","russia"],"timezone":"Europe\/Moscow","weight":94884,"coordinates":{"lat":55.60844,"lon":49.29824},"type":"airport","searchable":false},{"name":"Одесса","country_name":"Украина","city_code":"ODS","city_name":"Одесса","code":"ODS","country_code":"UA","index_strings":["ods","одесса","украина","ua","odessa international airport","odessa","ukraine"],"timezone":"Europe\/Kiev","weight":94396,"coordinates":{"lat":46.44101,"lon":30.676718},"type":"airport","searchable":false},{"name":"Большое Савино","country_name":"Россия","city_code":"PEE","city_name":"Пермь","code":"PEE","country_code":"RU","index_strings":["pee","большое савино","пермь","россия","ru","perm international airport","perm","russia"],"timezone":"Asia\/Yekaterinburg","weight":94109,"coordinates":{"lat":57.920025,"lon":56.01918},"type":"airport","searchable":false},{"name":"Закинтос","country_name":"Греция","country_code":"GR","code":"ZTH","index_strings":["закинтос","zth","греция","gr","zakinthos","greece","zakinthos airport"],"timezone":"Europe\/Athens","weight":93444,"coordinates":{"lat":37.755833,"lon":20.888332},"type":"city","searchable":true},{"name":"Сиемреап","country_name":"Камбоджа","country_code":"KH","code":"REP","index_strings":["сиемреап","rep","камбоджа","kh","siem reap","cambodia","siem reap international airport"],"timezone":"Asia\/Phnom_Penh","weight":92993,"coordinates":{"lat":13.408436,"lon":103.815926},"type":"city","searchable":true},{"name":"Орландо","country_name":"США","country_code":"US","code":"ORL","index_strings":["orl","орландо","сша","us","orlando","united states"],"timezone":"America\/New_York","weight":91747,"coordinates":{"lat":28.533611,"lon":-81.386667},"type":"city","searchable":true},{"name":"Ярославль","country_name":"Россия","country_code":"RU","code":"IAR","index_strings":["ярославль","iar","россия","ru","yaroslavl","russia","tunoshna airport"],"timezone":"Europe\/Moscow","weight":91729,"coordinates":{"lat":57.61667,"lon":39.88333},"type":"city","searchable":true},