[{"weight":21767222,"index_strings":["симферополь","sip","симферополь (крым)","крым","kx","simferopol","crimea","simferopol international airport"],"code":"SIP","country_name":"Крым","timezone":"Europe\/Simferopol","searchable":true,"country_code":"KX","coordinates":{"lat":45.020657,"lon":33.99819},"type":"city","name":"Симферополь (Крым)"},{"weight":15580561,"index_strings":["sankt petersburg","st petersburg","leningrad","ленинград","питер","спб","пулково","led","санкт-петербург","россия","ru","saint petersburg","russia","pulkovo airport"],"code":"LED","country_name":"Россия","timezone":"Europe\/Moscow","searchable":true,"country_code":"RU","coordinates":{"lat":59.939039,"lon":30.315785},"type":"city","name":"Санкт-Петербург"},{"weight":11856611,"index_strings":["sochi","сочи","адлер","aer","сочи (адлер)","россия","ru","adler\/sochi","russia","sochi international airport"],"code":"AER","country_name":"Россия","timezone":"Europe\/Moscow","searchable":true,"country_code":"RU","coordinates":{"lat":43.44884,"lon":39.941105},"type":"city","name":"Сочи (Адлер)"},{"weight":7305318,"index_strings":["нерезиновая","понаехавск","нерезиновск","defaultcity","mow","москва","россия","ru","moscow","russia"],"code":"MOW","country_name":"Россия","timezone":"Europe\/Moscow","searchable":true,"country_code":"RU","coordinates":{"lat":55.755786,"lon":37.617633},"type":"city","name":"Москва"},{"weight":5883632,"index_strings":["пашковский","krr","краснодар","россия","ru","krasnodar","russia","krasnodar international airport"],"code":"KRR","country_name":"Россия","timezone":"Europe\/Moscow","searchable":true,"country_code":"RU","coordinates":{"lat":45.034138,"lon":39.139004},"type":"city","name":"Краснодар"},{"weight":4310494,"index_strings":["толмачёво","ovb","новосибирск","россия","ru","novosibirsk","russia","novosibirsk tolmachevo airport"],"code":"OVB","country_name":"Россия","timezone":"Asia\/Phnom_Penh","searchable":true,"country_code":"RU","coordinates":{"lat":55.00901,"lon":82.667},"type":"city","name":"Новосибирск"},{"weight":4301070,"index_strings":["пхукет","hkt","таиланд","th","phuket","thailand","phuket international airport"],"code":"HKT","country_name":"Таиланд","timezone":"Asia\/Bangkok","searchable":true,"country_code":"TH","coordinates":{"lat":8.107619,"lon":98.30643499999999},"type":"city","name":"Пхукет"},{"weight":4116682,"index_strings":["минеральные воды","mrv","россия","ru","mineralnye vody","russia","mineralnye vody airport"],"code":"MRV","country_name":"Россия","timezone":"Europe\/Moscow","searchable":true,"country_code":"RU","coordinates":{"lat":44.218105,"lon":43.085815},"type":"city","name":"Минеральные Воды"},{"weight":3836769,"index_strings":["звартноц","evn","ереван","армения","am","yerevan","armenia","zvartnots international airport"],"code":"EVN","country_name":"Армения","timezone":"Asia\/Yerevan","searchable":true,"country_code":"AM","coordinates":{"lat":40.15272,"lon":44.39805},"type":"city","name":"Ереван"},{"weight":3677277,"index_strings":["анапа","aaq","россия","ru","anapa","russia","anapa airport"],"code":"AAQ","country_name":"Россия","timezone":"Europe\/Moscow","searchable":true,"country_code":"RU","coordinates":{"lat":44.9,"lon":37.316666},"type":"city","name":"Анапа"},{"weight":3532722,"index_strings":["ташкент","tas","узбекистан","uz","tashkent","uzbekistan","yuzhny airport"],"code":"TAS","country_name":"Узбекистан","timezone":"Asia\/Tashkent","searchable":true,"country_code":"UZ","coordinates":{"lat":41.262714,"lon":69.26618999999999},"type":"city","name":"Ташкент"},{"weight":3473359,"index_strings":["кольцово","svx","екатеринбург","россия","ru","yekaterinburg","russia","koltsovo international airport"],"code":"SVX","country_name":"Россия","timezone":"Asia\/Yekaterinburg","searchable":true,"country_code":"RU","coordinates":{"lat":56.750336,"lon":60.804314},"type":"city","name":"Екатеринбург"},{"weight":3362622,"index_strings":["анталья","ayt","турция","tr","antalya","turkey","antalya airport"],"code":"AYT","country_name":"Турция","timezone":"Europe\/Istanbul","searchable":true,"country_code":"TR","coordinates":{"lat":36.89928,"lon":30.80135},"type":"city","name":"Анталья"},{"weight":2615639,"index_strings":["ростов-на-дону","rov","россия","ru","rostov","russia","rostov airport"],"code":"ROV","country_name":"Россия","timezone":"Europe\/Moscow","searchable":true,"country_code":"RU","coordinates":{"lat":47.25,"lon":39.75},"type":"city","name":"Ростов-на-Дону"},{"weight":2540112,"index_strings":["уфа","ufa","россия","ru","russia","ufa international airport"],"code":"UFA","country_name":"Россия","timezone":"Asia\/Yekaterinburg","searchable":true,"country_code":"RU","coordinates":{"lat":54.565403,"lon":55.884544},"type":"city","name":"Уфа"},{"weight":2519948,"index_strings":["храброво","kgd","калининград","россия","ru","kaliningrad","russia","khrabrovo airport"],"code":"KGD","country_name":"Россия","timezone":"Europe\/Kaliningrad","searchable":true,"country_code":"RU","coordinates":{"lat":54.882656,"lon":20.586645},"type":"city","name":"Калининград"},{"weight":2511405,"index_strings":["кневичи","vvo","владивосток","россия","ru","vladivostok","russia","vladivostok international airport"],"code":"VVO","country_name":"Россия","timezone":"Asia\/Vladivostok","searchable":true,"country_code":"RU","coordinates":{"lat":43.378574,"lon":132.14075},"type":"city","name":"Владивосток"},{"weight":2398118,"index_strings":["тиват","tiv","черногория","me","tivat","montenegro","tivat airport"],"code":"TIV","country_name":"Черногория","timezone":"Europe\/Podgorica","searchable":true,"country_code":"ME","coordinates":{"lat":42.40361,"lon":18.725555},"type":"city","name":"Тиват"},{"weight":2299627,"index_strings":["манас","fru","бишкек","киргизия","kg","bishkek","kyrgyzstan","manas international airport"],"code":"FRU","country_name":"Киргизия","timezone":"Asia\/Bishkek","searchable":true,"country_code":"KG","coordinates":{"lat":43.05358,"lon":74.46944999999999},"type":"city","name":"Бишкек"},{"weight":2275610,"index_strings":["кишинёв","kiv","кишинев","молдавия","md","chisinau","moldova","chisinau international airport"],"code":"KIV","country_name":"Молдавия","timezone":"Europe\/Chisinau","searchable":true,"country_code":"MD","coordinates":{"lat":46.935444,"lon":28.934967},"type":"city","name":"Кишинев"},{"weight":2066765,"index_strings":["емельяново","kja","красноярск","россия","ru","krasnojarsk","russia","yemelyanovo airport"],"code":"KJA","country_name":"Россия","timezone":"Asia\/Krasnoyarsk","searchable":true,"country_code":"RU","coordinates":{"lat":56.18113,"lon":92.48286},"type":"city","name":"Красноярск"},{"weight":1999474,"index_strings":["шота руставели","tbs","тбилиси","грузия","ge","tbilisi","georgia","tbilisi international airport"],"code":"TBS","country_name":"Грузия","timezone":"Asia\/Tbilisi","searchable":true,"country_code":"GE","coordinates":{"lat":41.674065,"lon":44.958958},"type":"city","name":"Тбилиси"},{"weight":1961561,"index_strings":["курумоч","kuf","самара","россия","ru","samara","russia","kurumoch international airport"],"code":"KUF","country_name":"Россия","timezone":"Europe\/Samara","searchable":true,"country_code":"RU","coordinates":{"lat":53.50782,"lon":50.14742},"type":"city","name":"Самара"},{"weight":1951342,"index_strings":["иркутск","ikt","россия","ru","irkutsk","russia","irkutsk international airport"],"code":"IKT","country_name":"Россия","timezone":"Asia\/Irkutsk","searchable":true,"country_code":"RU","coordinates":{"lat":52.273308,"lon":104.35607},"type":"city","name":"Иркутск"},{"weight":1844624,"index_strings":["казань","kzn","россия","ru","kazan","russia","kazan international airport"],"code":"KZN","country_name":"Россия","timezone":"Europe\/Moscow","searchable":true,"country_code":"RU","coordinates":{"lat":55.60844,"lon":49.29824},"type":"city","name":"Казань"},{"weight":1834237,"index_strings":["бали","bali","нгура-раи","dps","денпасар бали","индонезия","id","denpasar","indonesia","ngurah rai international airport"],"code":"DPS","country_name":"Индонезия","timezone":"Asia\/Makassar","searchable":true,"country_code":"ID","coordinates":{"lat":-8.74446,"lon":115.16331},"type":"city","name":"Денпасар Бали"},{"weight":1749425,"index_strings":["бургас","boj","болгария","bg","bourgas","bulgaria","bourgas airport"],"code":"BOJ","country_name":"Болгария","timezone":"Europe\/Sofia","searchable":true,"country_code":"BG","coordinates":{"lat":42.416668,"lon":27.283333},"type":"city","name":"Бургас"},{"weight":1745030,"index_strings":["хабаровск","khv","россия","ru","khabarovsk","russia","khabarovsk airport"],"code":"KHV","country_name":"Россия","timezone":"Asia\/Vladivostok","searchable":true,"country_code":"RU","coordinates":{"lat":48.524563,"lon":135.16861},"type":"city","name":"Хабаровск"},{"weight":1722730,"index_strings":["ларнака","lca","кипр","cy","larnaca","cyprus","larnaca international airport"],"code":"LCA","country_name":"Кипр","timezone":"Asia\/Nicosia","searchable":true,"country_code":"CY","coordinates":{"lat":34.880867,"lon":33.62599},"type":"city","name":"Ларнака"},{"weight":1693284,"index_strings":["уйташ","mcx","махачкала","россия","ru","makhachkala","russia","makhachkala airport"],"code":"MCX","country_name":"Россия","timezone":"Europe\/Moscow","searchable":true,"country_code":"RU","coordinates":{"lat":42.82095,"lon":47.65611},"type":"city","name":"Махачкала"},{"weight":1647944,"index_strings":["душанбе","dyu","таджикистан","tj","dushanbe","tajikistan","dushanbe airport"],"code":"DYU","country_name":"Таджикистан","timezone":"Asia\/Dushanbe","searchable":true,"country_code":"TJ","coordinates":{"lat":38.54894,"lon":68.81728},"type":"city","name":"Душанбе"},{"weight":1642931,"index_strings":["ош","oss","киргизия","kg","osh","kyrgyzstan","osh airport"],"code":"OSS","country_name":"Киргизия","timezone":"Asia\/Bishkek","searchable":true,"country_code":"KG","coordinates":{"lat":40.60769,"lon":72.78648},"type":"city","name":"Ош"},{"weight":1634604,"index_strings":["омск","oms","россия","ru","omsk","russia","omsk airport"],"code":"OMS","country_name":"Россия","timezone":"Asia\/Omsk","searchable":true,"country_code":"RU","coordinates":{"lat":54.957455,"lon":73.3167},"type":"city","name":"Омск"},{"weight":1592039,"index_strings":["алматы","ala","казахстан","kz","almaty","kazakhstan","almaty airport"],"code":"ALA","country_name":"Казахстан","timezone":"Asia\/Almaty","searchable":true,"country_code":"KZ","coordinates":{"lat":43.255058,"lon":76.912628},"type":"city","name":"Алматы"},{"weight":1564342,"index_strings":["даболим","goi","гоа","индия","in","goa","india","dabolim airport"],"code":"GOI","country_name":"Индия","timezone":"Asia\/Kolkata","searchable":true,"country_code":"IN","coordinates":{"lat":15.384534,"lon":73.83983000000001},"type":"city","name":"Гоа"},{"weight":1489455,"index_strings":["баландино","cek","челябинск","россия","ru","chelyabinsk","russia","chelyabinsk international airport"],"code":"CEK","country_name":"Россия","timezone":"Asia\/Yekaterinburg","searchable":true,"country_code":"RU","coordinates":{"lat":55.297504,"lon":61.51235},"type":"city","name":"Челябинск"},{"weight":1455428,"index_strings":["хошимин","sgn","вьетнам","vn","ho chi minh city","vietnam","tan son nhat international airport"],"code":"SGN","country_name":"Вьетнам","timezone":"Asia\/Ho_Chi_Minh","searchable":true,"country_code":"VN","coordinates":{"lat":10.813045,"lon":106.662476},"type":"city","name":"Хошимин"},{"weight":1320346,"index_strings":["худжанд","lbd","таджикистан","tj","khujand","tajikistan","khujand airport"],"code":"LBD","country_name":"Таджикистан","timezone":"Asia\/Dushanbe","searchable":true,"country_code":"TJ","coordinates":{"lat":40.219887,"lon":69.6965},"type":"city","name":"Худжанд"},{"weight":1243074,"index_strings":["геленджик","gdz","россия","ru","gelendzik","russia","gelendzik airport"],"code":"GDZ","country_name":"Россия","timezone":"Europe\/Moscow","searchable":true,"country_code":"RU","coordinates":{"lat":44.566666,"lon":38.016666},"type":"city","name":"Геленджик"},{"weight":1170479,"index_strings":["ференц лист","bud","будапешт","венгрия","hu","budapest","hungary","budapest ferenc liszt international airport"],"code":"BUD","country_name":"Венгрия","timezone":"Europe\/Budapest","searchable":true,"country_code":"HU","coordinates":{"lat":47.4984056,"lon":19.0407578},"type":"city","name":"Будапешт"},{"weight":1158918,"index_strings":["рощино","tjm","тюмень","россия","ru","tyumen","russia","roshchino international airport"],"code":"TJM","country_name":"Россия","timezone":"Asia\/Yekaterinburg","searchable":true,"country_code":"RU","coordinates":{"lat":57.181828,"lon":65.35024},"type":"city","name":"Тюмень"},{"weight":1145947,"index_strings":["лиссабон","lis","португалия","pt","lisbon","portugal","lisbon portela airport"],"code":"LIS","country_name":"Португалия","timezone":"Europe\/Lisbon","searchable":true,"country_code":"PT","coordinates":{"lat":38.706932,"lon":-9.1356321},"type":"city","name":"Лиссабон"},{"weight":1132747,"index_strings":["сургут","sgc","россия","ru","surgut","russia","surgut airport"],"code":"SGC","country_name":"Россия","timezone":"Asia\/Yekaterinburg","searchable":true,"country_code":"RU","coordinates":{"lat":61.339916,"lon":73.40953},"type":"city","name":"Сургут"},{"weight":1104184,"index_strings":["большое савино","pee","пермь","россия","ru","perm","russia","perm international airport"],"code":"PEE","country_name":"Россия","timezone":"Asia\/Yekaterinburg","searchable":true,"country_code":"RU","coordinates":{"lat":57.920025,"lon":56.01918},"type":"city","name":"Пермь"},{"weight":1095631,"index_strings":["хургада","hrg","египет","eg","hurghada","egypt","hurghada international airport"],"code":"HRG","country_name":"Египет","timezone":"Africa\/Cairo","searchable":true,"country_code":"EG","coordinates":{"lat":27.189156,"lon":33.8055},"type":"city","name":"Хургада"},{"weight":1076316,"index_strings":["офира","ssh","шарм-эль-шейх","египет","eg","sharm el sheikh","egypt","sharm el sheikh airport"],"code":"SSH","country_name":"Египет","timezone":"Africa\/Cairo","searchable":true,"country_code":"EG","coordinates":{"lat":27.979357,"lon":34.385254},"type":"city","name":"Шарм-эль-Шейх"},{"weight":1051741,"index_strings":["одесса","ods","украина","ua","odessa","ukraine","odessa international airport"],"code":"ODS","country_name":"Украина","timezone":"Europe\/Kiev","searchable":true,"country_code":"UA","coordinates":{"lat":46.44101,"lon":30.676718},"type":"city","name":"Одесса"},{"weight":1024100,"index_strings":["самуи","usm","таиланд","th","koh samui","thailand","koh samui airport"],"code":"USM","country_name":"Таиланд","timezone":"Asia\/Bangkok","searchable":true,"country_code":"TH","coordinates":{"lat":9.555315,"lon":100.0628},"type":"city","name":"Самуи"},{"weight":1010793,"index_strings":["гумрак","vog","волгоград","россия","ru","volgograd","russia","volgograd international airport"],"code":"VOG","country_name":"Россия","timezone":"Europe\/Volgograd","searchable":true,"country_code":"RU","coordinates":{"lat":48.792,"lon":44.354805},"type":"city","name":"Волгоград"},{"weight":999221,"index_strings":["елизово","pkc","петропавловск-камчатский","россия","ru","petropavlovsk-kamchatsky","russia","petropavlovsk-kamchatsky airport"],"code":"PKC","country_name":"Россия","timezone":"Asia\/Kamchatka","searchable":true,"country_code":"RU","coordinates":{"lat":53.016666,"lon":158.65},"type":"city","name":"Петропавловск-Камчатский"},{"weight":978326,"index_strings":["астана","tse","казахстан","kz","astana","kazakhstan","astana international airport"],"code":"TSE","country_name":"Казахстан","timezone":"Asia\/Almaty","searchable":true,"country_code":"KZ","coordinates":{"lat":51.02781,"lon":71.46120000000001},"type":"city","name":"Астана"},{"weight":965159,"index_strings":["новый уренгой","nux","россия","ru","novyj urengoj","russia","novy urengoy airport"],"code":"NUX","country_name":"Россия","timezone":"Asia\/Yekaterinburg","searchable":true,"country_code":"RU","coordinates":{"lat":66.07335,"lon":76.522835},"type":"city","name":"Новый Уренгой"},{"weight":942069,"index_strings":["чанги","sin","сингапур","sg","singapore","changi international airport"],"code":"SIN","country_name":"Сингапур","timezone":"Asia\/Singapore","searchable":true,"country_code":"SG","coordinates":{"lat":1.2894365,"lon":103.8499802},"type":"city","name":"Сингапур"},{"weight":896129,"index_strings":["рига","rix","латвия","lv","riga","latvia","riga international airport"],"code":"RIX","country_name":"Латвия","timezone":"Europe\/Riga","searchable":true,"country_code":"LV","coordinates":{"lat":56.92208,"lon":23.979807},"type":"city","name":"Рига"},{"weight":883398,"index_strings":["римини","rmi","италия","it","rimini","italy","miramare airport"],"code":"RMI","country_name":"Италия","timezone":"Europe\/Rome","searchable":true,"country_code":"IT","coordinates":{"lat":44.022953,"lon":12.619594},"type":"city","name":"Римини"},{"weight":869437,"index_strings":["южно-сахалинск","uus","россия","ru","yuzhno-sakhalinsk","russia","yuzhno-sakhalinsk airport"],"code":"UUS","country_name":"Россия","timezone":"Asia\/Srednekolymsk","searchable":true,"country_code":"RU","coordinates":{"lat":46.966667,"lon":142.75},"type":"city","name":"Южно-Сахалинск"},{"weight":841412,"index_strings":["кот д'азур","nce","ницца","франция","fr","nice","france","cote d'azur airport"],"code":"NCE","country_name":"Франция","timezone":"Europe\/Paris","searchable":true,"country_code":"FR","coordinates":{"lat":43.66049,"lon":7.205232},"type":"city","name":"Ницца"},{"weight":798918,"index_strings":["самарканд","skd","узбекистан","uz","samarkand","uzbekistan","samarkand airport"],"code":"SKD","country_name":"Узбекистан","timezone":"Asia\/Samarkand","searchable":true,"country_code":"UZ","coordinates":{"lat":39.696217,"lon":66.99084999999999},"type":"city","name":"Самарканд"},{"weight":797575,"index_strings":["барнаул","bax","россия","ru","barnaul","russia","barnaul airport"],"code":"BAX","country_name":"Россия","timezone":"Asia\/Novokuznetsk","searchable":true,"country_code":"RU","coordinates":{"lat":53.361088,"lon":83.547646},"type":"city","name":"Барнаул"},{"weight":793504,"index_strings":["мале","mle","мальдивы","mv","male","maldives","male international airport"],"code":"MLE","country_name":"Мальдивы","timezone":"Indian\/Maldives","searchable":true,"country_code":"MV","coordinates":{"lat":4.201389,"lon":73.524445},"type":"city","name":"Мале"},{"weight":769402,"index_strings":["беслан","ogz","владикавказ","россия","ru","vladikavkaz","russia","vladikavkaz airport"],"code":"OGZ","country_name":"Россия","timezone":"Europe\/Moscow","searchable":true,"country_code":"RU","coordinates":{"lat":43.2,"lon":44.6},"type":"city","name":"Владикавказ"},{"weight":767016,"index_strings":["индира ганди","del","дели","индия","in","delhi","india","indira gandhi international airport"],"code":"DEL","country_name":"Индия","timezone":"Asia\/Kolkata","searchable":true,"country_code":"IN","coordinates":{"lat":28.556555,"lon":77.10079},"type":"city","name":"Дели"},{"weight":764497,"index_strings":["мурманск","mmk","россия","ru","murmansk","russia","murmansk airport"],"code":"MMK","country_name":"Россия","timezone":"Europe\/Moscow","searchable":true,"country_code":"RU","coordinates":{"lat":68.785095,"lon":32.759155},"type":"city","name":"Мурманск"},{"weight":753987,"index_strings":["стригино","goj","нижний новгород","россия","ru","nizhniy novgorod","russia","nizhny novgorod international airport"],"code":"GOJ","country_name":"Россия","timezone":"Europe\/Moscow","searchable":true,"country_code":"RU","coordinates":{"lat":56.218613,"lon":43.789764},"type":"city","name":"Нижний Новгород"},{"weight":750632,"index_strings":["подгорица","tgd","черногория","me","podgorica","montenegro","podgorica airport"],"code":"TGD","country_name":"Черногория","timezone":"Europe\/Podgorica","searchable":true,"country_code":"ME","coordinates":{"lat":42.368023,"lon":19.246023},"type":"city","name":"Подгорица"},{"weight":744539,"index_strings":["варна","var","болгария","bg","varna","bulgaria","varna airport"],"code":"VAR","country_name":"Болгария","timezone":"Europe\/Sofia","searchable":true,"country_code":"BG","coordinates":{"lat":43.23726,"lon":27.829096},"type":"city","name":"Варна"},{"weight":721693,"index_strings":["хосе марти","hav","гавана","куба","cu","havana","cuba","jose marti international airport"],"code":"HAV","country_name":"Куба","timezone":"America\/Havana","searchable":true,"country_code":"CU","coordinates":{"lat":22.99845,"lon":-82.40818},"type":"city","name":"Гавана"},{"weight":691579,"index_strings":["ставрополь","stw","россия","ru","stavropol","russia","stavropol airport"],"code":"STW","country_name":"Россия","timezone":"Europe\/Moscow","searchable":true,"country_code":"RU","coordinates":{"lat":45.333332,"lon":42.00833},"type":"city","name":"Ставрополь"},{"weight":682575,"index_strings":["якутск","yks","россия","ru","yakutsk","russia","yakutsk airport"],"code":"YKS","country_name":"Россия","timezone":"Asia\/Yakutsk","searchable":true,"country_code":"RU","coordinates":{"lat":62.085606,"lon":129.75006},"type":"city","name":"Якутск"},{"weight":676897,"index_strings":["нижневартовск","njc","россия","ru","nizhnevartovsk","russia","nizhnevartovsk airport"],"code":"NJC","country_name":"Россия","timezone":"Asia\/Yekaterinburg","searchable":true,"country_code":"RU","coordinates":{"lat":60.9476,"lon":76.49145},"type":"city","name":"Нижневартовск"},{"weight":672119,"index_strings":["салоники","skg","греция","gr","thessaloniki","greece","thessaloniki international airport"],"code":"SKG","country_name":"Греция","timezone":"Europe\/Athens","searchable":true,"country_code":"GR","coordinates":{"lat":40.520832,"lon":22.972221},"type":"city","name":"Салоники"},{"weight":668998,"index_strings":["норильск","nsk","россия","ru","noril'sk","russia","noril'sk airport"],"code":"NSK","country_name":"Россия","timezone":"Asia\/Krasnoyarsk","searchable":true,"country_code":"RU","coordinates":{"lat":69.32312,"lon":87.339806},"type":"city","name":"Норильск"},{"weight":666752,"index_strings":["ниной акино","mnl","манила","филиппины","ph","manila","philippines","ninoy aquino international airport"],"code":"MNL","country_name":"Филиппины","timezone":"Asia\/Manila","searchable":true,"country_code":"PH","coordinates":{"lat":14.5995124,"lon":120.9842195},"type":"city","name":"Манила"},{"weight":651890,"index_strings":["астрахань","asf","россия","ru","astrakhan","russia","astrakhan airport"],"code":"ASF","country_name":"Россия","timezone":"Europe\/Samara","searchable":true,"country_code":"RU","coordinates":{"lat":46.2877,"lon":47.999977},"type":"city","name":"Астрахань"},{"weight":651507,"index_strings":["н.казантзакис","her","ираклион (крит)","греция","gr","heraklion","greece","heraklion airport"],"code":"HER","country_name":"Греция","timezone":"Europe\/Athens","searchable":true,"country_code":"GR","coordinates":{"lat":35.33663,"lon":25.174192},"type":"city","name":"Ираклион (Крит)"},{"weight":643595,"index_strings":["богашёво","tof","томск","россия","ru","tomsk","russia","tomsk airport"],"code":"TOF","country_name":"Россия","timezone":"Asia\/Novokuznetsk","searchable":true,"country_code":"RU","coordinates":{"lat":56.5,"lon":84.96666999999999},"type":"city","name":"Томск"},{"weight":633969,"index_strings":["пунта-кана","puj","доминиканская республика","do","punta cana","dominican republic","punta cana international airport"],"code":"PUJ","country_name":"Доминиканская Республика","timezone":"America\/Santo_Domingo","searchable":true,"country_code":"DO","coordinates":{"lat":18.562477,"lon":-68.364},"type":"city","name":"Пунта-Кана"},{"weight":623807,"index_strings":["белград","beg","сербия","rs","belgrade","serbia","belgrad nikola tesla airport"],"code":"BEG","country_name":"Сербия","timezone":"Europe\/Belgrade","searchable":true,"country_code":"RS","coordinates":{"lat":44.802416,"lon":20.465601},"type":"city","name":"Белград"},{"weight":621641,"index_strings":["helsinki","хельсинки","вантаа","hel","финляндия","fi","finland","helsinki-vantaa airport"],"code":"HEL","country_name":"Финляндия","timezone":"Europe\/Helsinki","searchable":true,"country_code":"FI","coordinates":{"lat":60.2943605,"lon":25.0402427},"type":"city","name":"Хельсинки"},{"weight":615572,"index_strings":["оренбург","ren","россия","ru","orenburg","russia","orenburg airport"],"code":"REN","country_name":"Россия","timezone":"Asia\/Yekaterinburg","searchable":true,"country_code":"RU","coordinates":{"lat":51.79105,"lon":55.4567},"type":"city","name":"Оренбург"},{"weight":615244,"index_strings":["батуми","bus","грузия","ge","batumi","georgia","batumi airport"],"code":"BUS","country_name":"Грузия","timezone":"Asia\/Tbilisi","searchable":true,"country_code":"GE","coordinates":{"lat":41.610832,"lon":41.600555},"type":"city","name":"Батуми"},{"weight":612056,"index_strings":["саратов","rtw","россия","ru","saratov","russia","saratov airport"],"code":"RTW","country_name":"Россия","timezone":"Europe\/Samara","searchable":true,"country_code":"RU","coordinates":{"lat":51.566666,"lon":46.066666},"type":"city","name":"Саратов"},{"weight":598961,"index_strings":["байкал","uud","улан-удэ","россия","ru","ulan-ude","russia","ulan-ude airport"],"code":"UUD","country_name":"Россия","timezone":"Asia\/Irkutsk","searchable":true,"country_code":"RU","coordinates":{"lat":51.833332,"lon":107.5},"type":"city","name":"Улан-Удэ"},{"weight":594841,"index_strings":["пальма-де-мальйорка","pmi","испания","es","palma mallorca","spain","palma de mallorca airport"],"code":"PMI","country_name":"Испания","timezone":"Europe\/Madrid","searchable":true,"country_code":"ES","coordinates":{"lat":39.547653,"lon":2.730388},"type":"city","name":"Пальма-де-Мальйорка"},{"weight":591226,"index_strings":["байюн","can","гуанчжоу","китай","cn","guangzhou","china","guangzhou baiyun international airport"],"code":"CAN","country_name":"Китай","timezone":"Asia\/Shanghai","searchable":true,"country_code":"CN","coordinates":{"lat":23.387861,"lon":113.29734},"type":"city","name":"Гуанчжоу"},{"weight":556747,"index_strings":["вильнюс","vno","литва","lt","vilnius","lithuania","vilnius international airport"],"code":"VNO","country_name":"Литва","timezone":"Europe\/Vilnius","searchable":true,"country_code":"LT","coordinates":{"lat":54.643078,"lon":25.279606},"type":"city","name":"Вильнюс"},{"weight":553929,"index_strings":["благовещенск","bqs","россия","ru","blagoveschensk","russia","blagoveschensk airport"],"code":"BQS","country_name":"Россия","timezone":"Asia\/Yakutsk","searchable":true,"country_code":"RU","coordinates":{"lat":50.416668,"lon":127.4},"type":"city","name":"Благовещенск"},{"weight":542443,"index_strings":["белгород","ego","россия","ru","belgorod","russia","belgorod airport"],"code":"EGO","country_name":"Россия","timezone":"Europe\/Moscow","searchable":true,"country_code":"RU","coordinates":{"lat":50.63333,"lon":36.65},"type":"city","name":"Белгород"},{"weight":536777,"index_strings":["грозный","grv","россия","ru","groznyy","russia","groznyy airport"],"code":"GRV","country_name":"Россия","timezone":"Europe\/Moscow","searchable":true,"country_code":"RU","coordinates":{"lat":43.333332,"lon":45.75},"type":"city","name":"Грозный"},{"weight":523397,"index_strings":["софия","sof","болгария","bg","sofia","bulgaria","sofia airport"],"code":"SOF","country_name":"Болгария","timezone":"Europe\/Sofia","searchable":true,"country_code":"BG","coordinates":{"lat":42.688343,"lon":23.41443},"type":"city","name":"София"},{"weight":517573,"index_strings":["утапао","utp","паттайя","таиланд","th","utapao","thailand","utapao airport"],"code":"UTP","country_name":"Таиланд","timezone":"Asia\/Bangkok","searchable":true,"country_code":"TH","coordinates":{"lat":12.683333,"lon":101.01667},"type":"city","name":"Паттайя"},{"weight":509850,"index_strings":["чертовицкое","voz","воронеж","россия","ru","voronezh","russia","voronezh airport"],"code":"VOZ","country_name":"Россия","timezone":"Europe\/Moscow","searchable":true,"country_code":"RU","coordinates":{"lat":51.812355,"lon":39.226997},"type":"city","name":"Воронеж"},{"weight":503178,"index_strings":["женева","gva","швейцария","ch","geneva","switzerland","geneve airport"],"code":"GVA","country_name":"Швейцария","timezone":"Europe\/Zurich","searchable":true,"country_code":"CH","coordinates":{"lat":46.1983922,"lon":6.1422961},"type":"city","name":"Женева"},{"weight":497004,"index_strings":["фергана","feg","узбекистан","uz","fergana","uzbekistan","fergana airport"],"code":"FEG","country_name":"Узбекистан","timezone":"Asia\/Tashkent","searchable":true,"country_code":"UZ","coordinates":{"lat":40.350277,"lon":71.73361},"type":"city","name":"Фергана"},{"weight":496340,"index_strings":["пафос","pfo","кипр","cy","paphos","cyprus","paphos international airport"],"code":"PFO","country_name":"Кипр","timezone":"Asia\/Nicosia","searchable":true,"country_code":"CY","coordinates":{"lat":34.71155,"lon":32.489105},"type":"city","name":"Пафос"},{"weight":493678,"index_strings":["канкун","cun","мексика","mx","cancun","mexico","cancun international airport"],"code":"CUN","country_name":"Мексика","timezone":"America\/Cancun","searchable":true,"country_code":"MX","coordinates":{"lat":21.040457,"lon":-86.87443500000001},"type":"city","name":"Канкун"},{"weight":480914,"index_strings":["нойбей","han","ханой","вьетнам","vn","hanoi","vietnam","noi bai international airport"],"code":"HAN","country_name":"Вьетнам","timezone":"Asia\/Ho_Chi_Minh","searchable":true,"country_code":"VN","coordinates":{"lat":21.214184,"lon":105.802826},"type":"city","name":"Ханой"},{"weight":477142,"index_strings":["талаги","arh","архангельск","россия","ru","arkhangelsk","russia","talagi airport"],"code":"ARH","country_name":"Россия","timezone":"Europe\/Moscow","searchable":true,"country_code":"RU","coordinates":{"lat":64.594795,"lon":40.711903},"type":"city","name":"Архангельск"},{"country_name":"Таиланд","weight":463244,"type":"airport","code":"BKK","searchable":true,"index_strings":["bkk","суварнабхуми","бангкок","таиланд","th","suvarnabhumi airport","bangkok","thailand"],"coordinates":{"lat":13.693062,"lon":100.752045},"city_code":"BKK","city_name":"Бангкок","timezone":"Asia\/Bangkok","country_code":"TH","name":"Суварнабхуми"},{"weight":463244,"index_strings":["bkk","бангкок","таиланд","th","bangkok","thailand"],"code":"BKK","country_name":"Таиланд","timezone":"Asia\/Bangkok","searchable":true,"country_code":"TH","coordinates":{"lat":13.7234186,"lon":100.4762319},"type":"city","name":"Бангкок"},{"weight":440081,"index_strings":["кадала","hta","чита","россия","ru","chita","russia","chita airport"],"code":"HTA","country_name":"Россия","timezone":"Asia\/Chita","searchable":true,"country_code":"RU","coordinates":{"lat":52.033333,"lon":113.3},"type":"city","name":"Чита"},{"weight":436835,"index_strings":["родос","rho","греция","gr","rhodes","greece","rhodes airport"],"code":"RHO","country_name":"Греция","timezone":"Europe\/Athens","searchable":true,"country_code":"GR","coordinates":{"lat":36.401867,"lon":28.090677},"type":"city","name":"Родос"},{"weight":431622,"index_strings":["кемерово","kej","россия","ru","kemerovo","russia","kemerovo airport"],"code":"KEJ","country_name":"Россия","timezone":"Asia\/Novokuznetsk","searchable":true,"country_code":"RU","coordinates":{"lat":55.280567,"lon":86.11623},"type":"city","name":"Кемерово"},{"weight":425992,"index_strings":["юлемисте","tll","таллин","эстония","ee","tallinn","estonia","tallinn airport"],"code":"TLL","country_name":"Эстония","timezone":"Europe\/Tallinn","searchable":true,"country_code":"EE","coordinates":{"lat":59.4388619,"lon":24.7544715},"type":"city","name":"Таллин"},{"weight":424205,"index_strings":["спиченково","noz","новокузнецк","россия","ru","novokuznetsk","russia","novokuznetsk airport"],"code":"NOZ","country_name":"Россия","timezone":"Asia\/Novokuznetsk","searchable":true,"country_code":"RU","coordinates":{"lat":53.75,"lon":87.166664},"type":"city","name":"Новокузнецк"},{"weight":424162,"index_strings":["днепропетровск","dnk","днепр","украина","ua","dnepropetrovsk","ukraine","dnepropetrovsk international airport"],"code":"DNK","country_name":"Украина","timezone":"Europe\/Kiev","searchable":true,"country_code":"UA","coordinates":{"lat":48.36874,"lon":35.09446},"type":"city","name":"Днепр"},{"weight":423497,"index_strings":["нальчик","nal","россия","ru","nalchik","russia","nalchik airport"],"code":"NAL","country_name":"Россия","timezone":"Europe\/Moscow","searchable":true,"country_code":"RU","coordinates":{"lat":43.533333,"lon":43.7},"type":"city","name":"Нальчик"},{"weight":413784,"index_strings":["эль-прат","bcn","барселона","испания","es","barcelona","spain","barcelona-el prat airport"],"code":"BCN","country_name":"Испания","timezone":"Europe\/Madrid","searchable":true,"country_code":"ES","coordinates":{"lat":41.387917,"lon":2.1699187},"type":"city","name":"Барселона"},{"weight":413338,"index_strings":["гянджа","kvd","азербайджан","az","gyandzha","azerbaijan","gyandzha airport"],"code":"KVD","country_name":"Азербайджан","timezone":"Asia\/Baku","searchable":true,"country_code":"AZ","coordinates":{"lat":40.733334,"lon":46.316666},"type":"city","name":"Гянджа"},{"weight":410887,"index_strings":["львов","lwo","украина","ua","lviv","ukraine","lviv international airport"],"code":"LWO","country_name":"Украина","timezone":"Europe\/Kiev","searchable":true,"country_code":"UA","coordinates":{"lat":49.816418,"lon":23.955318},"type":"city","name":"Львов"},{"weight":401627,"index_strings":["ижевск","ijk","россия","ru","izhevsk","russia","izhevsk airport"],"code":"IJK","country_name":"Россия","timezone":"Europe\/Samara","searchable":true,"country_code":"RU","coordinates":{"lat":56.833332,"lon":53.466667},"type":"city","name":"Ижевск"},{"weight":395646,"index_strings":["абакан","aba","россия","ru","abakan","russia","abakan airport"],"code":"ABA","country_name":"Россия","timezone":"Asia\/Krasnoyarsk","searchable":true,"country_code":"RU","coordinates":{"lat":53.716667,"lon":91.5},"type":"city","name":"Абакан"},{"weight":385137,"index_strings":["цюрих","zrh","швейцария","ch","zurich","switzerland","zurich airport"],"code":"ZRH","country_name":"Швейцария","timezone":"Europe\/Zurich","searchable":true,"country_code":"CH","coordinates":{"lat":47.367347,"lon":8.5500025},"type":"city","name":"Цюрих"},{"weight":384175,"index_strings":["санья","syx","китай","cn","sanya","china","sanya phoenix international airport"],"code":"SYX","country_name":"Китай","timezone":"Asia\/Shanghai","searchable":true,"country_code":"CN","coordinates":{"lat":18.31063,"lon":109.409706},"type":"city","name":"Санья"},{"weight":383014,"index_strings":["сокол","gdx","магадан","россия","ru","magadan","russia","magadan airport"],"code":"GDX","country_name":"Россия","timezone":"Asia\/Magadan","searchable":true,"country_code":"RU","coordinates":{"lat":59.916668,"lon":150.71666},"type":"city","name":"Магадан"},{"weight":368719,"index_strings":["сыктывкар","scw","россия","ru","syktyvkar","russia","syktyvkar airport"],"code":"SCW","country_name":"Россия","timezone":"Europe\/Moscow","searchable":true,"country_code":"RU","coordinates":{"lat":61.666668,"lon":50.766666},"type":"city","name":"Сыктывкар"},{"weight":364708,"index_strings":["par","париж","франция","fr","paris","france"],"code":"PAR","country_name":"Франция","timezone":"Europe\/Paris","searchable":true,"country_code":"FR","coordinates":{"lat":48.856614,"lon":2.3522219},"type":"city","name":"Париж"},{"weight":358842,"index_strings":["бегишево","nbc","нижнекамск","россия","ru","naberezhnye chelny","russia","begishevo airport"],"code":"NBC","country_name":"Россия","timezone":"Europe\/Moscow","searchable":true,"country_code":"RU","coordinates":{"lat":55.564125,"lon":52.10341},"type":"city","name":"Нижнекамск"},{"weight":350260,"index_strings":["бухара","bhk","узбекистан","uz","bukhara","uzbekistan","bukhara airport"],"code":"BHK","country_name":"Узбекистан","timezone":"Asia\/Samarkand","searchable":true,"country_code":"UZ","coordinates":{"lat":39.76037,"lon":64.47479},"type":"city","name":"Бухара"},{"weight":344183,"index_strings":["мальта","mla","mt","malta","malta international airport"],"code":"MLA","country_name":"Мальта","timezone":"Europe\/Malta","searchable":true,"country_code":"MT","coordinates":{"lat":35.849777,"lon":14.495401},"type":"city","name":"Мальта"},{"weight":343117,"index_strings":["ургенч","ugc","узбекистан","uz","urgench","uzbekistan","urgench airport"],"code":"UGC","country_name":"Узбекистан","timezone":"Asia\/Samarkand","searchable":true,"country_code":"UZ","coordinates":{"lat":41.584835,"lon":60.63303},"type":"city","name":"Ургенч"},{"weight":336476,"index_strings":["шымкент","cit","казахстан","kz","shymkent","kazakhstan","shymkent airport"],"code":"CIT","country_name":"Казахстан","timezone":"Asia\/Almaty","searchable":true,"country_code":"KZ","coordinates":{"lat":42.3,"lon":69.59999999999999},"type":"city","name":"Шымкент"},{"weight":333239,"index_strings":["iev","киев","украина","ua","kiev","ukraine"],"code":"IEV","country_name":"Украина","timezone":"Europe\/Kiev","searchable":true,"country_code":"UA","coordinates":{"lat":50.45,"lon":30.5},"type":"city","name":"Киев"},{"country_name":"Украина","weight":333239,"type":"airport","code":"KBP","searchable":true,"index_strings":["kbp","борисполь","киев","iev","украина","ua","boryspil international airport","kiev","ukraine"],"coordinates":{"lat":50.341244,"lon":30.895206},"city_code":"IEV","city_name":"Киев","timezone":"Europe\/Kiev","country_code":"UA","name":"Борисполь"},{"weight":327223,"index_strings":["штутгарт","str","германия","de","stuttgart","germany","stuttgart airport"],"code":"STR","country_name":"Германия","timezone":"Europe\/Berlin","searchable":true,"country_code":"DE","coordinates":{"lat":48.7771056,"lon":9.180768799999999},"type":"city","name":"Штутгарт"},{"weight":312949,"index_strings":["ганновер","haj","германия","de","hanover","germany","hannover airport"],"code":"HAJ","country_name":"Германия","timezone":"Europe\/Berlin","searchable":true,"country_code":"DE","coordinates":{"lat":52.3720683,"lon":9.735686100000001},"type":"city","name":"Ганновер"},{"weight":304733,"index_strings":["покэнтонг","pnh","пномпень","камбоджа","kh","phnom penh","cambodia","phnom penh international airport"],"code":"PNH","country_name":"Камбоджа","timezone":"Asia\/Phnom_Penh","searchable":true,"country_code":"KH","coordinates":{"lat":11.546111,"lon":104.84778},"type":"city","name":"Пномпень"},{"weight":304513,"index_strings":["перетола","flr","флоренция","италия","it","florence","italy","firenze-peretola airport"],"code":"FLR","country_name":"Италия","timezone":"Europe\/Rome","searchable":true,"country_code":"IT","coordinates":{"lat":43.7687324,"lon":11.2569013},"type":"city","name":"Флоренция"},{"weight":298629,"index_strings":["сары-арка","kgf","караганда","казахстан","kz","karaganda","kazakhstan","karaganda airport"],"code":"KGF","country_name":"Казахстан","timezone":"Asia\/Almaty","searchable":true,"country_code":"KZ","coordinates":{"lat":49.67526,"lon":73.32836},"type":"city","name":"Караганда"},{"weight":298493,"index_strings":["наманган","nma","узбекистан","uz","namangan","uzbekistan","namangan airport"],"code":"NMA","country_name":"Узбекистан","timezone":"Asia\/Tashkent","searchable":true,"country_code":"UZ","coordinates":{"lat":40.983334,"lon":71.59999999999999},"type":"city","name":"Наманган"},{"weight":295648,"index_strings":["каир","cai","египет","eg","cairo","egypt","cairo international airport"],"code":"CAI","country_name":"Египет","timezone":"Africa\/Cairo","searchable":true,"country_code":"EG","coordinates":{"lat":30.120106,"lon":31.40647},"type":"city","name":"Каир"},{"weight":287098,"index_strings":["андижан","azn","узбекистан","uz","andizhan","uzbekistan","andizhan airport"],"code":"AZN","country_name":"Узбекистан","timezone":"Asia\/Tashkent","searchable":true,"country_code":"UZ","coordinates":{"lat":40.733334,"lon":72.3},"type":"city","name":"Андижан"},{"weight":286678,"index_strings":["даламан","dlm","турция","tr","dalaman","turkey","dalaman airport"],"code":"DLM","country_name":"Турция","timezone":"Europe\/Istanbul","searchable":true,"country_code":"TR","coordinates":{"lat":36.716667,"lon":28.783333},"type":"city","name":"Даламан"},{"weight":283044,"index_strings":["пунта-рейзи","pmo","палермо","италия","it","palermo","italy","falcone-borsellino airport"],"code":"PMO","country_name":"Италия","timezone":"Europe\/Rome","searchable":true,"country_code":"IT","coordinates":{"lat":38.186523,"lon":13.104779},"type":"city","name":"Палермо"},{"weight":282327,"index_strings":["куляб","tju","таджикистан","tj","kulyab","tajikistan","kulyab airport"],"code":"TJU","country_name":"Таджикистан","timezone":"Asia\/Dushanbe","searchable":true,"country_code":"TJ","coordinates":{"lat":37.988335,"lon":69.80665999999999},"type":"city","name":"Куляб"},{"weight":280274,"index_strings":["кутаиси","kut","грузия","ge","kutaisi","georgia","kutaisi international airport"],"code":"KUT","country_name":"Грузия","timezone":"Asia\/Tbilisi","searchable":true,"country_code":"GE","coordinates":{"lat":42.25,"lon":42.7},"type":"city","name":"Кутаиси"},{"weight":276958,"index_strings":["маэ","sez","сейшелы","sc","mahe island","seychelles","seychelles international airport"],"code":"SEZ","country_name":"Сейшелы","timezone":"Indian\/Mahe","searchable":true,"country_code":"SC","coordinates":{"lat":-4.671275,"lon":55.51128},"type":"city","name":"Маэ"},{"country_name":"Израиль","weight":276722,"type":"airport","code":"TLV","searchable":true,"index_strings":["tlv","бен гурион","тель-авив","израиль","il","ben gurion international airport","tel aviv-yafo","israel"],"coordinates":{"lat":32.000454,"lon":34.870743},"city_code":"TLV","city_name":"Тель-Авив","timezone":"Asia\/Jerusalem","country_code":"IL","name":"Бен Гурион"},{"weight":276722,"index_strings":["tlv","тель-авив","израиль","il","tel aviv-yafo","israel"],"code":"TLV","country_name":"Израиль","timezone":"Asia\/Jerusalem","searchable":true,"country_code":"IL","coordinates":{"lat":32.000454,"lon":34.870743},"type":"city","name":"Тель-Авив"},{"weight":272565,"index_strings":["марсель","mrs","франция","fr","marseille","france","marseille provence airport"],"code":"MRS","country_name":"Франция","timezone":"Europe\/Paris","searchable":true,"country_code":"FR","coordinates":{"lat":43.296482,"lon":5.36978},"type":"city","name":"Марсель"},{"weight":271540,"index_strings":["актау","sco","казахстан","kz","aktau","kazakhstan","aktau international airport"],"code":"SCO","country_name":"Казахстан","timezone":"Asia\/Aqtau","searchable":true,"country_code":"KZ","coordinates":{"lat":43.86667,"lon":51.1},"type":"city","name":"Актау"},{"weight":266632,"index_strings":["rom","рим","италия","it","rome","italy"],"code":"ROM","country_name":"Италия","timezone":"Europe\/Rome","searchable":true,"country_code":"IT","coordinates":{"lat":41.8905198,"lon":12.4942486},"type":"city","name":"Рим"},{"weight":265736,"index_strings":["харьков","hrk","украина","ua","kharkov","ukraine","kharkov airport"],"code":"HRK","country_name":"Украина","timezone":"Europe\/Kiev","searchable":true,"country_code":"UA","coordinates":{"lat":49.92078,"lon":36.281185},"type":"city","name":"Харьков"},{"weight":263459,"index_strings":["ашхабад","asb","туркменистан","tm","ashgabat","turkmenistan","ashgabat airport"],"code":"ASB","country_name":"Туркменистан","timezone":"Asia\/Ashgabat","searchable":true,"country_code":"TM","coordinates":{"lat":37.984184,"lon":58.366978},"type":"city","name":"Ашхабад"},{"weight":262099,"index_strings":["фонтанаросса","cta","катания","италия","it","catania","italy","catania-fontanarossa airport"],"code":"CTA","country_name":"Италия","timezone":"Europe\/Rome","searchable":true,"country_code":"IT","coordinates":{"lat":37.47066,"lon":15.065877},"type":"city","name":"Катания"},{"weight":260690,"index_strings":["магнитогорск","mqf","россия","ru","magnitogorsk","russia","magnitogorsk airport"],"code":"MQF","country_name":"Россия","timezone":"Asia\/Yekaterinburg","searchable":true,"country_code":"RU","coordinates":{"lat":53.45,"lon":59.066666},"type":"city","name":"Магнитогорск"},{"weight":253004,"index_strings":["дублин","dub","ирландия","ie","dublin","ireland","dublin airport"],"code":"DUB","country_name":"Ирландия","timezone":"Europe\/Dublin","searchable":true,"country_code":"IE","coordinates":{"lat":53.42728,"lon":-6.24357},"type":"city","name":"Дублин"},{"weight":249676,"index_strings":["ибица","ibz","испания","es","ibiza","spain","ibiza airport"],"code":"IBZ","country_name":"Испания","timezone":"Europe\/Madrid","searchable":true,"country_code":"ES","coordinates":{"lat":38.876595,"lon":1.367803},"type":"city","name":"Ибица"},{"weight":247291,"index_strings":["ноябрьск","noj","россия","ru","nojabrxsk","russia","nojabrxsk airport"],"code":"NOJ","country_name":"Россия","timezone":"Asia\/Yekaterinburg","searchable":true,"country_code":"RU","coordinates":{"lat":63.17673,"lon":75.29459},"type":"city","name":"Ноябрьск"},{"weight":244835,"index_strings":["nyc","нью-йорк","сша","us","new york","united states"],"code":"NYC","country_name":"США","timezone":"America\/New_York","searchable":true,"country_code":"US","coordinates":{"lat":40.7143528,"lon":-74.00597310000001},"type":"city","name":"Нью-Йорк"},{"weight":239882,"index_strings":["чебоксары","csy","россия","ru","cheboksary","russia","cheboksary airport"],"code":"CSY","country_name":"Россия","timezone":"Europe\/Moscow","searchable":true,"country_code":"RU","coordinates":{"lat":56.13333,"lon":47.266666},"type":"city","name":"Чебоксары"},{"weight":224272,"index_strings":["дубровник","dbv","хорватия","hr","dubrovnik","croatia","dubrovnik airport"],"code":"DBV","country_name":"Хорватия","timezone":"Europe\/Zagreb","searchable":true,"country_code":"HR","coordinates":{"lat":42.56072,"lon":18.260616},"type":"city","name":"Дубровник"},{"weight":223379,"index_strings":["усть-каменогорск","ukk","казахстан","kz","ust-kamenogorsk","kazakhstan","ust-kamenogorsk airport"],"code":"UKK","country_name":"Казахстан","timezone":"Asia\/Almaty","searchable":true,"country_code":"KZ","coordinates":{"lat":50.025723,"lon":82.5056},"type":"city","name":"Усть-Каменогорск"},{"weight":223143,"index_strings":["вацлав гавел","prg","прага","чехия","cz","prague","czech republic","vaclav havel airport prague"],"code":"PRG","country_name":"Чехия","timezone":"Europe\/Prague","searchable":true,"country_code":"CZ","coordinates":{"lat":50.0878114,"lon":14.4204598},"type":"city","name":"Прага"},{"weight":217747,"index_strings":["газипаша","gzp","алания","турция","tr","gazipasa","turkey","gazipasa airport"],"code":"GZP","country_name":"Турция","timezone":"Europe\/Istanbul","searchable":true,"country_code":"TR","coordinates":{"lat":36.2993,"lon":32.3014},"type":"city","name":"Алания"},{"weight":216950,"index_strings":["ханты-мансийск","hma","россия","ru","khanty-mansiysk","russia","khanty-mansiysk airport"],"code":"HMA","country_name":"Россия","timezone":"Asia\/Yekaterinburg","searchable":true,"country_code":"RU","coordinates":{"lat":61.02613,"lon":69.09714},"type":"city","name":"Ханты-Мансийск"},{"weight":214651,"index_strings":["салехард","sly","россия","ru","salekhard","russia","salekhard airport"],"code":"SLY","country_name":"Россия","timezone":"Asia\/Yekaterinburg","searchable":true,"country_code":"RU","coordinates":{"lat":66.583336,"lon":66.59999999999999},"type":"city","name":"Салехард"},{"weight":212074,"index_strings":["иоанис каподистриас","cfu","корфу","греция","gr","kerkyra","greece","ioannis kapodistrias airport"],"code":"CFU","country_name":"Греция","timezone":"Europe\/Athens","searchable":true,"country_code":"GR","coordinates":{"lat":39.60784,"lon":19.914644},"type":"city","name":"Корфу"},{"weight":204179,"index_strings":["окленд","akl","новая зеландия","nz","auckland","new zealand","auckland airport"],"code":"AKL","country_name":"Новая Зеландия","timezone":"Pacific\/Auckland","searchable":true,"country_code":"NZ","coordinates":{"lat":-36.8484597,"lon":174.7633315},"type":"city","name":"Окленд"},{"weight":204163,"index_strings":["бомбей","bombay","мумбаи","bom","индия","in","mumbai","india","chhatrapati shivaji international airport"],"code":"BOM","country_name":"Индия","timezone":"Asia\/Kolkata","searchable":true,"country_code":"IN","coordinates":{"lat":19.095509,"lon":72.87497},"type":"city","name":"Мумбаи"},{"weight":203869,"index_strings":["горно-алтайск","rgk","россия","ru","gorno-altaysk","russia","gorno-altaysk airport"],"code":"RGK","country_name":"Россия","timezone":"Asia\/Novokuznetsk","searchable":true,"country_code":"RU","coordinates":{"lat":51.969166,"lon":85.83638999999999},"type":"city","name":"Горно-Алтайск"},{"weight":199804,"index_strings":["сивусагур рамгулам ","mru","маврикий","mu","mauritius","sir seewoosagur ramgoolam international airport"],"code":"MRU","country_name":"Маврикий","timezone":"Indian\/Mauritius","searchable":true,"country_code":"MU","coordinates":{"lat":-20.431997,"lon":57.67663},"type":"city","name":"Маврикий"},{"weight":197293,"index_strings":["сплит","spu","хорватия","hr","split","croatia","split airport"],"code":"SPU","country_name":"Хорватия","timezone":"Europe\/Zagreb","searchable":true,"country_code":"HR","coordinates":{"lat":43.536526,"lon":16.29946},"type":"city","name":"Сплит"},{"weight":196898,"index_strings":["братск","btk","россия","ru","bratsk","russia","bratsk airport"],"code":"BTK","country_name":"Россия","timezone":"Asia\/Irkutsk","searchable":true,"country_code":"RU","coordinates":{"lat":56.36667,"lon":101.816666},"type":"city","name":"Братск"},{"weight":195771,"index_strings":["магас","igt","назрань","россия","ru","ordzhonikidzevskaya","russia","magas airport"],"code":"IGT","country_name":"Россия","timezone":"Europe\/Moscow","searchable":true,"country_code":"RU","coordinates":{"lat":43.31778,"lon":45.001667},"type":"city","name":"Назрань"},{"weight":193939,"index_strings":["терновка","pez","пенза","россия","ru","penza","russia","penza airport"],"code":"PEZ","country_name":"Россия","timezone":"Europe\/Moscow","searchable":true,"country_code":"RU","coordinates":{"lat":53.11852,"lon":45.02305},"type":"city","name":"Пенза"},{"weight":189077,"index_strings":["эрджан","ecn","никосия","кипр","cy","ercan","cyprus","ercan airport"],"code":"ECN","country_name":"Кипр","timezone":"Asia\/Nicosia","searchable":true,"country_code":"CY","coordinates":{"lat":35.15812,"lon":33.50307},"type":"city","name":"Никосия"},{"weight":188704,"index_strings":["харбин","hrb","китай","cn","harbin","china","harbin taiping international airport"],"code":"HRB","country_name":"Китай","timezone":"Asia\/Shanghai","searchable":true,"country_code":"CN","coordinates":{"lat":45.620853,"lon":126.23644},"type":"city","name":"Харбин"},{"weight":188488,"index_strings":["победилово","kvx","киров","россия","ru","kirov","russia","kirov airport"],"code":"KVX","country_name":"Россия","timezone":"Europe\/Volgograd","searchable":true,"country_code":"RU","coordinates":{"lat":58.5,"lon":49.35},"type":"city","name":"Киров"},{"weight":188352,"index_strings":["курган","kro","россия","ru","kurgan","russia","kurgan airport"],"code":"KRO","country_name":"Россия","timezone":"Asia\/Yekaterinburg","searchable":true,"country_code":"RU","coordinates":{"lat":55.433334,"lon":65.3},"type":"city","name":"Курган"},{"weight":186894,"index_strings":["ленкорань","llk","азербайджан","az","lankaran","azerbaijan","lankaran international airport"],"code":"LLK","country_name":"Азербайджан","timezone":"Asia\/Baku","searchable":true,"country_code":"AZ","coordinates":{"lat":38.74203,"lon":48.824093},"type":"city","name":"Ленкорань"},{"weight":186812,"index_strings":["эйлат","eth","израиль","il","elat","israel","eilat airport"],"code":"ETH","country_name":"Израиль","timezone":"Asia\/Jerusalem","searchable":true,"country_code":"IL","coordinates":{"lat":29.555616,"lon":34.95357},"type":"city","name":"Эйлат"},{"weight":186594,"index_strings":["надым","nym","россия","ru","nadym","russia","nadym airport"],"code":"NYM","country_name":"Россия","timezone":"Asia\/Yekaterinburg","searchable":true,"country_code":"RU","coordinates":{"lat":65.48333,"lon":72.71666999999999},"type":"city","name":"Надым"},{"weight":186359,"index_strings":["урумчи","urc","китай","cn","urumqi","china","urumqi diwopu international airport"],"code":"URC","country_name":"Китай","timezone":"Asia\/Shanghai","searchable":true,"country_code":"CN","coordinates":{"lat":43.90126,"lon":87.47515},"type":"city","name":"Урумчи"},{"weight":185352,"index_strings":["варадеро","vra","куба","cu","varadero","cuba","juan gualberto gomez airport"],"code":"VRA","country_name":"Куба","timezone":"America\/Havana","searchable":true,"country_code":"CU","coordinates":{"lat":23.039896,"lon":-81.43694000000001},"type":"city","name":"Варадеро"},{"weight":184789,"index_strings":["mil","милан","италия","it","milan","italy"],"code":"MIL","country_name":"Италия","timezone":"Europe\/Rome","searchable":true,"country_code":"IT","coordinates":{"lat":45.463681,"lon":9.1881714},"type":"city","name":"Милан"},{"weight":179018,"index_strings":["катманду","ktm","непал","np","kathmandu","nepal","tribhuvan international airport"],"code":"KTM","country_name":"Непал","timezone":"Asia\/Kathmandu","searchable":true,"country_code":"NP","coordinates":{"lat":27.699905,"lon":85.35657},"type":"city","name":"Катманду"},{"weight":175905,"index_strings":["хорхе чавес","lim","лима","перу","pe","lima","peru","jorge chavez international airport"],"code":"LIM","country_name":"Перу","timezone":"America\/Lima","searchable":true,"country_code":"PE","coordinates":{"lat":-12.019421,"lon":-77.10766599999999},"type":"city","name":"Лима"},{"weight":173561,"index_strings":["гран-канария","lpa","лас-пальмас","испания","es","las palmas","spain","gran canaria airport"],"code":"LPA","country_name":"Испания","timezone":"Atlantic\/Canary","searchable":true,"country_code":"ES","coordinates":{"lat":27.938944,"lon":-15.389351},"type":"city","name":"Лас-Пальмас"},{"weight":171477,"index_strings":["краби","kbv","таиланд","th","krabi","thailand","krabi airport"],"code":"KBV","country_name":"Таиланд","timezone":"Asia\/Bangkok","searchable":true,"country_code":"TH","coordinates":{"lat":8.097281000000001,"lon":98.98062},"type":"city","name":"Краби"},{"weight":170017,"index_strings":["мирный","mjz","россия","ru","mirnyj","russia","mirnyj airport"],"code":"MJZ","country_name":"Россия","timezone":"Asia\/Yakutsk","searchable":true,"country_code":"RU","coordinates":{"lat":62.533333,"lon":114.03333},"type":"city","name":"Мирный"},{"weight":169993,"index_strings":["загреб","zag","хорватия","hr","zagreb","croatia","zagreb international airport"],"code":"ZAG","country_name":"Хорватия","timezone":"Europe\/Zagreb","searchable":true,"country_code":"HR","coordinates":{"lat":45.733242,"lon":16.06152},"type":"city","name":"Загреб"},{"weight":168600,"index_strings":["карфаген","tun","тунис","tn","tunis","tunisia","tunis-carthage international airport"],"code":"TUN","country_name":"Тунис","timezone":"Africa\/Tunis","searchable":true,"country_code":"TN","coordinates":{"lat":36.847622,"lon":10.21709},"type":"city","name":"Тунис"},{"weight":167888,"index_strings":["генуя","goa","италия","it","genoa","italy","genoa cristoforo colombo airport"],"code":"GOA","country_name":"Италия","timezone":"Europe\/Rome","searchable":true,"country_code":"IT","coordinates":{"lat":44.415066,"lon":8.850809999999999},"type":"city","name":"Генуя"},{"weight":166315,"index_strings":["пиза","psa","италия","it","pisa","italy","pisa international airport"],"code":"PSA","country_name":"Италия","timezone":"Europe\/Rome","searchable":true,"country_code":"IT","coordinates":{"lat":43.69871,"lon":10.399915},"type":"city","name":"Пиза"},{"weight":164398,"index_strings":["орск","osw","россия","ru","orsk","russia","orsk airport"],"code":"OSW","country_name":"Россия","timezone":"Asia\/Yekaterinburg","searchable":true,"country_code":"RU","coordinates":{"lat":51.2,"lon":58.566666},"type":"city","name":"Орск"},{"weight":163362,"index_strings":["курган-тюбе","kqt","таджикистан","tj","kurgon-tyube","tajikistan","qurghonteppa international airport"],"code":"KQT","country_name":"Таджикистан","timezone":"Asia\/Dushanbe","searchable":true,"country_code":"TJ","coordinates":{"lat":37.85961,"lon":68.86117},"type":"city","name":"Курган-Тюбе"},{"country_name":"Турция","weight":161766,"type":"airport","code":"IST","searchable":true,"index_strings":["ist","ататюрк","стамбул","турция","tr","istanbul ataturk airport","istanbul","turkey"],"coordinates":{"lat":40.976665,"lon":28.815277},"city_code":"IST","city_name":"Стамбул","timezone":"Europe\/Istanbul","country_code":"TR","name":"Ататюрк"},{"weight":161766,"index_strings":["ist","стамбул","турция","tr","istanbul","turkey"],"code":"IST","country_name":"Турция","timezone":"Europe\/Istanbul","searchable":true,"country_code":"TR","coordinates":{"lat":40.976665,"lon":28.815277},"type":"city","name":"Стамбул"},{"weight":161026,"index_strings":["габала","gbb","азербайджан","az","gabala","azerbaijan","gabala international airport"],"code":"GBB","country_name":"Азербайджан","timezone":"Asia\/Baku","searchable":true,"country_code":"AZ","coordinates":{"lat":40.4936,"lon":47.4245},"type":"city","name":"Габала"},{"weight":158171,"index_strings":["краков","krk","польша","pl","krakow","poland","j. paul ii international airport krakow-balice"],"code":"KRK","country_name":"Польша","timezone":"Europe\/Warsaw","searchable":true,"country_code":"PL","coordinates":{"lat":50.075493,"lon":19.793743},"type":"city","name":"Краков"},{"weight":157897,"index_strings":["любляна","lju","словения","si","ljubljana","slovenia","ljubljana joze pucnik airport"],"code":"LJU","country_name":"Словения","timezone":"Europe\/Ljubljana","searchable":true,"country_code":"SI","coordinates":{"lat":46.23102,"lon":14.454972},"type":"city","name":"Любляна"},{"weight":154839,"index_strings":["ber","берлин","германия","de","berlin","germany"],"code":"BER","country_name":"Германия","timezone":"Europe\/Berlin","searchable":true,"country_code":"DE","coordinates":{"lat":52.5234051,"lon":13.4113999},"type":"city","name":"Берлин"},{"weight":153466,"index_strings":["моту-муту","bob","бора-бора","французская полинезия","pf","bora bora","french polynesia","motu mute airport"],"code":"BOB","country_name":"Французская Полинезия","timezone":"Pacific\/Tahiti","searchable":true,"country_code":"PF","coordinates":{"lat":-16.446207,"lon":-151.75447},"type":"city","name":"Бора-Бора"},{"weight":151007,"index_strings":["карловы вары","klv","чехия","cz","karlovy vary","czech republic","karlovy vary airport"],"code":"KLV","country_name":"Чехия","timezone":"Europe\/Prague","searchable":true,"country_code":"CZ","coordinates":{"lat":50.2322052,"lon":12.8712765},"type":"city","name":"Карловы Вары"},{"weight":147772,"index_strings":["запорожье","ozh","украина","ua","zaporozhye","ukraine","zaporozhye airport"],"code":"OZH","country_name":"Украина","timezone":"Europe\/Zaporozhye","searchable":true,"country_code":"UA","coordinates":{"lat":47.8675,"lon":35.315834},"type":"city","name":"Запорожье"},{"weight":145602,"index_strings":["гюмри","lwn","армения","am","gyoumri","armenia","leninakan airport"],"code":"LWN","country_name":"Армения","timezone":"Asia\/Yerevan","searchable":true,"country_code":"AM","coordinates":{"lat":40.716667,"lon":43.833332},"type":"city","name":"Гюмри"},{"weight":145189,"index_strings":["актобе","akx","актюбинск","казахстан","kz","aktyubinsk","kazakhstan","aktyubinsk airport"],"code":"AKX","country_name":"Казахстан","timezone":"Asia\/Aqtobe","searchable":true,"country_code":"KZ","coordinates":{"lat":50.249336,"lon":57.211403},"type":"city","name":"Актюбинск"},{"weight":142803,"index_strings":["себу-мактан","ceb","себу","филиппины","ph","cebu city","philippines","mactan-cebu international airport"],"code":"CEB","country_name":"Филиппины","timezone":"Asia\/Manila","searchable":true,"country_code":"PH","coordinates":{"lat":10.313333,"lon":123.98278},"type":"city","name":"Себу"},{"weight":135958,"index_strings":["чульман","ner","нерюнгри","россия","ru","neryungri","russia","neryungri airport"],"code":"NER","country_name":"Россия","timezone":"Asia\/Yakutsk","searchable":true,"country_code":"RU","coordinates":{"lat":56.65,"lon":124.6},"type":"city","name":"Нерюнгри"},{"weight":132983,"index_strings":["lon","лондон","великобритания","gb","london","united kingdom"],"code":"LON","country_name":"Великобритания","timezone":"Europe\/London","searchable":true,"country_code":"GB","coordinates":{"lat":51.51,"lon":0.06},"type":"city","name":"Лондон"},{"weight":132717,"index_strings":["пула","puy","хорватия","hr","pula","croatia","pula airport"],"code":"PUY","country_name":"Хорватия","timezone":"Europe\/Zagreb","searchable":true,"country_code":"HR","coordinates":{"lat":44.891666,"lon":13.923611},"type":"city","name":"Пула"},{"weight":129374,"index_strings":["порту","opo","португалия","pt","porto","portugal","porto airport"],"code":"OPO","country_name":"Португалия","timezone":"Europe\/Lisbon","searchable":true,"country_code":"PT","coordinates":{"lat":41.149968,"lon":-8.610242599999999},"type":"city","name":"Порту"},{"weight":129293,"index_strings":["атырау","guw","казахстан","kz","atyrau","kazakhstan","atyrau airport"],"code":"GUW","country_name":"Казахстан","timezone":"Asia\/Aqtau","searchable":true,"country_code":"KZ","coordinates":{"lat":47.122814,"lon":51.829556},"type":"city","name":"Атырау"},{"weight":127997,"index_strings":["восточный","urs","курск","россия","ru","kursk","russia","kursk vostochny airport"],"code":"URS","country_name":"Россия","timezone":"Europe\/Moscow","searchable":true,"country_code":"RU","coordinates":{"lat":51.75,"lon":36.266666},"type":"city","name":"Курск"},{"weight":127773,"index_strings":["нукус","ncu","узбекистан","uz","nukus","uzbekistan","nukus airport"],"code":"NCU","country_name":"Узбекистан","timezone":"Asia\/Samarkand","searchable":true,"country_code":"UZ","coordinates":{"lat":42.483334,"lon":59.63333},"type":"city","name":"Нукус"},{"weight":126824,"index_strings":["гонолулу","hnl","сша","us","honolulu","united states","honolulu international airport"],"code":"HNL","country_name":"США","timezone":"Pacific\/Honolulu","searchable":true,"country_code":"US","coordinates":{"lat":21.3069444,"lon":-157.8583333},"type":"city","name":"Гонолулу"},{"weight":125673,"index_strings":["thira","тира","санторини","jtr","греция","gr","greece","santorini international airport"],"code":"JTR","country_name":"Греция","timezone":"Europe\/Athens","searchable":true,"country_code":"GR","coordinates":{"lat":36.4,"lon":25.483334},"type":"city","name":"Санторини"},{"weight":125455,"index_strings":["схипхол","ams","амстердам","нидерланды","nl","amsterdam","netherlands","amsterdam airport schiphol"],"code":"AMS","country_name":"Нидерланды","timezone":"Europe\/Amsterdam","searchable":true,"country_code":"NL","coordinates":{"lat":52.3730556,"lon":4.8922222},"type":"city","name":"Амстердам"},{"weight":124815,"index_strings":["мадейра","fnc","фуншал","португалия","pt","funchal","portugal","madeira airport"],"code":"FNC","country_name":"Португалия","timezone":"Atlantic\/Madeira","searchable":true,"country_code":"PT","coordinates":{"lat":32.693123,"lon":-16.775635},"type":"city","name":"Фуншал"},{"weight":122344,"index_strings":["швехат","vie","вена","австрия","at","vienna","austria","vienna international airport"],"code":"VIE","country_name":"Австрия","timezone":"Europe\/Vienna","searchable":true,"country_code":"AT","coordinates":{"lat":48.2081743,"lon":16.3738189},"type":"city","name":"Вена"},{"weight":119910,"index_strings":["элмас","cag","кальяри","италия","it","cagliari","italy","cagliari elmas airport"],"code":"CAG","country_name":"Италия","timezone":"Europe\/Rome","searchable":true,"country_code":"IT","coordinates":{"lat":39.254333,"lon":9.060673},"type":"city","name":"Кальяри"},{"weight":119354,"index_strings":["инсбрук","inn","австрия","at","innsbruck","austria","innsbruck airport"],"code":"INN","country_name":"Австрия","timezone":"Europe\/Vienna","searchable":true,"country_code":"AT","coordinates":{"lat":47.25745,"lon":11.351467},"type":"city","name":"Инсбрук"},{"weight":119118,"index_strings":["хуан сантамария","sjo","сан-хосе","коста рика","cr","san jose","costa rica","juan santamaria international airport"],"code":"SJO","country_name":"Коста Рика","timezone":"America\/Costa_Rica","searchable":true,"country_code":"CR","coordinates":{"lat":9.998238000000001,"lon":-84.20408},"type":"city","name":"Сан-Хосе"},{"weight":118875,"index_strings":["бесовец","pes","петрозаводск","россия","ru","petrozavodsk","russia","petrozavodsk airport"],"code":"PES","country_name":"Россия","timezone":"Europe\/Moscow","searchable":true,"country_code":"RU","coordinates":{"lat":61.683334,"lon":34.333332},"type":"city","name":"Петрозаводск"},{"weight":115833,"index_strings":["muc","мюнхен","германия","de","munich","germany"],"code":"MUC","country_name":"Германия","timezone":"Europe\/Berlin","searchable":true,"country_code":"DE","coordinates":{"lat":48.1391265,"lon":11.5801863},"type":"city","name":"Мюнхен"},{"country_name":"Германия","weight":115833,"type":"airport","code":"MUC","searchable":true,"index_strings":["muc","франц йозеф штраус","мюнхен","германия","de","franz josef strauss airport","munich","germany"],"coordinates":{"lat":48.353004,"lon":11.790143},"city_code":"MUC","city_name":"Мюнхен","timezone":"Europe\/Berlin","country_code":"DE","name":"Франц Йозеф Штраус"},{"weight":114863,"index_strings":["навои","nvi","узбекистан","uz","navoi","uzbekistan","navoi airport"],"code":"NVI","country_name":"Узбекистан","timezone":"Asia\/Samarkand","searchable":true,"country_code":"UZ","coordinates":{"lat":40.115,"lon":65.159164},"type":"city","name":"Навои"},{"country_name":"Испания","weight":113504,"type":"airport","code":"MAD","searchable":true,"index_strings":["mad","барахас","мадрид","испания","es","adolfo suarez madrid-barajas airport","madrid","spain"],"coordinates":{"lat":40.46515,"lon":-3.570209},"city_code":"MAD","city_name":"Мадрид","timezone":"Europe\/Madrid","country_code":"ES","name":"Барахас"},{"weight":113504,"index_strings":["mad","мадрид","испания","es","madrid","spain"],"code":"MAD","country_name":"Испания","timezone":"Europe\/Madrid","searchable":true,"country_code":"ES","coordinates":{"lat":40.4166909,"lon":-3.7003454},"type":"city","name":"Мадрид"},{"weight":112174,"index_strings":["бари","bri","италия","it","bari","italy","palese airport"],"code":"BRI","country_name":"Италия","timezone":"Europe\/Rome","searchable":true,"country_code":"IT","coordinates":{"lat":41.1259998,"lon":16.8683784},"type":"city","name":"Бари"},{"weight":112116,"index_strings":["уральск","ura","казахстан","kz","uralsk","kazakhstan","uralsk airport"],"code":"URA","country_name":"Казахстан","timezone":"Asia\/Oral","searchable":true,"country_code":"KZ","coordinates":{"lat":51.15371,"lon":51.538563},"type":"city","name":"Уральск"},{"weight":110813,"index_strings":["карши","ksq","узбекистан","uz","karshi","uzbekistan","karshi airport"],"code":"KSQ","country_name":"Узбекистан","timezone":"Asia\/Samarkand","searchable":true,"country_code":"UZ","coordinates":{"lat":38.80981,"lon":65.77531},"type":"city","name":"Карши"},{"weight":109996,"index_strings":["наримановка","ksn","костанай","казахстан","kz","kostanay","kazakhstan","kostanay airport"],"code":"KSN","country_name":"Казахстан","timezone":"Asia\/Almaty","searchable":true,"country_code":"KZ","coordinates":{"lat":53.2,"lon":63.55},"type":"city","name":"Костанай"},{"weight":109983,"index_strings":["бугульма","uua","россия","ru","bugulma","russia","bugulma airport"],"code":"UUA","country_name":"Россия","timezone":"Europe\/Moscow","searchable":true,"country_code":"RU","coordinates":{"lat":54.61667,"lon":52.816666},"type":"city","name":"Бугульма"},{"weight":109455,"index_strings":["ухта","uct","россия","ru","ukhta","russia","ukhta airport"],"code":"UCT","country_name":"Россия","timezone":"Europe\/Moscow","searchable":true,"country_code":"RU","coordinates":{"lat":63.566666,"lon":53.8},"type":"city","name":"Ухта"},{"weight":109336,"index_strings":["усинск","usk","россия","ru","usinsk","russia","usinsk airport"],"code":"USK","country_name":"Россия","timezone":"Europe\/Moscow","searchable":true,"country_code":"RU","coordinates":{"lat":65.95,"lon":57.4},"type":"city","name":"Усинск"},{"weight":108526,"index_strings":["угольный","dyr","анадырь","россия","ru","anadyr","russia","anadyr airport"],"code":"DYR","country_name":"Россия","timezone":"Asia\/Anadyr","searchable":true,"country_code":"RU","coordinates":{"lat":64.73333,"lon":177.75},"type":"city","name":"Анадырь"},{"weight":108402,"index_strings":["комсомольск-на-амуре","kxk","россия","ru","komsomolsk na amure","russia","khurba airport"],"code":"KXK","country_name":"Россия","timezone":"Asia\/Vladivostok","searchable":true,"country_code":"RU","coordinates":{"lat":50.4,"lon":136.95},"type":"city","name":"Комсомольск-на-Амуре"},{"weight":108368,"index_strings":["саранск","skx","россия","ru","saransk","russia","saransk airport"],"code":"SKX","country_name":"Россия","timezone":"Europe\/Moscow","searchable":true,"country_code":"RU","coordinates":{"lat":54.166668,"lon":45.166668},"type":"city","name":"Саранск"},{"weight":107782,"index_strings":["милас","bjv","бодрум","турция","tr","bodrum","turkey","milas-bodrum airport"],"code":"BJV","country_name":"Турция","timezone":"Europe\/Istanbul","searchable":true,"country_code":"TR","coordinates":{"lat":37.25,"lon":27.66},"type":"city","name":"Бодрум"},{"weight":107551,"index_strings":["м. р. штефаник","bts","братислава","словакия","sk","bratislava","slovakia","bratislava airport"],"code":"BTS","country_name":"Словакия","timezone":"Europe\/Bratislava","searchable":true,"country_code":"SK","coordinates":{"lat":48.17,"lon":17.21},"type":"city","name":"Братислава"},{"weight":105187,"index_strings":["павлодар","pwq","казахстан","kz","pavlodar","kazakhstan","pavlodar airport"],"code":"PWQ","country_name":"Казахстан","timezone":"Asia\/Almaty","searchable":true,"country_code":"KZ","coordinates":{"lat":52.183334,"lon":77.066666},"type":"city","name":"Павлодар"},{"weight":104374,"index_strings":["бейрут","bey","ливан","lb","beirut","lebanon","beirut-rafic hariri international airport"],"code":"BEY","country_name":"Ливан","timezone":"Asia\/Beirut","searchable":true,"country_code":"LB","coordinates":{"lat":33.826073,"lon":35.49308},"type":"city","name":"Бейрут"},{"weight":103050,"index_strings":["термез","tmj","узбекистан","uz","termez","uzbekistan","termez airport"],"code":"TMJ","country_name":"Узбекистан","timezone":"Asia\/Samarkand","searchable":true,"country_code":"UZ","coordinates":{"lat":37.280502,"lon":67.31895400000001},"type":"city","name":"Термез"},{"weight":101392,"index_strings":["кызыл","kyz","россия","ru","kyzyl","russia","kyzyl airport"],"code":"KYZ","country_name":"Россия","timezone":"Asia\/Krasnoyarsk","searchable":true,"country_code":"RU","coordinates":{"lat":51.7,"lon":94.46666999999999},"type":"city","name":"Кызыл"},{"weight":100238,"index_strings":["алмассира","aga","агадир","марокко","ma","agadir","morocco","agadir al massira airport"],"code":"AGA","country_name":"Марокко","timezone":"Africa\/Casablanca","searchable":true,"country_code":"MA","coordinates":{"lat":30.378326,"lon":-9.555895},"type":"city","name":"Агадир"},{"weight":99847,"index_strings":["шарджа","shj","оаэ","ae","sharjah","united arab emirates","sharjah international airport"],"code":"SHJ","country_name":"ОАЭ","timezone":"Asia\/Dubai","searchable":true,"country_code":"AE","coordinates":{"lat":25.320873,"lon":55.52029},"type":"city","name":"Шарджа"},{"weight":99505,"index_strings":["марракеш","rak","марокко","ma","marrakech","morocco","menara airport"],"code":"RAK","country_name":"Марокко","timezone":"Africa\/Casablanca","searchable":true,"country_code":"MA","coordinates":{"lat":31.601875,"lon":-8.026902},"type":"city","name":"Марракеш"},{"weight":99394,"index_strings":["кейптаун","cpt","юар","za","cape town","south africa","cape town international airport"],"code":"CPT","country_name":"ЮАР","timezone":"Africa\/Johannesburg","searchable":true,"country_code":"ZA","coordinates":{"lat":-33.968906,"lon":18.596489},"type":"city","name":"Кейптаун"},{"weight":99357,"index_strings":["антананариву","tnr","мадагаскар","mg","antananarivo","madagascar","antananarivo airport"],"code":"TNR","country_name":"Мадагаскар","timezone":"Indian\/Antananarivo","searchable":true,"country_code":"MG","coordinates":{"lat":-18.799631,"lon":47.47503},"type":"city","name":"Антананариву"},{"weight":99283,"index_strings":["bjs","пекин","китай","cn","beijing","china"],"code":"BJS","country_name":"Китай","timezone":"Asia\/Shanghai","searchable":true,"country_code":"CN","coordinates":{"lat":39.904214,"lon":116.407413},"type":"city","name":"Пекин"},{"weight":95347,"index_strings":["манчестер","man","великобритания","gb","manchester","united kingdom","manchester airport"],"code":"MAN","country_name":"Великобритания","timezone":"Europe\/London","searchable":true,"country_code":"GB","coordinates":{"lat":53.4807125,"lon":-2.2343765},"type":"city","name":"Манчестер"},{"weight":93444,"index_strings":["закинтос","zth","греция","gr","zakinthos","greece","zakinthos airport"],"code":"ZTH","country_name":"Греция","timezone":"Europe\/Athens","searchable":true,"country_code":"GR","coordinates":{"lat":37.755833,"lon":20.888332},"type":"city","name":"Закинтос"},{"weight":92993,"index_strings":["сиемреап","rep","камбоджа","kh","siem reap","cambodia","siem reap international airport"],"code":"REP","country_name":"Камбоджа","timezone":"Asia\/Phnom_Penh","searchable":true,"country_code":"KH","coordinates":{"lat":13.408436,"lon":103.815926},"type":"city","name":"Сиемреап"},{"weight":91747,"index_strings":["orl","орландо","сша","us","orlando","united states"],"code":"ORL","country_name":"США","timezone":"America\/New_York","searchable":true,"country_code":"US","coordinates":{"lat":28.533611,"lon":-81.386667},"type":"city","name":"Орландо"},{"weight":91729,"index_strings":["ярославль","iar","россия","ru","yaroslavl","russia","tunoshna airport"],"code":"IAR","country_name":"Россия","timezone":"Europe\/Moscow","searchable":true,"country_code":"RU","coordinates":{"lat":57.61667,"lon":39.88333},"type":"city","name":"Ярославль"},{"weight":89879,"index_strings":["ринас","tia","тирана","албания","al","tirana","albania","tirana international airport"],"code":"TIA","country_name":"Албания","timezone":"Europe\/Tirane","searchable":true,"country_code":"AL","coordinates":{"lat":41.419132,"lon":19.71328},"type":"city","name":"Тирана"},{"weight":89261,"index_strings":["иваново","iwa","россия","ru","ivanovo","russia","ivanovo yuzhny airport"],"code":"IWA","country_name":"Россия","timezone":"Europe\/Moscow","searchable":true,"country_code":"RU","coordinates":{"lat":56.942955,"lon":40.944546},"type":"city","name":"Иваново"},{"weight":86693,"index_strings":["липецк","lpk","россия","ru","lipetsk","russia","lipetsk airport"],"code":"LPK","country_name":"Россия","timezone":"Europe\/Moscow","searchable":true,"country_code":"RU","coordinates":{"lat":52.61667,"lon":39.6},"type":"city","name":"Липецк"},{"weight":86513,"index_strings":["ивано-франковск","ifo","украина","ua","ivano-frankovsk","ukraine","ivano-frankovsk airport"],"code":"IFO","country_name":"Украина","timezone":"Europe\/Kiev","searchable":true,"country_code":"UA","coordinates":{"lat":48.887535,"lon":24.707565},"type":"city","name":"Ивано-Франковск"},{"country_name":"Германия","weight":85947,"type":"airport","code":"DUS","searchable":true,"index_strings":["dus","дюссельдорф","германия","de","dusseldorf international airport","dusseldorf","germany"],"coordinates":{"lat":51.278328,"lon":6.76558},"city_code":"DUS","city_name":"Дюссельдорф","timezone":"Europe\/Berlin","country_code":"DE","name":"Дюссельдорф"},{"weight":85947,"index_strings":["dus","дюссельдорф","германия","de","dusseldorf","germany"],"code":"DUS","country_name":"Германия","timezone":"Europe\/Berlin","searchable":true,"country_code":"DE","coordinates":{"lat":51.2249429,"lon":6.7756524},"type":"city","name":"Дюссельдорф"},{"weight":85109,"index_strings":["марискаль сукре","uio","кито","эквадор","ec","quito","ecuador","mariscal sucre international airport"],"code":"UIO","country_name":"Эквадор","timezone":"America\/Guayaquil","searchable":true,"country_code":"EC","coordinates":{"lat":-0.145528,"lon":-78.49053000000001},"type":"city","name":"Кито"},{"weight":84757,"index_strings":["далянь","dlc","китай","cn","dalian","china","dalian zhoushuizi international airport"],"code":"DLC","country_name":"Китай","timezone":"Asia\/Shanghai","searchable":true,"country_code":"CN","coordinates":{"lat":38.96102,"lon":121.53999},"type":"city","name":"Далянь"},{"weight":84396,"index_strings":["минск-2","msq","минск","беларусь","by","minsk","belarus","minsk national airport"],"code":"MSQ","country_name":"Беларусь","timezone":"Europe\/Minsk","searchable":true,"country_code":"BY","coordinates":{"lat":53.9,"lon":27.5666667},"type":"city","name":"Минск"},{"weight":83896,"index_strings":["тривандрам","trv","индия","in","thiruvananthapuram","india","trivandrum international airport"],"code":"TRV","country_name":"Индия","timezone":"Asia\/Kolkata","searchable":true,"country_code":"IN","coordinates":{"lat":8.476126000000001,"lon":76.91907},"type":"city","name":"Тривандрам"},{"weight":83177,"index_strings":["гейдар алиев","bak","баку","азербайджан","az","baku","azerbaijan","heydar aliyev international airport"],"code":"BAK","country_name":"Азербайджан","timezone":"Asia\/Baku","searchable":true,"country_code":"AZ","coordinates":{"lat":40.4349504,"lon":49.8676232},"type":"city","name":"Баку"},{"weight":82620,"index_strings":["череповец","cee","россия","ru","cherepovets","russia","cherepovets airport"],"code":"CEE","country_name":"Россия","timezone":"Europe\/Moscow","searchable":true,"country_code":"RU","coordinates":{"lat":59.283333,"lon":38.066666},"type":"city","name":"Череповец"},{"weight":82468,"index_strings":["нюрнберг","nue","германия","de","nuremberg","germany","nuremberg airport"],"code":"NUE","country_name":"Германия","timezone":"Europe\/Berlin","searchable":true,"country_code":"DE","coordinates":{"lat":49.45052,"lon":11.08048},"type":"city","name":"Нюрнберг"},{"weight":81707,"index_strings":["fra","франкфурт-на-майне","германия","de","frankfurt","germany"],"code":"FRA","country_name":"Германия","timezone":"Europe\/Berlin","searchable":true,"country_code":"DE","coordinates":{"lat":50.050735,"lon":8.570773000000001},"type":"city","name":"Франкфурт-на-Майне"},{"country_name":"Германия","weight":81707,"type":"airport","code":"FRA","searchable":true,"index_strings":["fra","франкфурт-на-майне","германия","de","frankfurt airport","frankfurt","germany"],"coordinates":{"lat":50.050735,"lon":8.570773000000001},"city_code":"FRA","city_name":"Франкфурт-на-Майне","timezone":"Europe\/Berlin","country_code":"DE","name":"Франкфурт-на-Майне"},{"weight":80869,"index_strings":["донское","tbw","тамбов","россия","ru","tambov","russia","tambov donskoye airport"],"code":"TBW","country_name":"Россия","timezone":"Europe\/Moscow","searchable":true,"country_code":"RU","coordinates":{"lat":52.716667,"lon":41.433334},"type":"city","name":"Тамбов"},{"weight":79877,"index_strings":["соуда","chq","ханья","греция","gr","chania","greece","chania international airport"],"code":"CHQ","country_name":"Греция","timezone":"Europe\/Athens","searchable":true,"country_code":"GR","coordinates":{"lat":35.5402,"lon":24.140373},"type":"city","name":"Ханья"},{"weight":79749,"index_strings":["эльдорадо","bog","богота","колумбия","co","bogota","colombia","el dorado international airport"],"code":"BOG","country_name":"Колумбия","timezone":"America\/Bogota","searchable":true,"country_code":"CO","coordinates":{"lat":4.698602,"lon":-74.143135},"type":"city","name":"Богота"},{"weight":78624,"index_strings":["нарьян-мар","nnm","россия","ru","naryan-mar","russia","naryan-mar airport"],"code":"NNM","country_name":"Россия","timezone":"Europe\/Moscow","searchable":true,"country_code":"RU","coordinates":{"lat":67.61667,"lon":53.15},"type":"city","name":"Нарьян-Мар"},{"weight":77658,"index_strings":["пардубице","ped","чехия","cz","pardubice","czech republic","pardubice airport"],"code":"PED","country_name":"Чехия","timezone":"Europe\/Prague","searchable":true,"country_code":"CZ","coordinates":{"lat":50.0378281,"lon":15.7808335},"type":"city","name":"Пардубице"},{"weight":76550,"index_strings":["калибо","klo","филиппины","ph","kalibo","philippines","kalibo international airport"],"code":"KLO","country_name":"Филиппины","timezone":"Asia\/Manila","searchable":true,"country_code":"PH","coordinates":{"lat":11.687152,"lon":122.38183},"type":"city","name":"Калибо"},{"weight":76472,"index_strings":["tci","тенерифе","испания","es","tenerife","spain"],"code":"TCI","country_name":"Испания","timezone":"Atlantic\/Canary","searchable":true,"country_code":"ES","coordinates":{"lat":28.2915637,"lon":-16.6291304},"type":"city","name":"Тенерифе"},{"weight":75434,"index_strings":["катиклан","mph","филиппины","ph","caticlan","philippines","boracay airport"],"code":"MPH","country_name":"Филиппины","timezone":"Asia\/Manila","searchable":true,"country_code":"PH","coordinates":{"lat":11.925263,"lon":121.9521},"type":"city","name":"Катиклан"},{"weight":75365,"index_strings":["симон боливар","ccs","каракас","венесуэла","ve","caracas","venezuela","simon bolivar international airport"],"code":"CCS","country_name":"Венесуэла","timezone":"America\/Caracas","searchable":true,"country_code":"VE","coordinates":{"lat":10.596942,"lon":-67.00551},"type":"city","name":"Каракас"},{"weight":75000,"index_strings":["кос","kgs","греция","gr","kos","greece","kos airport"],"code":"KGS","country_name":"Греция","timezone":"Europe\/Athens","searchable":true,"country_code":"GR","coordinates":{"lat":36.793056,"lon":27.095278},"type":"city","name":"Кос"},{"weight":73331,"index_strings":["коста смералда","olb","ольбия","италия","it","olbia","italy","olbia costa smeralda airport"],"code":"OLB","country_name":"Италия","timezone":"Europe\/Rome","searchable":true,"country_code":"IT","coordinates":{"lat":40.903145,"lon":9.514823},"type":"city","name":"Ольбия"},{"weight":72655,"index_strings":["семипалатинск","plx","казахстан","kz","semipalatinsk","kazakhstan","semipalatinsk airport"],"code":"PLX","country_name":"Казахстан","timezone":"Asia\/Almaty","searchable":true,"country_code":"KZ","coordinates":{"lat":50.333332,"lon":80.25},"type":"city","name":"Семипалатинск"},{"weight":72024,"index_strings":["хибины","kvk","кировск","россия","ru","kirovsk","russia","kirovsk airport"],"code":"KVK","country_name":"Россия","timezone":"Europe\/Volgograd","searchable":true,"country_code":"RU","coordinates":{"lat":67.583336,"lon":33.583332},"type":"city","name":"Кировск"},{"weight":69318,"index_strings":["сиануквиль","kos","камбоджа","kh","sihanoukville","cambodia","sihanouk international airport"],"code":"KOS","country_name":"Камбоджа","timezone":"Asia\/Phnom_Penh","searchable":true,"country_code":"KH","coordinates":{"lat":10.633333,"lon":103.5},"type":"city","name":"Сиануквиль"},{"weight":69159,"index_strings":["полярный","pyj","россия","ru","polyarnyj","russia","polyarnyj airport"],"code":"PYJ","country_name":"Россия","timezone":"Asia\/Yakutsk","searchable":true,"country_code":"RU","coordinates":{"lat":66.416664,"lon":112.05},"type":"city","name":"Полярный"},{"weight":69066,"index_strings":["эдинбург","edi","великобритания","gb","edinburgh","united kingdom","edinburgh airport"],"code":"EDI","country_name":"Великобритания","timezone":"Europe\/London","searchable":true,"country_code":"GB","coordinates":{"lat":55.9501755,"lon":-3.1875359},"type":"city","name":"Эдинбург"},{"weight":68240,"index_strings":["лангкави","lgk","малайзия","my","langkawi","malaysia","langkawi international airport"],"code":"LGK","country_name":"Малайзия","timezone":"Asia\/Kuala_Lumpur","searchable":true,"country_code":"MY","coordinates":{"lat":6.342174,"lon":99.73139999999999},"type":"city","name":"Лангкави"},{"weight":67860,"index_strings":["элиста","esl","россия","ru","elista","russia","elista airport"],"code":"ESL","country_name":"Россия","timezone":"Europe\/Moscow","searchable":true,"country_code":"RU","coordinates":{"lat":46.36667,"lon":44.333332},"type":"city","name":"Элиста"},{"country_name":"Италия","weight":67277,"type":"airport","code":"VCE","searchable":true,"index_strings":["vce","марко поло","венеция","италия","it","venice marco polo airport","venice","italy"],"coordinates":{"lat":45.502285,"lon":12.337947},"city_code":"VCE","city_name":"Венеция","timezone":"Europe\/Rome","country_code":"IT","name":"Марко Поло"},{"weight":67277,"index_strings":["vce","венеция","италия","it","venice","italy"],"code":"VCE","country_name":"Италия","timezone":"Europe\/Rome","searchable":true,"country_code":"IT","coordinates":{"lat":45.4343363,"lon":12.3387844},"type":"city","name":"Венеция"},{"weight":66273,"index_strings":["дананг","dad","вьетнам","vn","da nang","vietnam","da nang international airport"],"code":"DAD","country_name":"Вьетнам","timezone":"Asia\/Ho_Chi_Minh","searchable":true,"country_code":"VN","coordinates":{"lat":16.055399,"lon":108.20298},"type":"city","name":"Дананг"},{"weight":65531,"index_strings":["адана","ada","турция","tr","adana","turkey","adana airport"],"code":"ADA","country_name":"Турция","timezone":"Europe\/Istanbul","searchable":true,"country_code":"TR","coordinates":{"lat":37,"lon":35.3213333},"type":"city","name":"Адана"},{"weight":65005,"index_strings":["йошкар-ола","jok","россия","ru","yoshkar-ola","russia","yoshkar-ola airport"],"code":"JOK","country_name":"Россия","timezone":"Europe\/Moscow","searchable":true,"country_code":"RU","coordinates":{"lat":56.716667,"lon":47.9},"type":"city","name":"Йошкар-Ола"},{"weight":64949,"index_strings":["бремен","bre","германия","de","bremen","germany","bremen airport"],"code":"BRE","country_name":"Германия","timezone":"Europe\/Berlin","searchable":true,"country_code":"DE","coordinates":{"lat":53.05297,"lon":8.785352},"type":"city","name":"Бремен"},{"weight":63592,"index_strings":["элефтериос веницелос","ath","афины","греция","gr","athens","greece","eleftherios venizelos international airport"],"code":"ATH","country_name":"Греция","timezone":"Europe\/Athens","searchable":true,"country_code":"GR","coordinates":{"lat":37.93635,"lon":23.946486},"type":"city","name":"Афины"},{"weight":63364,"index_strings":["скопье","skp","македония","mk","skopje","macedonia","skopje alexander the great airport"],"code":"SKP","country_name":"Македония","timezone":"Europe\/Skopje","searchable":true,"country_code":"MK","coordinates":{"lat":41.95649,"lon":21.62872},"type":"city","name":"Скопье"},{"weight":63269,"index_strings":["жирона — коста-брава","gro","жирона","испания","es","girona","spain","girona-costa brava airport"],"code":"GRO","country_name":"Испания","timezone":"Europe\/Madrid","searchable":true,"country_code":"ES","coordinates":{"lat":41.89804,"lon":2.766383},"type":"city","name":"Жирона"},{"weight":62571,"index_strings":["брно","brq","чехия","cz","brno","czech republic","turany airport"],"code":"BRQ","country_name":"Чехия","timezone":"Europe\/Prague","searchable":true,"country_code":"CZ","coordinates":{"lat":49.1909804,"lon":16.6115347},"type":"city","name":"Брно"},{"weight":61140,"index_strings":["гимхе","pus","пусан","южная корея","kr","busan","south korea","gimhae international airport"],"code":"PUS","country_name":"Южная Корея","timezone":"Asia\/Seoul","searchable":true,"country_code":"KR","coordinates":{"lat":35.179317,"lon":128.94873},"type":"city","name":"Пусан"},{"weight":60939,"index_strings":["улан-батор","uln","монголия","mn","ulaanbaatar","mongolia","chinggis khaan international airport"],"code":"ULN","country_name":"Монголия","timezone":"Asia\/Ulaanbaatar","searchable":true,"country_code":"MN","coordinates":{"lat":47.85275,"lon":106.76327},"type":"city","name":"Улан-Батор"},{"weight":60862,"index_strings":["gum","хагатна","гуам","gu","guam"],"code":"GUM","country_name":"Гуам","timezone":"Pacific\/Guam","searchable":true,"country_code":"GU","coordinates":{"lat":13.47617,"lon":144.751511},"type":"city","name":"Хагатна"},{"weight":60820,"index_strings":["кзылорда","kzo","кызылорда","казахстан","kz","kzyl-orda","kazakhstan","kzyl-orda airport"],"code":"KZO","country_name":"Казахстан","timezone":"Asia\/Qyzylorda","searchable":true,"country_code":"KZ","coordinates":{"lat":44.712223,"lon":65.59287999999999},"type":"city","name":"Кызылорда"},{"weight":60380,"index_strings":["воркута","vkt","россия","ru","vorkuta","russia","vorkuta airport"],"code":"VKT","country_name":"Россия","timezone":"Europe\/Moscow","searchable":true,"country_code":"RU","coordinates":{"lat":67.48333,"lon":63.983334},"type":"city","name":"Воркута"},{"weight":60322,"index_strings":["нанди","nan","фиджи","fj","nadi","fiji","nadi international airport"],"code":"NAN","country_name":"Фиджи","timezone":"Pacific\/Fiji","searchable":true,"country_code":"FJ","coordinates":{"lat":-17.75327,"lon":177.45161},"type":"city","name":"Нанди"},{"weight":60296,"index_strings":["монастир","mir","тунис","tn","monastir","tunisia","habib bourguiba international airport"],"code":"MIR","country_name":"Тунис","timezone":"Africa\/Tunis","searchable":true,"country_code":"TN","coordinates":{"lat":35.76108,"lon":10.753155},"type":"city","name":"Монастир"},{"weight":58537,"index_strings":["брест","bqt","беларусь","by","brest","belarus","brest airport"],"code":"BQT","country_name":"Беларусь","timezone":"Europe\/Minsk","searchable":true,"country_code":"BY","coordinates":{"lat":52.11667,"lon":23.883333},"type":"city","name":"Брест"},{"weight":56775,"index_strings":["матавери","ipc","остров пасхи","чили","cl","easter island","chile","mataveri international airport"],"code":"IPC","country_name":"Чили","timezone":"Pacific\/Easter","searchable":true,"country_code":"CL","coordinates":{"lat":-27.116667,"lon":-109.36667},"type":"city","name":"Остров Пасхи"},{"weight":56099,"index_strings":["hkg","гонконг","hk","hong kong"],"code":"HKG","country_name":"Гонконг","timezone":"Asia\/Hong_Kong","searchable":true,"country_code":"HK","coordinates":{"lat":22.2478599,"lon":114.2033843},"type":"city","name":"Гонконг"},{"country_name":"Гонконг","weight":56099,"type":"airport","code":"HKG","searchable":true,"index_strings":["hkg","гонконг ","гонконг","hk","hong kong international airport","hong kong"],"coordinates":{"lat":22.315248,"lon":113.93649},"city_code":"HKG","city_name":"Гонконг","timezone":"Asia\/Hong_Kong","country_code":"HK","name":"Гонконг "},{"weight":55599,"index_strings":["hou","хьюстон","сша","us","houston","united states"],"code":"HOU","country_name":"США","timezone":"America\/Chicago","searchable":true,"country_code":"US","coordinates":{"lat":29.762778,"lon":-95.383056},"type":"city","name":"Хьюстон"},{"weight":55240,"index_strings":["нассау","nas","багамы","bs","nassau","bahamas","lynden pindling international airport"],"code":"NAS","country_name":"Багамы","timezone":"America\/Nassau","searchable":true,"country_code":"BS","coordinates":{"lat":25.06,"lon":-77.345},"type":"city","name":"Нассау"},{"weight":54970,"index_strings":["бордо","bod","франция","fr","bordeaux","france","bordeaux airport"],"code":"BOD","country_name":"Франция","timezone":"Europe\/Paris","searchable":true,"country_code":"FR","coordinates":{"lat":44.837789,"lon":-0.57918},"type":"city","name":"Бордо"},{"weight":54928,"index_strings":["гомель","gme","беларусь","by","gomel","belarus","gomel airport"],"code":"GME","country_name":"Беларусь","timezone":"Europe\/Minsk","searchable":true,"country_code":"BY","coordinates":{"lat":52.416668,"lon":31},"type":"city","name":"Гомель"},{"weight":53528,"index_strings":["брисбен","bne","австралия","au","brisbane","australia","brisbane airport"],"code":"BNE","country_name":"Австралия","timezone":"Australia\/Brisbane","searchable":true,"country_code":"AU","coordinates":{"lat":-27.4709331,"lon":153.0235024},"type":"city","name":"Брисбен"},{"weight":52872,"index_strings":["малага","agp","испания","es","malaga","spain","malaga airport"],"code":"AGP","country_name":"Испания","timezone":"Europe\/Madrid","searchable":true,"country_code":"ES","coordinates":{"lat":36.7196484,"lon":-4.4200163},"type":"city","name":"Малага"},{"weight":52774,"index_strings":["веллингтон","wlg","новая зеландия","nz","wellington","new zealand","wellington international airport"],"code":"WLG","country_name":"Новая Зеландия","timezone":"Pacific\/Auckland","searchable":true,"country_code":"NZ","coordinates":{"lat":-41.329037,"lon":174.81216},"type":"city","name":"Веллингтон"},{"weight":52548,"index_strings":["индустан","blr","бангалор","индия","in","bengaluru","india","kempegowda international airport"],"code":"BLR","country_name":"Индия","timezone":"Asia\/Kolkata","searchable":true,"country_code":"IN","coordinates":{"lat":13.198889,"lon":77.70556000000001},"type":"city","name":"Бангалор"},{"weight":52320,"index_strings":["тараз","dmb","казахстан","kz","taraz","kazakhstan","jambyl airport"],"code":"DMB","country_name":"Казахстан","timezone":"Asia\/Almaty","searchable":true,"country_code":"KZ","coordinates":{"lat":42.9,"lon":71.36667},"type":"city","name":"Тараз"},{"weight":52065,"index_strings":["фукуок","pqc","вьетнам","vn","phu quoc","vietnam","phu quoc airport"],"code":"PQC","country_name":"Вьетнам","timezone":"Asia\/Ho_Chi_Minh","searchable":true,"country_code":"VN","coordinates":{"lat":10.223722,"lon":103.96324},"type":"city","name":"Фукуок"},{"weight":51796,"index_strings":["грантлей адамс","bgi","бриджтаун","барбадос","bb","bridgetown","barbados","grantley adams international airport"],"code":"BGI","country_name":"Барбадос","timezone":"America\/Barbados","searchable":true,"country_code":"BB","coordinates":{"lat":13.080732,"lon":-59.487835},"type":"city","name":"Бриджтаун"},{"country_name":"США","weight":51625,"type":"airport","code":"LAX","searchable":true,"coordinates":{"lat":33.943398,"lon":-118.40828},"index_strings":["lax","лос-анджелес","сша","us","los angeles international airport","los angeles","united states"],"city_code":"LAX","city_name":"Лос-Анджелес","state_code":"CA","country_code":"US","name":"Лос-Анджелес","timezone":"America\/Los_Angeles"},{"weight":51625,"index_strings":["lax","лос-анджелес","сша","us","los angeles","united states"],"code":"LAX","country_name":"США","timezone":"America\/Los_Angeles","searchable":true,"country_code":"US","coordinates":{"lat":34.0522342,"lon":-118.2436849},"type":"city","name":"Лос-Анджелес"},{"weight":51564,"index_strings":["сайпан интернэшинл","spn","сайпан","северные марианские острова","mp","saipan","northern mariana islands","saipan international airport"],"code":"SPN","country_name":"Северные Марианские острова","timezone":"Pacific\/Saipan","searchable":true,"country_code":"MP","coordinates":{"lat":15.122178,"lon":145.72325},"type":"city","name":"Сайпан"},{"weight":51344,"index_strings":["dxb","дубай","оаэ","ae","dubai","united arab emirates"],"code":"DXB","country_name":"ОАЭ","timezone":"Asia\/Dubai","searchable":true,"country_code":"AE","coordinates":{"lat":25.2644444,"lon":55.3116667},"type":"city","name":"Дубай"},{"country_name":"ОАЭ","weight":51344,"type":"airport","code":"DXB","searchable":true,"index_strings":["dxb","дубай","оаэ","ae","dubai airport","dubai","united arab emirates"],"coordinates":{"lat":25.248665,"lon":55.352917},"city_code":"DXB","city_name":"Дубай","timezone":"Asia\/Dubai","country_code":"AE","name":"Дубай"},{"weight":51328,"index_strings":["кисони","znz","занзибар","танзания","tz","zanzibar","tanzania","zanzibar international airport"],"code":"ZNZ","country_name":"Танзания","timezone":"Africa\/Dar_es_Salaam","searchable":true,"country_code":"TZ","coordinates":{"lat":-6.218466,"lon":39.221184},"type":"city","name":"Занзибар"},{"weight":51205,"index_strings":["дортмунд","dtm","германия","de","dortmund","germany","dortmund airport"],"code":"DTM","country_name":"Германия","timezone":"Europe\/Berlin","searchable":true,"country_code":"DE","coordinates":{"lat":51.514828,"lon":7.613139},"type":"city","name":"Дортмунд"},{"weight":50993,"index_strings":["лех валенса","gdn","гданьск","польша","pl","gdansk","poland","gdansk lech walesa airport"],"code":"GDN","country_name":"Польша","timezone":"Europe\/Warsaw","searchable":true,"country_code":"PL","coordinates":{"lat":54.380978,"lon":18.468655},"type":"city","name":"Гданьск"},{"weight":49056,"index_strings":["ламеция-терме","suf","италия","it","lamezia-terme","italy","lamezia terme international airport"],"code":"SUF","country_name":"Италия","timezone":"Europe\/Rome","searchable":true,"country_code":"IT","coordinates":{"lat":38.91,"lon":16.24},"type":"city","name":"Ламеция-Терме"},{"weight":48971,"index_strings":["когалым","kgp","россия","ru","kogalym","russia","kogalym international airport"],"code":"KGP","country_name":"Россия","timezone":"Asia\/Yekaterinburg","searchable":true,"country_code":"RU","coordinates":{"lat":62.19583,"lon":74.53361},"type":"city","name":"Когалым"},{"weight":48576,"index_strings":["хайкоу","hak","китай","cn","haikou","china","haikou airport"],"code":"HAK","country_name":"Китай","timezone":"Asia\/Shanghai","searchable":true,"country_code":"CN","coordinates":{"lat":19.941612,"lon":110.45717},"type":"city","name":"Хайкоу"},{"weight":48162,"index_strings":["дар-эс-салам","dar","танзания","tz","dar es salaam","tanzania","julius nyerere international airport"],"code":"DAR","country_name":"Танзания","timezone":"Africa\/Dar_es_Salaam","searchable":true,"country_code":"TZ","coordinates":{"lat":-6.873533,"lon":39.20211},"type":"city","name":"Дар-эс-Салам"},{"weight":47166,"index_strings":["люксембург","lux","lu","luxembourg","luxembourg airport"],"code":"LUX","country_name":"Люксембург","timezone":"Europe\/Luxembourg","searchable":true,"country_code":"LU","coordinates":{"lat":49.63111,"lon":6.209539},"type":"city","name":"Люксембург"},{"weight":47009,"index_strings":["кокшетау","kov","казахстан","kz","kokshetau","kazakhstan","kokshetau airport"],"code":"KOV","country_name":"Казахстан","timezone":"Asia\/Almaty","searchable":true,"country_code":"KZ","coordinates":{"lat":53.316666,"lon":69.40000000000001},"type":"city","name":"Кокшетау"},{"weight":46283,"index_strings":["батмир","sjj","сараево","босния и герцеговина","ba","sarajevo","bosnia and herzegovina","sarajevo international airport"],"code":"SJJ","country_name":"Босния и Герцеговина","timezone":"Europe\/Sarajevo","searchable":true,"country_code":"BA","coordinates":{"lat":43.826687,"lon":18.336065},"type":"city","name":"Сараево"},{"weight":44801,"index_strings":["монтего-бей","mbj","ямайка","jm","montego bay","jamaica","sangster international airport"],"code":"MBJ","country_name":"Ямайка","timezone":"America\/Jamaica","searchable":true,"country_code":"JM","coordinates":{"lat":18.498465,"lon":-77.91663},"type":"city","name":"Монтего-Бей"},{"weight":43999,"index_strings":["папеэте","ppt","французская полинезия","pf","papeete","french polynesia","tahiti faa'a airport"],"code":"PPT","country_name":"Французская Полинезия","timezone":"Pacific\/Tahiti","searchable":true,"country_code":"PF","coordinates":{"lat":-17.55963,"lon":-149.60938},"type":"city","name":"Папеэте"},{"weight":43842,"index_strings":["нягань","nya","россия","ru","nyagan","russia","nyagan airport"],"code":"NYA","country_name":"Россия","timezone":"Asia\/Yekaterinburg","searchable":true,"country_code":"RU","coordinates":{"lat":62.101074,"lon":65.60563},"type":"city","name":"Нягань"},